timestamp(unix),attitude_roll(radians),attitude_pitch(radians),attitude_yaw(radians),rotation_rate_x(radians/s),rotation_rate_y(radians/s),rotation_rate_z(radians/s),gravity_x(G),gravity_y(G),gravity_z(G),user_acc_x(G),user_acc_y(G),user_acc_z(G),magnetic_field_x(microteslas),magnetic_field_y(microteslas),magnetic_field_z(microteslas),latitude(degree),longitude(degree),altitude(meter),speed(m/s),course(degree),timestamp(unix),User Mark
,,,,,,,,,,,,,,,,42.293040,-71.262310,49.932190,0.000000,102.656250,1537388129.999150,
1537388200.055687,-0.042269,0.466881,-2.108264,-0.288907,0.589940,-0.153798,-0.037734,-0.450104,-0.892177,-0.038956,0.043365,0.053325,0.540557,-19.400040,-48.339508,,,,,,,
,,,,,,,,,,,,,,,,42.293042,-71.262580,49.932899,-1.000000,-1.000000,1537388180.394976,
1537388200.065666,-0.035816,0.464024,-2.110263,-0.295275,0.545082,-0.172998,-0.032022,-0.447550,-0.893684,-0.026526,0.031702,0.033973,0.540557,-19.400040,-48.339508,,,,,,,
1537388200.075615,-0.029900,0.460992,-2.112352,-0.317794,0.485398,-0.178399,-0.026774,-0.444836,-0.895210,-0.022923,0.021481,0.022773,0.928392,-19.075623,-48.653503,,,,,,,
1537388200.085594,-0.024548,0.457638,-2.114371,-0.348931,0.435410,-0.168916,-0.022020,-0.441831,-0.896827,-0.025450,0.008054,0.018729,0.928392,-19.075623,-48.653503,,,,,,,
1537388200.095573,-0.019560,0.453935,-2.116216,-0.383269,0.417475,-0.153075,-0.017578,-0.438506,-0.898555,-0.029572,-0.008730,0.022136,1.296524,-18.873779,-48.639160,,,,,,,
1537388200.105553,-0.014625,0.449926,-2.117827,-0.410096,0.430471,-0.132952,-0.013169,-0.434899,-0.900382,-0.034881,-0.022316,0.028815,1.296524,-18.873779,-48.639160,,,,,,,
1537388200.115532,-0.009379,0.445702,-2.119096,-0.429455,0.481892,-0.101087,-0.008462,-0.431092,-0.902267,-0.040793,-0.031570,0.033279,1.540600,-18.366730,-48.878845,,,,,,,
1537388200.125511,-0.003714,0.441384,-2.119975,-0.433837,0.549247,-0.069155,-0.003358,-0.427191,-0.904154,-0.046981,-0.037744,0.035089,1.540600,-18.366730,-48.878845,,,,,,,
,,,,,,,,,,,,,,,,42.293042,-71.262580,49.932899,-1.000000,-1.000000,1537388200.122217,
1537388200.135490,0.002471,0.437006,-2.120477,-0.439270,0.617675,-0.038298,0.002239,-0.423229,-0.906018,-0.050838,-0.040745,0.029264,1.812918,-18.295181,-48.928650,,,,,,,
,,,,,,,,,,,,,,,,42.293042,-71.262580,49.932899,-1.000000,-1.000000,1537388200.131121,
,,,,,,,,,,,,,,,,42.293042,-71.262580,49.932899,-1.000000,-1.000000,1537388200.133933,
1537388200.145439,0.009246,0.432593,-2.120635,-0.444658,0.691434,-0.010649,0.008394,-0.419226,-0.907842,-0.056047,-0.043024,0.019216,1.812918,-18.295181,-48.928650,,,,,,,
,,,,,,,,,,,,,,,,42.293042,-71.262580,49.932899,-1.000000,-1.000000,1537388200.146040,
1537388200.155418,0.016433,0.428228,-2.120459,-0.435186,0.734150,0.016046,0.014948,-0.415259,-0.909579,-0.058100,-0.043389,0.006991,2.439687,-17.929115,-49.274384,,,,,,,
1537388200.165398,0.023705,0.423955,-2.119962,-0.428993,0.753390,0.042750,0.021604,-0.411368,-0.911212,-0.055448,-0.046197,-0.007627,2.439687,-17.929115,-49.274384,,,,,,,
1537388200.175377,0.030858,0.419654,-2.119115,-0.437795,0.756705,0.072587,0.028176,-0.407444,-0.912794,-0.057061,-0.054104,-0.024309,2.873307,-17.677441,-49.384766,,,,,,,
1537388200.185346,0.037854,0.415229,-2.117879,-0.453023,0.748316,0.103465,0.034629,-0.403400,-0.914367,-0.062110,-0.064435,-0.042893,2.873307,-17.677441,-49.384766,,,,,,,
1537388200.195325,0.044460,0.410806,-2.116321,-0.448013,0.716316,0.129143,0.040747,-0.399348,-0.915892,-0.066123,-0.075200,-0.053499,3.436398,-17.304283,-49.681732,,,,,,,
1537388200.205305,0.050598,0.406514,-2.114536,-0.436519,0.682131,0.146318,0.046455,-0.395410,-0.917328,-0.069083,-0.080008,-0.058762,3.436398,-17.304283,-49.681732,,,,,,,
1537388200.215284,0.056628,0.402300,-2.112637,-0.432298,0.683188,0.151678,0.052079,-0.391536,-0.918687,-0.067643,-0.072987,-0.062698,3.895376,-17.013649,-49.795685,,,,,,,
1537388200.225233,0.062982,0.398209,-2.110737,-0.419348,0.727949,0.147437,0.058016,-0.387768,-0.919928,-0.059694,-0.055103,-0.055704,3.895376,-17.013649,-49.795685,,,,,,,
1537388200.235212,0.070124,0.394153,-2.108952,-0.421123,0.804795,0.131337,0.064693,-0.384026,-0.921052,-0.043255,-0.034095,-0.053085,4.253794,-16.660450,-50.039459,,,,,,,
1537388200.245191,0.077988,0.389950,-2.107491,-0.435548,0.853901,0.091710,0.072061,-0.380142,-0.922116,-0.017831,-0.020035,-0.064167,4.253794,-16.660450,-50.039459,,,,,,,
1537388200.255170,0.086168,0.385541,-2.106491,-0.452150,0.859219,0.042511,0.079744,-0.376061,-0.923156,0.000258,-0.009208,-0.077592,5.025952,-16.448166,-50.249390,,,,,,,
1537388200.265150,0.094440,0.380914,-2.105965,-0.473084,0.847476,-0.005626,0.087541,-0.371769,-0.924187,0.012359,0.005985,-0.089439,5.025952,-16.448166,-50.249390,,,,,,,
1537388200.275129,0.102723,0.376008,-2.105836,-0.496214,0.831491,-0.047367,0.095379,-0.367210,-0.925234,0.020054,0.014884,-0.105253,5.631875,-16.239384,-50.441193,,,,,,,
1537388200.285108,0.110611,0.371101,-2.106125,-0.476836,0.743736,-0.093071,0.102871,-0.362641,-0.926233,0.031528,0.019212,-0.114234,5.631875,-16.239384,-50.441193,,,,,,,
1537388200.295057,0.116223,0.366885,-2.107066,-0.400240,0.491250,-0.143632,0.108244,-0.358710,-0.927151,0.033357,-0.008218,-0.119831,5.902921,-16.038971,-50.432098,,,,,,,
1537388200.305036,0.121362,0.362653,-2.108042,-0.419488,0.487097,-0.138400,0.113190,-0.354756,-0.928081,0.058990,0.029332,-0.136021,5.902921,-16.038971,-50.432098,,,,,,,
1537388200.315015,0.126734,0.358149,-2.108977,-0.437476,0.505319,-0.149191,0.118375,-0.350542,-0.929035,0.064929,0.050172,-0.128185,6.192437,-15.692979,-50.704224,,,,,,,
1537388200.324995,0.131755,0.354037,-2.110480,-0.367786,0.425806,-0.210639,0.123226,-0.346688,-0.929850,0.079167,0.033119,-0.096105,6.192437,-15.692979,-50.704224,,,,,,,
1537388200.334974,0.136066,0.350975,-2.112946,-0.238226,0.323519,-0.290950,0.127377,-0.343814,-0.930358,0.096118,0.023242,-0.060548,6.192437,-15.692979,-50.704224,,,,,,,
1537388200.344953,0.140164,0.349160,-2.116216,-0.103420,0.296013,-0.339286,0.131276,-0.342109,-0.930444,0.099651,0.027808,-0.033286,6.368818,-15.328189,-50.753845,,,,,,,
1537388200.354932,0.144471,0.348641,-2.119925,0.033336,0.305933,-0.356692,0.135307,-0.341620,-0.930046,0.096489,0.030890,-0.010994,6.368818,-15.328189,-50.753845,,,,,,,
1537388200.364912,0.148876,0.349548,-2.123863,0.181549,0.301964,-0.349468,0.139356,-0.342473,-0.929134,0.091631,0.021062,0.010372,6.911877,-15.421506,-50.743958,,,,,,,
1537388200.374860,0.152885,0.351913,-2.127887,0.329581,0.248900,-0.335793,0.142957,-0.344694,-0.927765,0.076998,0.003324,0.026108,6.911877,-15.421506,-50.743958,,,,,,,
1537388200.384840,0.156236,0.355608,-2.131909,0.451876,0.181054,-0.310505,0.145866,-0.348161,-0.926016,0.064781,-0.011352,0.040930,7.223763,-15.620502,-50.844513,,,,,,,
1537388200.394819,0.159074,0.360098,-2.135767,0.513354,0.139160,-0.279169,0.148244,-0.352366,-0.924045,0.058466,-0.012319,0.052601,7.223763,-15.620502,-50.844513,,,,,,,
1537388200.404798,0.161500,0.364745,-2.139264,0.508647,0.112579,-0.239672,0.150220,-0.356711,-0.922057,0.052477,-0.012353,0.060744,7.402430,-16.081013,-50.741974,,,,,,,
1537388200.414777,0.163507,0.369072,-2.142304,0.459115,0.083033,-0.199351,0.151818,-0.360750,-0.920222,0.046134,-0.015700,0.068522,7.402430,-16.081013,-50.741974,,,,,,,
1537388200.424757,0.164899,0.372709,-2.144708,0.373138,0.038755,-0.146403,0.152882,-0.364140,-0.918710,0.037776,-0.018932,0.072717,7.753792,-16.569965,-50.959961,,,,,,,
1537388200.434736,0.165481,0.375469,-2.146292,0.272105,-0.013956,-0.081789,0.153251,-0.366709,-0.917626,0.021203,-0.020254,0.075279,7.753792,-16.569965,-50.959961,,,,,,,
1537388200.444685,0.165350,0.377345,-2.146975,0.173247,-0.047448,-0.013984,0.153018,-0.368453,-0.916965,0.011930,-0.014695,0.077747,7.958707,-16.832115,-50.772919,,,,,,,
1537388200.454664,0.164823,0.378426,-2.146870,0.085244,-0.050068,0.041043,0.152468,-0.369458,-0.916653,0.003675,-0.015353,0.077053,7.958707,-16.832115,-50.772919,,,,,,,
1537388200.464643,0.164234,0.378927,-2.146193,0.026254,-0.030454,0.080196,0.151899,-0.369924,-0.916559,-0.004712,-0.016902,0.073435,7.998537,-17.037159,-50.690491,,,,,,,
1537388200.474622,0.163780,0.379133,-2.145121,-0.000611,-0.000352,0.109906,0.151469,-0.370115,-0.916553,-0.012645,-0.012240,0.072757,7.998537,-17.037159,-50.690491,,,,,,,
1537388200.484602,0.163493,0.379245,-2.143660,-0.014723,0.032894,0.145023,0.151200,-0.370220,-0.916555,-0.023484,-0.002171,0.069403,8.223915,-17.138317,-50.562103,,,,,,,
1537388200.494581,0.163298,0.379326,-2.141872,-0.021329,0.047935,0.171657,0.151016,-0.370294,-0.916556,-0.030380,0.006281,0.063009,8.223915,-17.138317,-50.562103,,,,,,,
1537388200.504560,0.162899,0.379353,-2.139854,-0.032238,0.028814,0.190833,0.150649,-0.370320,-0.916606,-0.038192,0.007954,0.056071,8.433584,-17.062222,-50.643097,,,,,,,
1537388200.514539,0.162242,0.379164,-2.137646,-0.062265,0.011914,0.202427,0.150058,-0.370144,-0.916773,-0.046512,0.009197,0.048762,8.433584,-17.062222,-50.643097,,,,,,,
1537388200.524488,0.161284,0.378608,-2.135337,-0.100745,-0.020982,0.201180,0.149213,-0.369627,-0.917120,-0.054318,0.011686,0.043386,8.496442,-17.033249,-50.511627,,,,,,,
1537388200.534467,0.159871,0.377613,-2.133115,-0.144450,-0.072044,0.181778,0.147975,-0.368702,-0.917693,-0.058314,0.018376,0.044630,8.496442,-17.033249,-50.511627,,,,,,,
1537388200.544447,0.158125,0.376028,-2.131186,-0.200734,-0.113478,0.140949,0.146465,-0.367229,-0.918525,-0.053417,0.033504,0.048408,8.662436,-16.862701,-50.445892,,,,,,,
1537388200.554426,0.156241,0.373767,-2.129724,-0.262163,-0.139972,0.084063,0.144863,-0.365125,-0.919618,-0.051082,0.047467,0.050248,8.662436,-16.862701,-50.445892,,,,,,,
1537388200.564405,0.154463,0.370856,-2.128863,-0.311687,-0.147328,0.016546,0.143390,-0.362413,-0.920920,-0.047839,0.056520,0.050543,8.759998,-16.603954,-50.346344,,,,,,,
1537388200.574384,0.152872,0.367510,-2.128706,-0.338788,-0.155885,-0.055113,0.142109,-0.359293,-0.922340,-0.040409,0.065683,0.051994,8.759998,-16.603954,-50.346344,,,,,,,
1537388200.584364,0.151520,0.364040,-2.129234,-0.333956,-0.151775,-0.115934,0.141049,-0.356052,-0.923759,-0.037228,0.071018,0.052100,8.560934,-16.306938,-50.466125,,,,,,,
1537388200.594312,0.150459,0.360718,-2.130267,-0.309008,-0.139183,-0.156373,0.140245,-0.352946,-0.925072,-0.035860,0.069499,0.048592,8.560934,-16.306938,-50.466125,,,,,,,
,,,,,,,,,,,,,,,,42.293150,-71.262863,58.063652,-1.000000,-1.000000,1537388200.567324,
1537388200.604292,0.149739,0.357730,-2.131709,-0.263900,-0.117070,-0.184964,0.139736,-0.350149,-0.926211,-0.035427,0.065008,0.043735,8.629001,-16.198895,-50.390930,,,,,,,
1537388200.614271,0.149394,0.355265,-2.133480,-0.204939,-0.089668,-0.207085,0.139544,-0.347839,-0.927110,-0.028338,0.063003,0.041292,8.629001,-16.198895,-50.390930,,,,,,,
1537388200.624250,0.149479,0.353312,-2.135577,-0.150207,-0.056899,-0.229239,0.139724,-0.346007,-0.927768,-0.016723,0.061431,0.038211,8.672844,-16.166874,-50.476288,,,,,,,
1537388200.634229,0.149770,0.351817,-2.137868,-0.105309,-0.049677,-0.236472,0.140071,-0.344604,-0.928238,-0.010768,0.050689,0.031769,8.672844,-16.166874,-50.476288,,,,,,,
1537388200.644209,0.150167,0.350629,-2.140109,-0.084072,-0.032670,-0.220361,0.140501,-0.343489,-0.928587,-0.006635,0.035353,0.025693,8.484873,-16.171951,-50.521515,,,,,,,
1537388200.654188,0.150685,0.349501,-2.142037,-0.085382,-0.010170,-0.187300,0.141040,-0.342429,-0.928896,0.003491,0.022987,0.017443,8.484873,-16.171951,-50.521515,,,,,,,
1537388200.664167,0.151071,0.348266,-2.143545,-0.107107,-0.017443,-0.147916,0.141462,-0.341269,-0.929259,0.015154,0.010626,0.007277,8.561564,-15.980807,-50.569336,,,,,,,
1537388200.674116,0.150924,0.346899,-2.144565,-0.124694,-0.062100,-0.105269,0.141396,-0.339984,-0.929740,0.018745,-0.004148,-0.001870,8.561564,-15.980807,-50.569336,,,,,,,
1537388200.684095,0.150016,0.345505,-2.145069,-0.131735,-0.126019,-0.056138,0.140622,-0.338672,-0.930336,0.018253,-0.010770,-0.003899,8.437470,-16.004017,-50.389832,,,,,,,
1537388200.694074,0.148424,0.344157,-2.145094,-0.133333,-0.168619,-0.011271,0.139208,-0.337403,-0.931009,0.013365,-0.011474,-0.001242,8.437470,-16.004017,-50.389832,,,,,,,
1537388200.704053,0.146531,0.342850,-2.144758,-0.134727,-0.178157,0.019690,0.137510,-0.336173,-0.931707,0.008349,-0.009454,0.002568,8.450451,-15.814469,-50.343048,,,,,,,
1537388200.714033,0.144725,0.341453,-2.144211,-0.150804,-0.154551,0.034523,0.135894,-0.334857,-0.932417,0.004823,-0.011060,0.003523,8.450451,-15.814469,-50.343048,,,,,,,
1537388200.724012,0.143158,0.339854,-2.143592,-0.173108,-0.133079,0.032239,0.134509,-0.333349,-0.933158,0.000516,-0.015329,-0.001229,8.566152,-15.730042,-50.438171,,,,,,,
1537388200.733991,0.141644,0.338098,-2.143153,-0.180382,-0.141634,0.008724,0.133179,-0.331694,-0.933938,0.001434,-0.015245,-0.000067,8.566152,-15.730042,-50.438171,,,,,,,
1537388200.743940,0.140018,0.336340,-2.143007,-0.174870,-0.164140,-0.016842,0.131741,-0.330034,-0.934730,-0.003949,-0.012984,0.007896,8.315080,-15.547143,-50.298462,,,,,,,
1537388200.753919,0.137345,0.335242,-2.143084,-0.063329,-0.343029,-0.017116,0.129292,-0.328998,-0.935437,-0.013233,-0.009549,0.032178,8.315080,-15.547143,-50.298462,,,,,,,
1537388200.763898,0.132692,0.335450,-2.142975,0.031945,-0.471565,0.024103,0.124929,-0.329194,-0.935961,-0.033071,-0.010421,0.061296,8.019261,-15.869542,-50.205811,,,,,,,
1537388200.773878,0.128901,0.335547,-2.142639,-0.010381,-0.326128,0.029061,0.121376,-0.329286,-0.936396,-0.029197,-0.019484,0.041407,8.019261,-15.869542,-50.205811,,,,,,,
1537388200.783857,0.126958,0.334890,-2.142809,-0.081759,-0.161493,-0.047290,0.119583,-0.328665,-0.936844,-0.009948,-0.046305,0.028168,8.019261,-15.869542,-50.205811,,,,,,,
1537388200.793836,0.126759,0.333282,-2.143761,-0.176636,-0.014899,-0.128018,0.119463,-0.327146,-0.937391,-0.000734,-0.063906,0.016752,7.979987,-15.750102,-50.128082,,,,,,,
1537388200.803815,0.127907,0.330477,-2.145001,-0.291326,0.093475,-0.155441,0.120656,-0.324495,-0.938160,0.002269,-0.069106,-0.011532,7.979987,-15.750102,-50.128082,,,,,,,
1537388200.813795,0.129249,0.326852,-2.145998,-0.364078,0.098179,-0.132361,0.122066,-0.321063,-0.939157,0.001881,-0.072522,-0.033835,7.961432,-15.686473,-50.266968,,,,,,,
1537388200.823743,0.130302,0.322801,-2.146504,-0.409324,0.088896,-0.089898,0.123223,-0.317224,-0.940310,0.010612,-0.064917,-0.055539,7.961432,-15.686473,-50.266968,,,,,,,
1537388200.833723,0.131388,0.318386,-2.146541,-0.446936,0.115867,-0.052771,0.124426,-0.313034,-0.941555,0.020975,-0.059494,-0.078129,7.990202,-15.267549,-50.397125,,,,,,,
1537388200.843702,0.132564,0.313983,-2.146181,-0.436567,0.127648,-0.014303,0.125714,-0.308849,-0.942765,0.019733,-0.056248,-0.090834,7.990202,-15.267549,-50.397125,,,,,,,
1537388200.853681,0.133193,0.310169,-2.145355,-0.373221,0.075124,0.042673,0.126462,-0.305220,-0.943847,0.023043,-0.029451,-0.086350,8.138083,-14.973186,-50.443756,,,,,,,
1537388200.863660,0.133463,0.307098,-2.143947,-0.308730,0.075995,0.107073,0.126841,-0.302294,-0.944737,0.035848,0.023119,-0.084529,8.138083,-14.973186,-50.443756,,,,,,,
1537388200.873640,0.134012,0.304803,-2.142222,-0.230986,0.119423,0.135209,0.127453,-0.300105,-0.945352,0.047703,0.045985,-0.083517,8.195819,-14.857728,-50.454163,,,,,,,
1537388200.883619,0.135182,0.303396,-2.140780,-0.135651,0.175446,0.108993,0.128615,-0.298763,-0.945620,0.050340,0.037837,-0.086179,8.195819,-14.857728,-50.454163,,,,,,,
1537388200.893568,0.137176,0.302910,-2.139983,-0.033618,0.239920,0.055047,0.130521,-0.298299,-0.945505,0.049457,0.030874,-0.089178,8.238823,-14.679687,-50.407715,,,,,,,
1537388200.903547,0.139739,0.303359,-2.139889,0.066181,0.260636,0.001130,0.132925,-0.298727,-0.945035,0.045756,0.030188,-0.089251,8.238823,-14.679687,-50.407715,,,,,,,
1537388200.913526,0.142104,0.304612,-2.140464,0.150772,0.200290,-0.049582,0.135106,-0.299923,-0.944347,0.038204,0.026607,-0.086827,8.449039,-14.535470,-50.349213,,,,,,,
1537388200.923505,0.143710,0.306436,-2.141648,0.209623,0.099511,-0.098259,0.136544,-0.301663,-0.943586,0.033485,0.016293,-0.078067,8.449039,-14.535470,-50.349213,,,,,,,
1537388200.933485,0.144432,0.308596,-2.143381,0.246020,-0.006478,-0.142785,0.137131,-0.303722,-0.942840,0.027602,0.005412,-0.061830,8.259389,-14.638549,-50.276489,,,,,,,
1537388200.943464,0.144272,0.311014,-2.145588,0.278126,-0.108164,-0.183070,0.136874,-0.306024,-0.942132,0.020764,-0.006155,-0.037269,8.259389,-14.638549,-50.276489,,,,,,,
1537388200.953443,0.143349,0.313752,-2.148179,0.318717,-0.190653,-0.212652,0.135884,-0.308629,-0.941425,0.010997,-0.014201,-0.006618,8.044610,-14.661771,-50.423767,,,,,,,
1537388200.963422,0.142056,0.316948,-2.150977,0.366709,-0.220812,-0.218764,0.134527,-0.311668,-0.940619,-0.000707,-0.016732,0.027243,8.044610,-14.661771,-50.423767,,,,,,,
1537388200.973371,0.140931,0.320712,-2.153733,0.428517,-0.189068,-0.201378,0.133302,-0.315242,-0.939602,-0.018877,-0.016316,0.056606,7.820727,-15.268958,-50.464142,,,,,,,
1537388200.983350,0.140414,0.325404,-2.156256,0.527571,-0.110493,-0.160350,0.132608,-0.319691,-0.938196,-0.039255,-0.013759,0.084634,7.820727,-15.268958,-50.464142,,,,,,,
1537388200.993330,0.140840,0.331488,-2.158525,0.675766,-0.003340,-0.116947,0.132733,-0.325451,-0.936195,-0.055294,-0.006825,0.110207,7.833715,-15.723729,-50.532166,,,,,,,
1537388201.003309,0.142498,0.339531,-2.160677,0.881686,0.128054,-0.078589,0.133908,-0.333045,-0.933353,-0.068600,0.003180,0.131778,7.833715,-15.723729,-50.532166,,,,,,,
1537388201.013288,0.145556,0.349715,-2.162763,1.088675,0.273332,-0.035970,0.136263,-0.342630,-0.929535,-0.081453,0.011484,0.139526,7.888605,-16.113079,-50.525604,,,,,,,
1537388201.023267,0.150175,0.361339,-2.164627,1.198591,0.439413,0.010366,0.139950,-0.353527,-0.924895,-0.092724,0.009197,0.124358,7.888605,-16.113079,-50.525604,,,,,,,
1537388201.033247,0.156013,0.373201,-2.166268,1.191209,0.546268,0.032634,0.144685,-0.364598,-0.919855,-0.091752,0.003697,0.093469,7.939402,-17.163387,-50.457489,,,,,,,
1537388201.043195,0.162107,0.384351,-2.167958,1.106008,0.540268,0.014026,0.149623,-0.374958,-0.914886,-0.078517,0.006245,0.074112,7.939402,-17.163387,-50.457489,,,,,,,
1537388201.053175,0.167546,0.394008,-2.169926,0.937612,0.440684,-0.034832,0.153985,-0.383892,-0.910447,-0.063668,0.020061,0.059281,8.166056,-18.267113,-50.484375,,,,,,,
1537388201.063154,0.171603,0.401471,-2.172119,0.712526,0.280540,-0.085010,0.157184,-0.390773,-0.906966,-0.053913,0.035136,0.050093,8.166056,-18.267113,-50.484375,,,,,,,
1537388201.073133,0.174022,0.406414,-2.174240,0.457360,0.120598,-0.114002,0.159041,-0.395318,-0.904670,-0.054412,0.042398,0.051734,8.651714,-18.555683,-50.488586,,,,,,,
1537388201.083112,0.174795,0.408713,-2.175974,0.188120,-0.025331,-0.116399,0.159582,-0.397429,-0.903649,-0.059607,0.040266,0.055062,8.651714,-18.555683,-50.488586,,,,,,,
1537388201.093092,0.174094,0.408545,-2.177190,-0.056594,-0.145747,-0.110148,0.158960,-0.397275,-0.903826,-0.063897,0.032971,0.058871,8.553378,-18.992378,-50.569336,,,,,,,
1537388201.103071,0.172271,0.406334,-2.177892,-0.251132,-0.226918,-0.098319,0.157462,-0.395244,-0.904978,-0.066566,0.025234,0.068430,8.553378,-18.992378,-50.569336,,,,,,,
1537388201.113050,0.169968,0.402797,-2.178228,-0.370778,-0.244415,-0.087216,0.155613,-0.391993,-0.906710,-0.063725,0.028010,0.086169,8.522201,-18.736553,-50.473358,,,,,,,
1537388201.122999,0.167742,0.398552,-2.178244,-0.432760,-0.217345,-0.066238,0.153871,-0.388084,-0.908687,-0.057756,0.034935,0.097789,8.522201,-18.736553,-50.473358,,,,,,,
1537388201.132978,0.165759,0.394079,-2.177829,-0.449005,-0.169126,-0.025813,0.152354,-0.383958,-0.910693,-0.054148,0.041123,0.098544,8.465752,-18.424335,-50.715942,,,,,,,
1537388201.142957,0.164117,0.389805,-2.176945,-0.427989,-0.120021,0.022291,0.151125,-0.380008,-0.912553,-0.048922,0.046161,0.098161,8.465752,-18.424335,-50.715942,,,,,,,
1537388201.152937,0.162718,0.386100,-2.175742,-0.367415,-0.088231,0.057817,0.150075,-0.376578,-0.914147,-0.041234,0.054297,0.094445,8.468627,-17.770542,-50.906158,,,,,,,
1537388201.162916,0.161276,0.383190,-2.174507,-0.284335,-0.102522,0.068961,0.148932,-0.373881,-0.915440,-0.030112,0.063685,0.088719,8.468627,-17.770542,-50.906158,,,,,,,
1537388201.172895,0.159381,0.381175,-2.173406,-0.191680,-0.169209,0.067402,0.147316,-0.372011,-0.916462,-0.021858,0.068468,0.082386,8.468790,-17.748226,-51.074982,,,,,,,
1537388201.182874,0.156531,0.380157,-2.172567,-0.086276,-0.288293,0.057424,0.144762,-0.371067,-0.917252,-0.018191,0.064594,0.082276,8.468790,-17.748226,-51.074982,,,,,,,
1537388201.192817,0.152453,0.380137,-2.172062,0.016988,-0.423397,0.042116,0.141022,-0.371048,-0.917842,-0.019669,0.059616,0.091579,8.430400,-17.761536,-51.157715,,,,,,,
1537388201.202796,0.147203,0.381084,-2.171845,0.114897,-0.549918,0.032106,0.136150,-0.371927,-0.918222,-0.028454,0.054132,0.104364,8.430400,-17.761536,-51.157715,,,,,,,
1537388201.212776,0.140821,0.382922,-2.171726,0.200940,-0.661391,0.040163,0.130191,-0.373632,-0.918394,-0.045520,0.040228,0.117216,8.312540,-17.938385,-51.364838,,,,,,,
1537388201.222755,0.133377,0.385453,-2.171466,0.262284,-0.759885,0.067289,0.123224,-0.375979,-0.918397,-0.059900,0.023059,0.129808,8.312540,-17.938385,-51.364838,,,,,,,
1537388201.232734,0.124969,0.388425,-2.170565,0.288089,-0.820712,0.143281,0.115359,-0.378731,-0.918288,-0.077273,0.008828,0.137893,8.312540,-17.938385,-51.364838,,,,,,,
1537388201.242713,0.116073,0.391345,-2.168407,0.252825,-0.793553,0.272223,0.107057,-0.381432,-0.918176,-0.098436,0.003243,0.144204,8.318192,-18.021233,-51.589020,,,,,,,
1537388201.252692,0.107707,0.393421,-2.164086,0.123356,-0.622659,0.478425,0.099286,-0.383351,-0.918250,-0.131055,0.003254,0.142676,8.318192,-18.021233,-51.589020,,,,,,,
1537388201.262672,0.100503,0.393867,-2.156731,-0.080139,-0.376490,0.751393,0.092652,-0.383762,-0.918771,-0.174973,0.000202,0.124322,8.295742,-17.988777,-51.989807,,,,,,,
1537388201.272620,0.094191,0.392385,-2.146219,-0.296568,-0.187916,1.021148,0.086903,-0.382393,-0.919903,-0.195592,0.006127,0.097469,8.295742,-17.988777,-51.989807,,,,,,,
1537388201.282600,0.088084,0.389026,-2.133323,-0.491046,-0.106436,1.193991,0.081396,-0.379287,-0.921691,-0.170950,0.042403,0.070433,9.228114,-17.741096,-52.204193,,,,,,,
1537388201.292579,0.081716,0.383886,-2.119654,-0.663104,-0.133242,1.216558,0.075684,-0.374526,-0.924121,-0.114533,0.098617,0.037998,9.228114,-17.741096,-52.204193,,,,,,,
1537388201.302558,0.075091,0.376829,-2.106770,-0.845795,-0.202996,1.105681,0.069756,-0.367974,-0.927215,-0.054925,0.147835,-0.002091,10.651403,-17.315613,-52.211182,,,,,,,
1537388201.312537,0.068330,0.367626,-2.095808,-1.042606,-0.307051,0.897621,0.063714,-0.359401,-0.931005,-0.015252,0.162227,-0.038112,10.651403,-17.315613,-52.211182,,,,,,,
1537388201.322517,0.061132,0.356166,-2.087651,-1.247428,-0.475287,0.614858,0.057260,-0.348683,-0.935489,0.022269,0.147999,-0.076138,12.321240,-16.593327,-51.884369,,,,,,,
1537388201.332496,0.053363,0.342422,-2.082587,-1.453285,-0.645667,0.326757,0.050241,-0.335769,-0.940603,0.054358,0.112030,-0.120234,12.321240,-16.593327,-51.884369,,,,,,,
1537388201.342445,0.045157,0.326766,-2.080095,-1.621278,-0.770170,0.112469,0.042753,-0.320981,-0.946119,0.055895,0.054319,-0.149492,14.569905,-15.027734,-51.470215,,,,,,,
1537388201.352424,0.038239,0.310181,-2.078938,-1.662549,-0.535246,0.029811,0.036405,-0.305231,-0.951582,0.064639,-0.032614,-0.111452,14.569905,-15.027734,-51.470215,,,,,,,
1537388201.362403,0.045041,0.295649,-2.076476,-1.380805,1.104833,0.275212,0.043072,-0.291361,-0.955643,0.199115,-0.256140,0.335907,17.508966,-13.356503,-50.888062,,,,,,,
1537388201.372382,0.061006,0.285568,-2.068104,-0.934958,2.065886,0.920357,0.058499,-0.281703,-0.957716,0.180682,-0.509145,0.425398,17.508966,-13.356503,-50.888062,,,,,,,
1537388201.382362,0.081139,0.279871,-2.053653,-0.599590,2.480648,1.466179,0.077896,-0.276231,-0.957929,0.186585,-0.445754,0.242063,21.199976,-11.936049,-51.015137,,,,,,,
1537388201.392341,0.100217,0.276182,-2.036125,-0.514505,2.321585,1.679230,0.096258,-0.272685,-0.957276,0.226206,-0.266485,-0.010330,21.199976,-11.936049,-51.015137,,,,,,,
1537388201.402320,0.114796,0.272619,-2.019067,-0.531799,1.787542,1.545177,0.110313,-0.269254,-0.956730,0.244408,-0.118838,-0.169384,22.699459,-10.954101,-52.029419,,,,,,,
1537388201.412299,0.126244,0.268874,-2.005154,-0.533678,1.461129,1.190036,0.121385,-0.265646,-0.956398,0.222075,-0.001032,-0.120674,22.699459,-10.954101,-52.029419,,,,,,,
1537388201.422248,0.137719,0.265165,-1.995617,-0.472273,1.386190,0.758130,0.132486,-0.262068,-0.955911,0.125785,0.020277,-0.012411,22.106691,-9.951516,-54.094299,,,,,,,
1537388201.432227,0.147873,0.261761,-1.990022,-0.397361,1.058312,0.405547,0.142316,-0.258782,-0.955394,0.037845,-0.004417,-0.031362,22.106691,-9.951516,-54.094299,,,,,,,
1537388201.442207,0.150946,0.264126,-1.987481,0.459094,0.124639,0.274560,0.145159,-0.261066,-0.954344,-0.009951,-0.032452,0.065291,20.832407,-9.476499,-55.643311,,,,,,,
1537388201.452186,0.149751,0.263398,-1.985238,-0.055350,-0.336287,0.157987,0.144046,-0.260363,-0.954705,0.018567,-0.040556,-0.475822,20.832407,-9.476499,-55.643311,,,,,,,
1537388201.462165,0.141692,0.260608,-1.984281,-0.340520,-0.920182,0.018244,0.136450,-0.257668,-0.956550,0.041132,0.003930,-0.468255,19.235256,-9.464984,-57.185181,,,,,,,
1537388201.472144,0.130202,0.257623,-1.984292,-0.301065,-1.160768,-0.050680,0.125550,-0.254782,-0.958813,0.010681,0.024619,-0.235370,19.235256,-9.464984,-57.185181,,,,,,,
1537388201.482124,0.119944,0.255192,-1.984561,-0.193807,-0.980897,-0.055616,0.115781,-0.252431,-0.960662,-0.032117,0.039724,-0.147919,17.481663,-9.484038,-58.465912,,,,,,,
1537388201.492072,0.113010,0.254724,-1.984886,0.006518,-0.599665,-0.030352,0.109131,-0.251978,-0.961559,-0.079361,0.053843,-0.053516,17.481663,-9.484038,-58.465912,,,,,,,
1537388201.502052,0.109823,0.256362,-1.985267,0.221784,-0.247366,-0.015648,0.106020,-0.253563,-0.961491,-0.103854,0.068382,-0.047481,15.929923,-10.002061,-60.403992,,,,,,,
1537388201.512031,0.109129,0.260194,-1.985852,0.447471,-0.044628,-0.016750,0.105247,-0.257268,-0.960591,-0.107673,0.094060,-0.063167,15.929923,-10.002061,-60.403992,,,,,,,
1537388201.522010,0.111855,0.263269,-1.986597,0.088454,0.468624,-0.039520,0.107776,-0.260239,-0.959510,-0.096744,0.113159,0.016929,15.306207,-10.421203,-63.145294,,,,,,,
1537388201.531989,0.118445,0.253716,-1.986201,-0.769181,0.262621,-0.119805,0.114385,-0.251003,-0.961204,-0.128606,0.031749,0.196479,15.306207,-10.421203,-63.145294,,,,,,,
1537388201.541969,0.114643,0.250211,-1.987060,-0.250752,-0.499186,-0.103380,0.110830,-0.247608,-0.962500,-0.067648,0.092426,-0.160532,17.598633,-9.940661,-64.688324,,,,,,,
1537388201.551948,0.112168,0.242922,-1.987134,-0.574491,-0.344851,-0.123459,0.108647,-0.240540,-0.964539,-0.095097,0.100403,0.012421,17.598633,-9.940661,-64.688324,,,,,,,
1537388201.561927,0.107975,0.235372,-1.988583,-0.752934,-0.521456,-0.263028,0.104794,-0.233205,-0.966764,-0.066327,0.077626,-0.047045,22.217409,-8.190928,-67.197662,,,,,,,
1537388201.571876,0.101251,0.228102,-1.991852,-0.656117,-0.820230,-0.437256,0.098460,-0.226129,-0.969108,-0.055446,0.104288,-0.091088,22.217409,-8.190928,-67.197662,,,,,,,
1537388201.581855,0.092760,0.222045,-1.996946,-0.523951,-1.009181,-0.594322,0.090353,-0.220225,-0.971255,-0.051153,0.139613,-0.110486,31.189491,-4.543638,-71.961884,,,,,,,
1537388201.591834,0.082679,0.217135,-2.003701,-0.402664,-1.214050,-0.733285,0.080646,-0.215433,-0.973182,-0.037051,0.136805,-0.131905,31.189491,-4.543638,-71.961884,,,,,,,
1537388201.601814,0.070831,0.213186,-2.011690,-0.322205,-1.395131,-0.834069,0.069169,-0.211575,-0.974911,-0.036989,0.112164,-0.148869,53.151524,1.573287,-81.796631,,,,,,,
1537388201.611793,0.058160,0.209443,-2.020299,-0.320976,-1.450732,-0.868164,0.056857,-0.207915,-0.976493,-0.047213,0.094970,-0.139795,53.151524,1.573287,-81.796631,,,,,,,
1537388201.621772,0.045920,0.206031,-2.027498,-0.293889,-1.334016,-0.648237,0.044933,-0.204577,-0.977818,-0.004421,0.041293,-0.031795,117.444870,4.007744,-85.020691,,,,,,,
1537388201.631751,0.054823,0.204173,-2.031303,-0.072994,0.997380,-0.308870,0.053658,-0.202757,-0.977758,0.064476,-0.176973,0.725698,117.444870,4.007744,-85.020691,,,,,,,
1537388201.641731,0.066047,0.203954,-2.027124,-0.006924,1.468917,0.648518,0.064631,-0.202543,-0.977138,0.153081,-0.432376,0.345363,194.783707,-6.571788,-66.120850,,,,,,,
1537388201.651679,0.078665,0.205520,-2.014821,0.095457,1.464571,1.345062,0.076930,-0.204076,-0.975927,0.337148,-0.458689,0.292318,194.783707,-6.571788,-66.120850,,,,,,,
1537388201.661659,0.088861,0.207330,-2.001635,0.055280,1.192258,1.224496,0.086843,-0.205848,-0.974723,0.299433,-0.166161,0.096061,212.761154,-13.900578,-61.573090,,,,,,,
1537388201.671638,0.095857,0.207156,-1.992872,-0.162217,0.748159,0.729523,0.093664,-0.205677,-0.974127,0.145350,-0.029430,-0.072306,212.761154,-13.900578,-61.573090,,,,,,,
1537388201.681617,0.098092,0.203767,-1.987741,-0.462618,0.199172,0.402853,0.095908,-0.202359,-0.974603,0.013802,-0.025561,-0.154028,218.179718,-16.588226,-60.421112,,,,,,,
1537388201.691596,0.096620,0.197576,-1.984542,-0.700780,-0.156610,0.207631,0.094593,-0.196293,-0.975972,-0.021107,-0.048656,-0.135479,218.179718,-16.588226,-60.421112,,,,,,,
1537388201.701576,0.093664,0.189670,-1.982849,-0.827800,-0.286540,0.056560,0.091850,-0.188534,-0.977762,0.002999,-0.041385,-0.066641,218.179718,-16.588226,-60.421112,,,,,,,
1537388201.711555,0.090513,0.181143,-1.982223,-0.859009,-0.304729,-0.035393,0.088910,-0.180154,-0.979612,0.012454,-0.019080,-0.022662,221.589935,-18.010952,-59.689301,,,,,,,
1537388201.721504,0.087868,0.172761,-1.981935,-0.830993,-0.234421,-0.042786,0.086449,-0.171902,-0.981313,-0.003456,-0.012973,-0.004603,221.589935,-18.010952,-59.689301,,,,,,,
1537388201.731483,0.086731,0.165095,-1.981197,-0.745810,-0.051068,0.030082,0.085444,-0.164346,-0.982695,-0.020426,-0.006369,0.002623,223.390350,-18.525688,-59.197693,,,,,,,
1537388201.741462,0.087667,0.159006,-1.979293,-0.577918,0.181118,0.172739,0.086450,-0.158337,-0.983593,-0.045633,-0.009754,0.012676,223.390350,-18.525688,-59.197693,,,,,,,
1537388201.751441,0.091080,0.155100,-1.975980,-0.360933,0.472871,0.331617,0.089862,-0.154479,-0.983901,-0.064090,-0.010224,0.028456,224.991791,-18.966946,-58.879059,,,,,,,
1537388201.761421,0.096811,0.153683,-1.971457,-0.123618,0.686506,0.459732,0.095521,-0.153079,-0.983586,-0.074860,-0.012281,0.047811,224.991791,-18.966946,-58.879059,,,,,,,
1537388201.771400,0.104353,0.154776,-1.966267,0.116195,0.877611,0.543048,0.102918,-0.154159,-0.982671,-0.067045,-0.004807,0.047124,228.101776,-19.456745,-58.536896,,,,,,,
1537388201.781379,0.112809,0.158188,-1.960862,0.334806,0.934186,0.573009,0.111165,-0.157529,-0.981237,-0.045384,0.007733,0.039480,228.101776,-19.456745,-58.536896,,,,,,,
1537388201.791358,0.121037,0.163337,-1.955761,0.485369,0.921613,0.555701,0.119134,-0.162612,-0.979471,-0.021463,0.031051,0.019068,233.792252,-20.525585,-58.506317,,,,,,,
1537388201.801307,0.129283,0.169280,-1.951149,0.557049,0.858160,0.516661,0.127080,-0.168473,-0.977480,-0.002904,0.048966,0.018663,233.792252,-20.525585,-58.506317,,,,,,,
1537388201.811286,0.135312,0.175822,-1.947131,0.602761,0.626122,0.465909,0.132820,-0.174917,-0.975583,0.004479,0.054357,-0.021274,238.541794,-22.023808,-58.273529,,,,,,,
1537388201.821265,0.139591,0.182316,-1.943708,0.594240,0.450940,0.410536,0.136832,-0.181308,-0.973860,0.001458,0.049197,-0.027406,238.541794,-22.023808,-58.273529,,,,,,,
1537388201.831245,0.143142,0.188299,-1.940685,0.534768,0.413794,0.369684,0.140132,-0.187188,-0.972277,-0.011851,0.040215,-0.010236,241.445770,-22.744102,-58.024017,,,,,,,
1537388201.841224,0.147228,0.193518,-1.937851,0.456266,0.500633,0.345683,0.143958,-0.192313,-0.970717,-0.042060,0.033423,0.027739,241.445770,-22.744102,-58.024017,,,,,,,
1537388201.851203,0.152790,0.197959,-1.934920,0.378729,0.662282,0.355768,0.149224,-0.196668,-0.969047,-0.076150,0.035810,0.061241,242.722504,-23.338806,-58.147003,,,,,,,
1537388201.861182,0.159945,0.201826,-1.931580,0.319047,0.819629,0.394778,0.156031,-0.200459,-0.967197,-0.085444,0.044392,0.074786,242.722504,-23.338806,-58.147003,,,,,,,
1537388201.871131,0.167888,0.205307,-1.927623,0.270629,0.893698,0.460619,0.163591,-0.203868,-0.965233,-0.094239,0.054973,0.060799,243.507507,-23.632256,-58.067474,,,,,,,
1537388201.881110,0.176074,0.208680,-1.922894,0.252981,0.924910,0.532011,0.171366,-0.207168,-0.963179,-0.096903,0.059829,0.037474,243.507507,-23.632256,-58.067474,,,,,,,
1537388201.891090,0.184631,0.212427,-1.917765,0.295489,0.982419,0.567412,0.179457,-0.210833,-0.960908,-0.089308,0.055850,0.032899,244.352310,-23.977505,-58.470428,,,,,,,
1537388201.901069,0.194215,0.217082,-1.912709,0.391760,1.100453,0.577424,0.188467,-0.215381,-0.958170,-0.076849,0.055423,0.039118,244.352310,-23.977505,-58.470428,,,,,,,
1537388201.911048,0.204995,0.222961,-1.907794,0.515695,1.215145,0.592932,0.198524,-0.221119,-0.954827,-0.079414,0.058872,0.033470,245.278885,-24.105450,-58.466003,,,,,,,
1537388201.921027,0.216677,0.230107,-1.902989,0.628800,1.291473,0.614823,0.209319,-0.228082,-0.950875,-0.082533,0.065088,0.021691,245.278885,-24.105450,-58.466003,,,,,,,
1537388201.931007,0.227259,0.238369,-1.897987,0.722681,1.102133,0.675308,0.218937,-0.236118,-0.946738,-0.071934,0.069935,-0.027978,246.319214,-24.683140,-58.379181,,,,,,,
1537388201.940986,0.234112,0.247268,-1.893196,0.765691,0.722805,0.641771,0.224923,-0.244756,-0.943135,-0.020043,0.103002,-0.121319,246.319214,-24.683140,-58.379181,,,,,,,
1537388201.950935,0.237988,0.256424,-1.889037,0.824772,0.365817,0.608298,0.228040,-0.253623,-0.940038,-0.026593,0.128623,-0.139964,252.480606,-25.417458,-57.040466,,,,,,,
1537388201.960914,0.241767,0.265566,-1.884180,0.766810,0.518981,0.691086,0.231025,-0.262456,-0.936879,-0.065956,0.050023,-0.130931,252.480606,-25.417458,-57.040466,,,,,,,
1537388201.970893,0.246616,0.274265,-1.878597,0.704821,0.665699,0.746105,0.234999,-0.270840,-0.933499,-0.040129,0.041378,-0.113453,271.717987,-26.999619,-54.734222,,,,,,,
1537388201.980872,0.252921,0.283027,-1.872531,0.712289,0.835525,0.795079,0.240277,-0.279264,-0.929665,-0.050916,0.020002,-0.074028,271.717987,-26.999619,-54.734222,,,,,,,
1537388201.990852,0.260153,0.292234,-1.865875,0.741747,0.957264,0.876244,0.246323,-0.288092,-0.925379,-0.052323,-0.006799,-0.053610,313.317749,-27.078007,-50.644867,,,,,,,
1537388202.000831,0.267946,0.302177,-1.858462,0.782626,0.976468,0.963974,0.252755,-0.297599,-0.920623,-0.038278,-0.032280,-0.032257,313.317749,-27.078007,-50.644867,,,,,,,
1537388202.010810,0.274590,0.312752,-1.850185,0.807920,0.851664,1.076322,0.257999,-0.307678,-0.915843,0.009213,-0.110626,0.006801,394.098755,-22.696289,-38.499847,,,,,,,
1537388202.020759,0.277140,0.323547,-1.840560,0.788560,0.458071,1.205779,0.259409,-0.317932,-0.911934,0.049429,-0.146515,0.037484,394.098755,-22.696289,-38.499847,,,,,,,
1537388202.030738,0.277772,0.333337,-1.830758,0.648100,0.355088,1.134661,0.259119,-0.327198,-0.908733,0.107763,-0.146099,0.049664,491.718079,-16.887596,-10.978912,,,,,,,
1537388202.040717,0.276831,0.341062,-1.822020,0.482878,0.152681,0.943951,0.257566,-0.334488,-0.906518,0.145632,-0.150162,0.035226,491.718079,-16.887596,-10.978912,,,,,,,
1537388202.050697,0.275276,0.346638,-1.814927,0.319872,0.023955,0.764923,0.255645,-0.339738,-0.905109,0.092332,-0.059036,0.012668,611.419312,-16.707417,42.429047,,,,,,,
1537388202.060676,0.270818,0.350870,-1.807946,0.206005,-0.290440,0.753945,0.251221,-0.343715,-0.904846,0.101532,-0.048162,-0.023468,611.419312,-16.707417,42.429047,,,,,,,
1537388202.070655,0.263572,0.353959,-1.800223,0.068499,-0.502100,0.792900,0.244380,-0.346614,-0.905613,0.117849,-0.060369,-0.056087,694.294983,-20.189400,91.391205,,,,,,,
1537388202.080634,0.254764,0.355145,-1.791669,-0.149549,-0.600197,0.811010,0.236290,-0.347726,-0.907332,0.091927,-0.044837,-0.112428,694.294983,-20.189400,91.391205,,,,,,,
1537388202.090614,0.245811,0.353890,-1.782560,-0.391360,-0.547734,0.785078,0.228263,-0.346549,-0.909834,0.081048,-0.042764,-0.145739,712.931030,-20.766304,102.784241,,,,,,,
1537388202.100562,0.239942,0.350865,-1.773908,-0.515415,-0.172538,0.693291,0.223168,-0.343710,-0.912172,0.071663,-0.054865,-0.102629,712.931030,-20.766304,102.784241,,,,,,,
1537388202.110542,0.240490,0.347121,-1.766245,-0.535036,0.486089,0.586838,0.223972,-0.340192,-0.913293,0.034374,-0.036853,-0.074256,714.508057,-20.474712,102.919739,,,,,,,
1537388202.120521,0.243224,0.343935,-1.759447,-0.446109,0.371223,0.513786,0.226729,-0.337194,-0.913724,-0.103071,-0.015269,-0.065447,714.508057,-20.474712,102.919739,,,,,,,
1537388202.130500,0.242267,0.340582,-1.754003,-0.457574,0.020792,0.380647,0.226124,-0.334036,-0.915033,-0.078510,0.017187,-0.034277,713.456238,-19.514259,102.221588,,,,,,,
1537388202.140479,0.240678,0.337128,-1.749811,-0.414138,-0.009534,0.289116,0.224943,-0.330778,-0.916507,0.100099,0.111173,-0.004300,713.456238,-19.514259,102.221588,,,,,,,
1537388202.150459,0.238799,0.333844,-1.745814,-0.414384,-0.081055,0.294524,0.223476,-0.327677,-0.917978,0.097996,0.095926,-0.048468,713.456238,-19.514259,102.221588,,,,,,,
1537388202.160438,0.235863,0.330332,-1.741573,-0.440418,-0.176969,0.312625,0.221048,-0.324357,-0.919744,0.108786,0.079499,-0.109172,714.120361,-17.913475,102.369080,,,,,,,
1537388202.170387,0.232418,0.327195,-1.737263,-0.380930,-0.216750,0.329003,0.218111,-0.321388,-0.921485,0.138837,0.056358,-0.103020,714.120361,-17.913475,102.369080,,,,,,,
1537388202.180366,0.228185,0.325264,-1.733050,-0.240611,-0.324206,0.352300,0.214348,-0.319559,-0.923003,0.144965,0.045679,-0.095902,714.173950,-17.607685,102.229492,,,,,,,
1537388202.190327,0.222774,0.324883,-1.728971,-0.087459,-0.433869,0.372465,0.209378,-0.319198,-0.924268,0.154529,0.060272,-0.095797,714.173950,-17.607685,102.229492,,,,,,,
1537388202.200306,0.216837,0.325764,-1.725325,0.041702,-0.486920,0.348678,0.203826,-0.320033,-0.925220,0.151047,0.054484,-0.105847,714.308838,-17.499626,102.640259,,,,,,,
1537388202.210286,0.211140,0.327500,-1.722281,0.126434,-0.456489,0.309617,0.198436,-0.321677,-0.925821,0.128209,0.016806,-0.106054,714.308838,-17.499626,102.640259,,,,,,,
1537388202.220265,0.206118,0.329578,-1.719552,0.155545,-0.401156,0.293708,0.193646,-0.323644,-0.926150,0.101336,-0.020365,-0.085691,715.032837,-17.784279,103.712250,,,,,,,
1537388202.230244,0.201278,0.331798,-1.716861,0.169352,-0.412965,0.296998,0.189018,-0.325743,-0.926370,0.074135,-0.038911,-0.061102,715.032837,-17.784279,103.712250,,,,,,,
1537388202.240223,0.195387,0.334138,-1.714147,0.183944,-0.535827,0.297204,0.183408,-0.327955,-0.926718,0.064761,-0.038760,-0.053995,715.834717,-17.656063,104.535126,,,,,,,
1537388202.250172,0.188294,0.336647,-1.711779,0.213879,-0.664203,0.252665,0.176676,-0.330324,-0.927184,0.062719,-0.031248,-0.039628,715.834717,-17.656063,104.535126,,,,,,,
1537388202.260151,0.181081,0.339050,-1.710738,0.221563,-0.713690,0.100110,0.169841,-0.332591,-0.927651,0.049962,-0.033421,-0.027687,716.734741,-17.801334,105.664795,,,,,,,
1537388202.270131,0.172685,0.341216,-1.711459,0.223657,-0.921210,-0.072596,0.161922,-0.334633,-0.928332,0.032277,-0.014915,-0.035398,716.734741,-17.801334,105.664795,,,,,,,
1537388202.280110,0.162305,0.343013,-1.713746,0.210366,-1.190505,-0.214368,0.152180,-0.336326,-0.929368,0.035442,0.005424,-0.033782,717.474670,-17.823227,106.728668,,,,,,,
1537388202.290089,0.149019,0.344493,-1.717012,0.187856,-1.523694,-0.301685,0.139745,-0.337720,-0.930814,0.054591,-0.012546,-0.039965,717.474670,-17.823227,106.728668,,,,,,,
1537388202.300068,0.133753,0.345522,-1.720954,0.140045,-1.686954,-0.372233,0.125473,-0.338688,-0.932494,0.070511,-0.028179,-0.023225,722.134583,-18.212250,111.498016,,,,,,,
1537388202.310048,0.119097,0.345641,-1.725037,0.030522,-1.564672,-0.376160,0.111789,-0.338800,-0.934193,0.067365,-0.049048,0.013111,722.134583,-18.212250,111.498016,,,,,,,
1537388202.319996,0.106452,0.344588,-1.728604,-0.099380,-1.343968,-0.339735,0.100005,-0.337809,-0.935886,0.073579,-0.060460,0.006000,741.043579,-24.617188,125.895752,,,,,,,
1537388202.329976,0.093968,0.342760,-1.732262,-0.152553,-1.411038,-0.378387,0.088372,-0.336088,-0.937675,0.039115,-0.030474,-0.020699,741.043579,-24.617188,125.895752,,,,,,,
1537388202.339955,0.079512,0.341012,-1.737151,-0.126440,-1.689068,-0.514597,0.074854,-0.334441,-0.939439,0.028036,0.029830,-0.021743,756.413147,-35.377949,136.916534,,,,,,,
1537388202.349934,0.063042,0.339468,-1.743963,-0.105111,-1.928748,-0.699974,0.059405,-0.332985,-0.941058,0.029188,0.025155,0.008975,756.413147,-35.377949,136.916534,,,,,,,
1537388202.359913,0.046025,0.337508,-1.752924,-0.175985,-2.027064,-0.910552,0.043413,-0.331136,-0.942583,0.036528,0.023275,0.018892,764.607727,-40.872040,142.648743,,,,,,,
1537388202.369893,0.029170,0.334279,-1.764093,-0.321403,-2.064126,-1.118397,0.027552,-0.328088,-0.944245,0.053289,0.017083,-0.034408,764.607727,-40.872040,142.648743,,,,,,,
1537388202.379872,0.012595,0.329781,-1.777306,-0.456334,-2.100129,-1.305906,0.011916,-0.323836,-0.946037,0.056367,0.000304,-0.048973,767.853149,-44.102112,145.345123,,,,,,,
1537388202.389851,-0.003460,0.324554,-1.792329,-0.533753,-2.085130,-1.467531,-0.003279,-0.318886,-0.947787,0.071028,-0.005607,-0.021925,767.853149,-44.102112,145.345123,,,,,,,
1537388202.399800,-0.018173,0.319358,-1.808855,-0.537568,-1.970092,-1.598963,-0.017253,-0.313958,-0.949280,0.092235,-0.000892,0.028030,766.790649,-44.332832,146.123291,,,,,,,
1537388202.409779,-0.031103,0.314735,-1.826298,-0.489578,-1.793243,-1.659724,-0.029570,-0.309564,-0.950418,0.092940,0.007257,0.070566,766.790649,-44.332832,146.123291,,,,,,,
1537388202.419758,-0.042015,0.311024,-1.843774,-0.413399,-1.573667,-1.642446,-0.039987,-0.306034,-0.951180,0.076532,0.001163,0.100228,765.517334,-43.990932,146.136505,,,,,,,
1537388202.429737,-0.050313,0.308211,-1.860438,-0.338716,-1.253547,-1.547358,-0.047921,-0.303354,-0.951672,0.057229,-0.015387,0.119503,765.517334,-43.990932,146.136505,,,,,,,
1537388202.439717,-0.055652,0.306204,-1.875442,-0.255106,-0.911942,-1.372184,-0.053036,-0.301442,-0.952008,0.035198,-0.037609,0.117856,764.433960,-43.832478,146.208160,,,,,,,
1537388202.449696,-0.059707,0.305132,-1.888265,-0.148877,-0.774316,-1.165723,-0.056915,-0.300419,-0.952107,0.002182,-0.052242,0.092168,764.433960,-43.832478,146.208160,,,,,,,
1537388202.459675,-0.064413,0.305283,-1.899088,-0.015061,-0.813071,-0.993093,-0.061393,-0.300563,-0.951783,-0.005487,-0.040547,0.075166,763.871704,-43.881283,146.405151,,,,,,,
1537388202.469624,-0.070030,0.306660,-1.908472,0.106499,-0.855106,-0.882436,-0.066708,-0.301876,-0.951010,0.005322,-0.019001,0.076422,763.871704,-43.881283,146.405151,,,,,,,
1537388202.479603,-0.075662,0.308880,-1.917005,0.177501,-0.803010,-0.813784,-0.072013,-0.303991,-0.949948,0.015387,-0.010126,0.081998,763.344116,-44.100750,146.993927,,,,,,,
1537388202.489582,-0.080192,0.311425,-1.924845,0.198653,-0.651367,-0.748707,-0.076253,-0.306416,-0.948838,0.016697,-0.020260,0.084077,763.344116,-44.100750,146.993927,,,,,,,
1537388202.499562,-0.083378,0.313933,-1.931808,0.195005,-0.498474,-0.657077,-0.079211,-0.308802,-0.947821,0.003054,-0.040029,0.079810,763.010681,-44.394592,147.291870,,,,,,,
1537388202.509541,-0.085701,0.316326,-1.937540,0.190956,-0.387140,-0.532320,-0.081349,-0.311077,-0.946896,-0.016521,-0.052616,0.073590,763.010681,-44.394592,147.291870,,,,,,,
1537388202.519520,-0.087769,0.318540,-1.941815,0.182310,-0.326987,-0.387255,-0.083247,-0.313181,-0.946037,-0.036763,-0.057028,0.069374,762.891968,-45.100246,147.355713,,,,,,,
1537388202.529499,-0.089762,0.320428,-1.944663,0.156697,-0.276384,-0.256150,-0.085079,-0.314973,-0.945279,-0.048008,-0.055099,0.066022,762.891968,-45.100246,147.355713,,,,,,,
1537388202.539479,-0.091442,0.321852,-1.946434,0.114380,-0.205473,-0.157184,-0.086626,-0.316324,-0.944687,-0.038069,-0.046225,0.066910,763.128418,-45.885048,147.515167,,,,,,,
1537388202.549427,-0.092713,0.322757,-1.947409,0.071187,-0.146362,-0.083826,-0.087800,-0.317182,-0.944291,-0.035613,-0.047854,0.063813,763.128418,-45.885048,147.515167,,,,,,,
1537388202.559407,-0.093779,0.323163,-1.947824,0.024883,-0.109707,-0.029672,-0.088794,-0.317567,-0.944068,-0.033566,-0.041991,0.063591,763.400330,-45.964806,147.918274,,,,,,,
1537388202.569386,-0.094789,0.322900,-1.947863,-0.043729,-0.104994,0.007307,-0.089756,-0.317318,-0.944061,-0.028744,-0.025775,0.065521,763.400330,-45.964806,147.918274,,,,,,,
1537388202.579365,-0.096702,0.321698,-1.947837,-0.152941,-0.231462,0.012172,-0.091599,-0.316178,-0.944267,-0.030060,-0.007796,0.031425,763.682983,-45.704395,148.589233,,,,,,,
1537388202.589344,-0.100548,0.318979,-1.948319,-0.316366,-0.445302,-0.031206,-0.095315,-0.313598,-0.944759,-0.040168,0.033843,-0.030094,763.682983,-45.704395,148.589233,,,,,,,
1537388202.599324,-0.105288,0.314904,-1.949575,-0.447216,-0.518415,-0.092697,-0.099926,-0.309726,-0.945560,-0.040775,0.043292,-0.013699,763.682983,-45.704395,148.589233,,,,,,,
1537388202.609303,-0.109565,0.310041,-1.951603,-0.519105,-0.479733,-0.152908,-0.104132,-0.305097,-0.946610,-0.026117,0.024549,0.017167,765.077698,-45.396988,150.628998,,,,,,,
1537388202.619252,-0.113339,0.305004,-1.954026,-0.527315,-0.441310,-0.177542,-0.107877,-0.300297,-0.947725,-0.037173,0.021717,0.028978,765.077698,-45.396988,150.628998,,,,,,,
1537388202.629231,-0.116656,0.300159,-1.956251,-0.497581,-0.380535,-0.144350,-0.111188,-0.295672,-0.948796,-0.047565,0.011859,0.037404,765.787781,-44.998997,151.677643,,,,,,,
1537388202.639210,-0.119654,0.295795,-1.957995,-0.439149,-0.342315,-0.104575,-0.114184,-0.291500,-0.949731,-0.043637,0.009564,0.039178,765.787781,-44.998997,151.677643,,,,,,,
1537388202.649189,-0.122277,0.292216,-1.959300,-0.347506,-0.277599,-0.073181,-0.116802,-0.288075,-0.950457,-0.028279,0.019322,0.046221,765.945129,-44.515301,151.981201,,,,,,,
1537388202.659169,-0.124227,0.289624,-1.960232,-0.242910,-0.193767,-0.054542,-0.118747,-0.285592,-0.950965,-0.022351,0.026360,0.058860,765.945129,-44.515301,151.981201,,,,,,,
1537388202.669148,-0.124787,0.288178,-1.960988,-0.119756,-0.032130,-0.056165,-0.119331,-0.284206,-0.951307,-0.010812,0.038021,0.073713,767.414185,-44.036297,153.770935,,,,,,,
1537388202.679127,-0.123398,0.288203,-1.961662,0.034571,0.175232,-0.068339,-0.118009,-0.284230,-0.951465,-0.013324,0.041249,0.093219,767.414185,-44.036297,153.770935,,,,,,,
1537388202.689106,-0.119854,0.289788,-1.962205,0.189888,0.390082,-0.070907,-0.114582,-0.285749,-0.951429,-0.021679,0.038236,0.096983,769.801086,-43.979210,155.561279,,,,,,,
1537388202.699055,-0.114817,0.292751,-1.962464,0.324555,0.527140,-0.055363,-0.109691,-0.288587,-0.951149,-0.034428,0.033659,0.079704,769.801086,-43.979210,155.561279,,,,,,,
1537388202.709034,-0.109110,0.296845,-1.962512,0.430287,0.582114,-0.050569,-0.104131,-0.292505,-0.950577,-0.040065,0.034982,0.057511,772.047302,-44.039879,157.297394,,,,,,,
1537388202.719014,-0.103095,0.301707,-1.962636,0.497740,0.606274,-0.069437,-0.098264,-0.297151,-0.949760,-0.029055,0.041002,0.044319,772.047302,-44.039879,157.297394,,,,,,,
1537388202.728993,-0.096812,0.306991,-1.963058,0.529007,0.617784,-0.101300,-0.092141,-0.302191,-0.948783,-0.010749,0.041876,0.040442,773.508240,-44.375671,157.878052,,,,,,,
1537388202.738972,-0.090611,0.312368,-1.963870,0.527103,0.587823,-0.135438,-0.086108,-0.307313,-0.947704,-0.010968,0.039277,0.030544,773.508240,-44.375671,157.878052,,,,,,,
1537388202.748951,-0.084802,0.317470,-1.964998,0.488746,0.534593,-0.156944,-0.080468,-0.312164,-0.946613,-0.017860,0.038254,0.015705,774.239441,-44.886295,158.242401,,,,,,,
1537388202.758931,-0.079594,0.321963,-1.966307,0.420305,0.462340,-0.161515,-0.075425,-0.316429,-0.945612,-0.022903,0.033425,0.004191,774.239441,-44.886295,158.242401,,,,,,,
1537388202.768879,-0.075225,0.325667,-1.967640,0.341050,0.376290,-0.154391,-0.071203,-0.319941,-0.944757,-0.027979,0.027613,-0.001318,774.819824,-45.448570,158.174927,,,,,,,
1537388202.778859,-0.071618,0.328485,-1.968922,0.248965,0.303147,-0.137747,-0.067731,-0.322609,-0.944105,-0.026172,0.025749,-0.001284,774.819824,-45.448570,158.174927,,,,,,,
1537388202.788838,-0.068759,0.330289,-1.970062,0.148276,0.235396,-0.114747,-0.064992,-0.324316,-0.943713,-0.024333,0.021170,0.000719,774.866394,-45.623959,158.084076,,,,,,,
1537388202.798817,-0.066463,0.331183,-1.971036,0.063647,0.187841,-0.092745,-0.062805,-0.325162,-0.943570,-0.023316,0.013059,0.004834,774.866394,-45.623959,158.084076,,,,,,,
1537388202.808796,-0.064623,0.331385,-1.971844,0.002546,0.150837,-0.072762,-0.061064,-0.325353,-0.943618,-0.023668,0.006765,0.008850,775.506165,-45.622967,157.953949,,,,,,,
1537388202.818776,-0.063083,0.331236,-1.972554,-0.023225,0.126434,-0.063269,-0.059615,-0.325212,-0.943760,-0.026903,0.002061,0.013736,775.506165,-45.622967,157.953949,,,,,,,
1537388202.828755,-0.061641,0.331062,-1.973247,-0.017861,0.126399,-0.066442,-0.058257,-0.325048,-0.943901,-0.027543,-0.000712,0.021110,775.496643,-46.006004,158.016754,,,,,,,
1537388202.838734,-0.059871,0.331153,-1.973973,0.013231,0.166793,-0.071648,-0.056585,-0.325133,-0.943973,-0.027110,-0.001405,0.032489,775.496643,-46.006004,158.016754,,,,,,,
1537388202.848683,-0.057514,0.331568,-1.974687,0.046462,0.231752,-0.069397,-0.054351,-0.325526,-0.943969,-0.027283,-0.004537,0.037719,775.817810,-46.037224,158.036987,,,,,,,
1537388202.858662,-0.054579,0.332314,-1.975225,0.079527,0.290345,-0.050062,-0.051568,-0.326232,-0.943882,-0.028251,-0.008531,0.033512,775.817810,-46.037224,158.036987,,,,,,,
1537388202.868641,-0.051265,0.333323,-1.975394,0.107030,0.337266,-0.010463,-0.048422,-0.327185,-0.943718,-0.027704,-0.015146,0.023949,775.981750,-46.231174,157.960052,,,,,,,
1537388202.878621,-0.047901,0.334495,-1.974998,0.123617,0.354384,0.046187,-0.045228,-0.328292,-0.943492,-0.019255,-0.024705,0.014125,775.981750,-46.231174,157.960052,,,,,,,
1537388202.888600,-0.044749,0.335770,-1.974092,0.134939,0.343739,0.087890,-0.042236,-0.329496,-0.943211,-0.008713,-0.028078,0.008152,775.887573,-46.322624,157.677460,,,,,,,
1537388202.898579,-0.041828,0.337121,-1.972931,0.141122,0.327740,0.108220,-0.039462,-0.330772,-0.942885,0.004779,-0.020745,0.006163,775.887573,-46.322624,157.677460,,,,,,,
1537388202.908558,-0.039108,0.338507,-1.971640,0.144198,0.314933,0.117856,-0.036879,-0.332079,-0.942529,0.013381,-0.014738,0.007059,775.979492,-46.613316,157.498871,,,,,,,
1537388202.918507,-0.036573,0.339846,-1.970257,0.137648,0.294696,0.126384,-0.034474,-0.333342,-0.942175,0.014820,-0.013963,0.005972,775.979492,-46.613316,157.498871,,,,,,,
1537388202.928486,-0.034452,0.341119,-1.968886,0.129018,0.245618,0.122116,-0.032461,-0.334542,-0.941821,0.014104,-0.013542,-0.003843,776.086365,-46.690071,157.238739,,,,,,,
1537388202.938466,-0.033039,0.342340,-1.967683,0.124694,0.160185,0.102965,-0.031116,-0.335693,-0.941457,0.017093,-0.010011,-0.013042,776.086365,-46.690071,157.238739,,,,,,,
1537388202.948445,-0.032388,0.343496,-1.966844,0.114153,0.073672,0.063499,-0.030490,-0.336781,-0.941088,0.023471,-0.003887,-0.019300,775.903381,-46.588715,157.134521,,,,,,,
1537388202.958424,-0.032332,0.344539,-1.966521,0.100527,-0.000037,0.014397,-0.030427,-0.337763,-0.940739,0.029985,0.000620,-0.024838,775.903381,-46.588715,157.134521,,,,,,,
1537388202.968403,-0.032792,0.345447,-1.966618,0.085726,-0.061957,-0.018712,-0.030849,-0.338618,-0.940417,0.030971,-0.001867,-0.027402,775.796631,-46.733742,157.201477,,,,,,,
1537388202.978383,-0.033652,0.346209,-1.966863,0.073955,-0.102482,-0.026209,-0.031650,-0.339334,-0.940132,0.027667,-0.008566,-0.023704,775.796631,-46.733742,157.201477,,,,,,,
1537388202.988362,-0.034746,0.346980,-1.967006,0.079129,-0.114223,-0.012292,-0.032668,-0.340060,-0.939835,0.023559,-0.012861,-0.012054,776.025513,-46.737469,156.854431,,,,,,,
1537388202.998310,-0.035767,0.347770,-1.966877,0.081054,-0.091744,0.017583,-0.033619,-0.340802,-0.939533,0.015644,-0.014163,-0.001141,776.025513,-46.737469,156.854431,,,,,,,
1537388203.008290,-0.036552,0.348621,-1.966388,0.089379,-0.053277,0.051749,-0.034345,-0.341602,-0.939216,0.004835,-0.014187,0.004569,775.921448,-46.691513,156.842072,,,,,,,
1537388203.018269,-0.037070,0.349621,-1.965552,0.108400,-0.013806,0.082770,-0.034819,-0.342541,-0.938856,-0.003709,-0.014316,0.009764,775.921448,-46.691513,156.842072,,,,,,,
1537388203.028248,-0.037290,0.350845,-1.964417,0.132807,0.024559,0.108484,-0.035010,-0.343692,-0.938429,-0.010949,-0.011182,0.012846,775.622314,-47.040329,156.945343,,,,,,,
1537388203.038227,-0.037233,0.352312,-1.963128,0.158411,0.056471,0.117134,-0.034938,-0.345069,-0.937926,-0.012410,-0.007150,0.015044,775.622314,-47.040329,156.945343,,,,,,,
1537388203.048207,-0.036850,0.354037,-1.961868,0.185245,0.090480,0.109774,-0.034556,-0.346688,-0.937343,-0.011464,0.000862,0.022456,775.622314,-47.040329,156.945343,,,,,,,
1537388203.058186,-0.036144,0.355990,-1.960723,0.204650,0.118111,0.097042,-0.033870,-0.348518,-0.936689,-0.016713,0.004646,0.023923,775.490845,-47.191212,157.006317,,,,,,,
1537388203.068135,-0.035066,0.358075,-1.959740,0.213408,0.148995,0.082114,-0.032835,-0.350472,-0.935997,-0.020204,0.004586,0.024635,775.490845,-47.191212,157.006317,,,,,,,
1537388203.078114,-0.033726,0.360116,-1.958871,0.203945,0.168241,0.072436,-0.031556,-0.352382,-0.935323,-0.021773,0.004711,0.023854,775.748596,-47.372169,157.116943,,,,,,,
1537388203.088093,-0.032256,0.361962,-1.958034,0.178359,0.179054,0.073353,-0.030161,-0.354110,-0.934716,-0.023779,0.004577,0.019845,775.748596,-47.372169,157.116943,,,,,,,
1537388203.098072,-0.030808,0.363392,-1.957112,0.134520,0.176112,0.084853,-0.028792,-0.355447,-0.934252,-0.023775,0.003289,0.012087,776.059937,-47.271500,156.965820,,,,,,,
1537388203.108052,-0.029516,0.364436,-1.956131,0.098150,0.159232,0.090008,-0.027574,-0.356423,-0.933917,-0.023986,0.000267,0.007876,776.059937,-47.271500,156.965820,,,,,,,
1537388203.118031,-0.028496,0.365137,-1.955089,0.064929,0.133795,0.097326,-0.026614,-0.357077,-0.933695,-0.021695,-0.000788,0.006098,775.970642,-47.707981,157.049103,,,,,,,
1537388203.128010,-0.027767,0.365562,-1.954005,0.039210,0.102975,0.100418,-0.025929,-0.357475,-0.933562,-0.020946,-0.000802,0.005446,775.970642,-47.707981,157.049103,,,,,,,
1537388203.137989,-0.027337,0.365807,-1.952938,0.024239,0.076357,0.097159,-0.025525,-0.357703,-0.933486,-0.018222,-0.000009,0.007262,776.200684,-47.597626,156.988098,,,,,,,
1537388203.147938,-0.027104,0.365938,-1.951980,0.013615,0.052898,0.085382,-0.025306,-0.357825,-0.933444,-0.015435,0.005820,0.008533,776.200684,-47.597626,156.988098,,,,,,,
1537388203.157917,-0.027033,0.366023,-1.951220,0.009455,0.029377,0.064039,-0.025239,-0.357905,-0.933416,-0.013869,0.009272,0.009374,776.119751,-47.542820,156.976196,,,,,,,
1537388203.167897,-0.027079,0.366078,-1.950701,0.006402,0.011195,0.042692,-0.025281,-0.357956,-0.933395,-0.009524,0.012879,0.010177,776.119751,-47.542820,156.976196,,,,,,,
1537388203.177876,-0.027269,0.366065,-1.950356,-0.004186,-0.011197,0.028777,-0.025459,-0.357944,-0.933395,-0.007759,0.016299,0.008514,776.473450,-47.561275,156.775482,,,,,,,
1537388203.187813,-0.027608,0.365915,-1.950084,-0.019137,-0.027141,0.025508,-0.025777,-0.357804,-0.933440,-0.009699,0.015382,0.004637,776.473450,-47.561275,156.775482,,,,,,,
1537388203.197792,-0.028010,0.365633,-1.949812,-0.028736,-0.027084,0.026521,-0.026155,-0.357540,-0.933530,-0.012938,0.014477,0.004499,776.479126,-47.486679,157.104950,,,,,,,
1537388203.207772,-0.027841,0.365371,-1.949494,-0.022169,0.047628,0.030751,-0.026000,-0.357296,-0.933628,-0.021058,0.011959,0.039356,776.479126,-47.486679,157.104950,,,,,,,
1537388203.217721,-0.027099,0.365276,-1.949150,-0.002851,0.099840,0.031875,-0.025308,-0.357207,-0.933681,-0.025473,0.014968,0.048137,776.417969,-47.411366,156.978760,,,,,,,
1537388203.227700,-0.026021,0.365493,-1.948782,0.031355,0.127422,0.033102,-0.024300,-0.357410,-0.933630,-0.022270,0.020465,0.045935,776.417969,-47.411366,156.978760,,,,,,,
1537388203.237679,-0.024917,0.365975,-1.948509,0.052815,0.115543,0.019350,-0.023264,-0.357860,-0.933485,-0.016378,0.023082,0.037870,776.390442,-47.466568,157.083160,,,,,,,
1537388203.247658,-0.024190,0.366487,-1.948413,0.048539,0.062149,0.004436,-0.022581,-0.358338,-0.933318,-0.006425,0.020325,0.012160,776.390442,-47.466568,157.083160,,,,,,,
1537388203.257638,-0.024043,0.366781,-1.948420,0.020669,-0.002856,-0.003119,-0.022442,-0.358612,-0.933216,0.008175,0.013992,-0.007992,776.227173,-47.562744,156.960449,,,,,,,
1537388203.267617,-0.024454,0.366710,-1.948414,-0.014719,-0.047499,0.003137,-0.022826,-0.358546,-0.933232,0.019408,0.004802,-0.013469,776.227173,-47.562744,156.960449,,,,,,,
1537388203.277596,-0.024964,0.366335,-1.948219,-0.043704,-0.036617,0.026449,-0.023305,-0.358196,-0.933354,0.024327,-0.006336,0.004048,776.183411,-47.639347,156.904083,,,,,,,
1537388203.287575,-0.025235,0.365711,-1.947695,-0.066288,0.002006,0.057242,-0.023563,-0.357613,-0.933572,0.026798,-0.013710,0.023141,776.183411,-47.639347,156.904083,,,,,,,
1537388203.297524,-0.025342,0.364910,-1.946911,-0.082432,0.020290,0.078483,-0.023671,-0.356865,-0.933855,0.025289,-0.015159,0.025850,775.934692,-47.752293,156.676636,,,,,,,
1537388203.307503,-0.025580,0.363902,-1.946081,-0.104892,0.000122,0.078380,-0.023902,-0.355923,-0.934208,0.018470,-0.009952,0.017201,775.934692,-47.752293,156.676636,,,,,,,
1537388203.317482,-0.026155,0.362643,-1.945489,-0.131449,-0.052120,0.049468,-0.024451,-0.354747,-0.934642,0.011969,-0.000142,0.007258,775.761597,-47.723454,156.895966,,,,,,,
1537388203.327462,-0.027197,0.361134,-1.945339,-0.157905,-0.117204,0.006691,-0.025440,-0.353335,-0.935150,0.004627,0.008395,-0.000260,775.761597,-47.723454,156.895966,,,,,,,
1537388203.337441,-0.028694,0.359406,-1.945668,-0.177953,-0.174851,-0.036057,-0.026857,-0.351718,-0.935720,-0.002745,0.009921,-0.003779,775.700989,-47.467525,156.625061,,,,,,,
1537388203.347420,-0.030505,0.357601,-1.946357,-0.183126,-0.216529,-0.065931,-0.028571,-0.350028,-0.936302,-0.007089,0.008979,-0.003563,775.700989,-47.467525,156.625061,,,,,,,
1537388203.357399,-0.032520,0.355908,-1.947284,-0.166993,-0.239073,-0.085037,-0.030477,-0.348441,-0.936834,-0.009120,0.009559,-0.002589,775.795837,-47.194290,156.620605,,,,,,,
1537388203.367348,-0.034419,0.354479,-1.948287,-0.140217,-0.218939,-0.090247,-0.032273,-0.347101,-0.937271,-0.010955,0.010279,0.004486,775.795837,-47.194290,156.620605,,,,,,,
1537388203.377327,-0.035786,0.353368,-1.949270,-0.109138,-0.155037,-0.086938,-0.033568,-0.346060,-0.937611,-0.014345,0.009802,0.016361,775.566345,-47.149738,156.819916,,,,,,,
1537388203.387307,-0.036218,0.352446,-1.950133,-0.096154,-0.041900,-0.073105,-0.033984,-0.345195,-0.937915,-0.017286,0.011042,0.029330,775.566345,-47.149738,156.819916,,,,,,,
1537388203.397286,-0.035889,0.351649,-1.950735,-0.074901,0.019975,-0.045297,-0.033686,-0.344446,-0.938200,-0.021750,0.006464,0.040251,775.784912,-46.954655,156.791443,,,,,,,
1537388203.407265,-0.035407,0.351078,-1.950972,-0.052743,0.048763,-0.009979,-0.033241,-0.343911,-0.938413,-0.034386,-0.002708,0.033338,775.784912,-46.954655,156.791443,,,,,,,
1537388203.417244,-0.034535,0.350619,-1.950807,-0.043300,0.113921,0.026301,-0.032427,-0.343479,-0.938599,-0.032850,0.004078,0.030335,775.679993,-47.037872,156.596802,,,,,,,
1537388203.427224,-0.033028,0.350322,-1.950401,-0.019788,0.175753,0.040244,-0.031016,-0.343200,-0.938749,-0.018453,0.002197,0.040800,775.679993,-47.037872,156.596802,,,,,,,
1537388203.437203,-0.031395,0.350355,-1.949981,0.012266,0.177717,0.037213,-0.029483,-0.343232,-0.938787,-0.020474,0.002426,0.039541,775.686707,-47.044296,156.420044,,,,,,,
1537388203.447152,-0.029777,0.350589,-1.949650,0.026216,0.171215,0.026622,-0.027962,-0.343451,-0.938753,-0.016823,0.011512,0.033220,775.686707,-47.044296,156.420044,,,,,,,
1537388203.457131,-0.028296,0.350880,-1.949513,0.028455,0.144469,0.007447,-0.026569,-0.343724,-0.938694,-0.011258,0.013112,0.029087,775.825256,-47.267441,156.664520,,,,,,,
1537388203.467110,-0.027181,0.351085,-1.949528,0.015651,0.100733,-0.005388,-0.025520,-0.343917,-0.938652,-0.013115,0.009246,0.022362,775.825256,-47.267441,156.664520,,,,,,,
