timestamp(unix),attitude_roll(radians),attitude_pitch(radians),attitude_yaw(radians),rotation_rate_x(radians/s),rotation_rate_y(radians/s),rotation_rate_z(radians/s),gravity_x(G),gravity_y(G),gravity_z(G),user_acc_x(G),user_acc_y(G),user_acc_z(G),magnetic_field_x(microteslas),magnetic_field_y(microteslas),magnetic_field_z(microteslas),latitude(degree),longitude(degree),altitude(meter),speed(m/s),course(degree),timestamp(unix),User Mark
1537388199.345716,0.092666,0.372623,-2.820381,0.489678,-0.478768,0.392842,0.086184,-0.364060,-0.927380,0.006376,-0.009415,0.104534,-42.811138,21.976868,-38.043884,,,,,,,
,,,,,,,,,,,,,,,,42.293031,-71.262269,55.126896,0.425098,-1.000000,1537388198.999844,
1537388199.355726,0.086106,0.378400,-2.816510,0.564559,-0.541856,0.359286,0.079916,-0.369434,-0.925814,-0.001364,-0.005123,0.111773,-42.876705,21.975243,-37.683716,,,,,,,
1537388199.365766,0.079584,0.384514,-2.813567,0.587106,-0.535703,0.308079,0.073695,-0.375109,-0.924047,-0.003840,-0.001905,0.115850,-42.876705,21.975243,-37.683716,,,,,,,
1537388199.375806,0.073594,0.390511,-2.810734,0.573343,-0.494392,0.251198,0.067992,-0.380661,-0.922211,-0.005537,0.001572,0.117997,-42.984562,21.461823,-37.481323,,,,,,,
1537388199.385816,0.068319,0.396124,-2.808903,0.536105,-0.444569,0.194159,0.062980,-0.385846,-0.920411,-0.003440,0.005704,0.116319,-42.984562,21.461823,-37.481323,,,,,,,
1537388199.395856,0.063780,0.401244,-2.807110,0.487086,-0.384032,0.146636,0.058675,-0.390564,-0.918704,-0.001622,0.013824,0.116305,-43.362064,21.143173,-37.159424,,,,,,,
1537388199.405896,0.059951,0.405829,-2.806134,0.438053,-0.330922,0.107691,0.055049,-0.394781,-0.917125,0.001164,0.020498,0.116420,-43.362064,21.143173,-37.159424,,,,,,,
1537388199.415937,0.056836,0.409883,-2.805061,0.385783,-0.272435,0.075119,0.052100,-0.398502,-0.915686,0.006951,0.025699,0.115424,-43.668591,20.955872,-36.842590,,,,,,,
1537388199.425947,0.054412,0.413287,-2.804760,0.317544,-0.215072,0.037126,0.049806,-0.401622,-0.914450,0.015013,0.029978,0.112784,-43.668591,20.955872,-36.842590,,,,,,,
1537388199.435987,0.052775,0.415716,-2.804315,0.211935,-0.147029,0.008513,0.048258,-0.403845,-0.913553,0.018179,0.030997,0.110041,-43.833447,20.518921,-36.558838,,,,,,,
1537388199.446027,0.051722,0.416886,-2.804612,0.082952,-0.106830,-0.030799,0.047271,-0.404915,-0.913132,0.018083,0.031990,0.098480,-43.833447,20.518921,-36.558838,,,,,,,
1537388199.456067,0.051217,0.416638,-2.804870,-0.055609,-0.068798,-0.073359,0.046815,-0.404689,-0.913255,0.019957,0.034922,0.089479,-43.668018,20.798531,-36.419617,,,,,,,
1537388199.466077,0.051048,0.415092,-2.805844,-0.178169,-0.056298,-0.102909,0.046693,-0.403274,-0.913887,0.016921,0.035384,0.084389,-43.668018,20.798531,-36.419617,,,,,,,
1537388199.476117,0.050729,0.412708,-2.806433,-0.245309,-0.079860,-0.102100,0.046450,-0.401092,-0.914859,0.012006,0.038222,0.074024,-43.900906,20.690002,-36.477356,,,,,,,
1537388199.486158,0.050058,0.410182,-2.807267,-0.243185,-0.106443,-0.082745,0.045886,-0.398776,-0.915900,0.001339,0.045718,0.069906,-43.900906,20.690002,-36.477356,,,,,,,
1537388199.496167,0.048976,0.408046,-2.807363,-0.199512,-0.137169,-0.049262,0.044937,-0.396816,-0.916797,-0.006180,0.050778,0.066806,-44.193928,20.863716,-36.395813,,,,,,,
1537388199.506208,0.047364,0.406372,-2.807479,-0.156921,-0.173188,-0.007213,0.043490,-0.395279,-0.917531,-0.011172,0.054138,0.059911,-44.193928,20.863716,-36.395813,,,,,,,
1537388199.516248,0.045297,0.405049,-2.806725,-0.126078,-0.198548,0.034732,0.041617,-0.394064,-0.918140,-0.016669,0.052541,0.054981,-44.492290,20.960915,-36.226868,,,,,,,
1537388199.526288,0.042931,0.403821,-2.806006,-0.126165,-0.210105,0.068979,0.039466,-0.392935,-0.918719,-0.020255,0.046927,0.049609,-44.492290,20.960915,-36.226868,,,,,,,
1537388199.536298,0.040405,0.402469,-2.804523,-0.144392,-0.209958,0.099877,0.037166,-0.391692,-0.919345,-0.022747,0.039656,0.043430,-44.914272,21.028099,-36.196289,,,,,,,
1537388199.546338,0.037750,0.400859,-2.803150,-0.172197,-0.209858,0.124312,0.034749,-0.390209,-0.920070,-0.020909,0.030682,0.035564,-44.914272,21.028099,-36.196289,,,,,,,
1537388199.556379,0.035082,0.399045,-2.801473,-0.190449,-0.197966,0.155163,0.032319,-0.388538,-0.920865,-0.022096,0.023380,0.030851,-45.046192,21.286087,-36.207153,,,,,,,
1537388199.566419,0.032339,0.397189,-2.799423,-0.188445,-0.192426,0.191490,0.029816,-0.386828,-0.921670,-0.028504,0.012194,0.027398,-45.046192,21.286087,-36.207153,,,,,,,
1537388199.576429,0.029508,0.395609,-2.797006,-0.152306,-0.187928,0.224793,0.027225,-0.385370,-0.922360,-0.033679,0.002314,0.019849,-45.552174,21.672462,-36.242615,,,,,,,
1537388199.586469,0.026687,0.394622,-2.794382,-0.086269,-0.176013,0.241124,0.024633,-0.384459,-0.922813,-0.038351,-0.006151,0.011451,-45.552174,21.672462,-36.242615,,,,,,,
1537388199.596509,0.024089,0.394275,-2.791742,-0.026598,-0.152455,0.240274,0.022239,-0.384139,-0.923007,-0.043479,-0.017671,0.008182,-45.874676,21.962578,-36.174011,,,,,,,
1537388199.606550,0.021934,0.394217,-2.789354,-0.007386,-0.113092,0.210293,0.020250,-0.384085,-0.923075,-0.046205,-0.026254,0.001292,-45.874676,21.962578,-36.174011,,,,,,,
1537388199.616559,0.020353,0.394031,-2.787389,-0.028663,-0.072767,0.170477,0.018792,-0.383914,-0.923177,-0.049615,-0.036481,-0.007380,-46.176548,21.954353,-36.114197,,,,,,,
1537388199.626600,0.019369,0.393482,-2.785943,-0.068031,-0.029335,0.116659,0.017888,-0.383407,-0.923406,-0.049687,-0.047318,-0.015543,-46.176548,21.954353,-36.114197,,,,,,,
1537388199.636640,0.019159,0.392533,-2.785133,-0.104210,0.024756,0.058540,0.017701,-0.382530,-0.923773,-0.048691,-0.052345,-0.017679,-46.167416,22.298531,-36.038269,,,,,,,
1537388199.646650,0.019564,0.391334,-2.784864,-0.123322,0.059708,0.011275,0.018083,-0.381422,-0.924224,-0.044252,-0.063570,-0.020844,-46.167416,22.298531,-36.038269,,,,,,,
1537388199.656690,0.020451,0.390147,-2.784986,-0.113688,0.092642,-0.020869,0.018913,-0.380325,-0.924659,-0.037818,-0.069016,-0.022087,-46.221630,22.172974,-36.101929,,,,,,,
1537388199.666730,0.021520,0.389206,-2.785328,-0.086979,0.094717,-0.037837,0.019909,-0.379454,-0.924996,-0.026867,-0.071535,-0.018378,-46.221630,22.172974,-36.101929,,,,,,,
1537388199.676771,0.022325,0.388532,-2.785744,-0.063434,0.057360,-0.040771,0.020659,-0.378830,-0.925235,-0.014327,-0.069870,-0.019391,-46.291882,22.522583,-35.928284,,,,,,,
1537388199.686780,0.022625,0.387912,-2.786127,-0.067606,0.007186,-0.038456,0.020942,-0.378257,-0.925464,-0.005745,-0.068399,-0.021680,-46.291882,22.522583,-35.928284,,,,,,,
1537388199.696821,0.022457,0.386994,-2.786515,-0.106955,-0.038793,-0.041685,0.020795,-0.377406,-0.925814,0.001956,-0.068745,-0.026914,-46.391216,22.427650,-36.159851,,,,,,,
1537388199.706861,0.021897,0.385372,-2.787036,-0.186785,-0.083829,-0.059025,0.020290,-0.375904,-0.926436,0.003163,-0.067318,-0.037248,-46.391216,22.427650,-36.159851,,,,,,,
1537388199.716901,0.021039,0.382792,-2.787756,-0.283697,-0.118212,-0.077567,0.019515,-0.373512,-0.927420,-0.001800,-0.060692,-0.051722,-46.345181,22.428169,-36.056152,,,,,,,
1537388199.726911,0.019880,0.379330,-2.788583,-0.365704,-0.154662,-0.086402,0.018466,-0.370298,-0.928729,-0.006457,-0.055376,-0.069257,-46.345181,22.428169,-36.056152,,,,,,,
1537388199.736951,0.018364,0.375359,-2.789405,-0.402964,-0.186728,-0.083262,0.017084,-0.366607,-0.930219,-0.007502,-0.050492,-0.086367,-46.762051,22.579346,-36.137573,,,,,,,
1537388199.746991,0.016492,0.371448,-2.790097,-0.381629,-0.218637,-0.065922,0.015367,-0.362965,-0.931676,-0.006563,-0.046993,-0.100703,-46.762051,22.579346,-36.137573,,,,,,,
1537388199.757001,0.014215,0.368158,-2.790504,-0.310237,-0.248260,-0.033369,0.013262,-0.359897,-0.932897,-0.008867,-0.040615,-0.113108,-46.840885,22.690865,-36.128113,,,,,,,
1537388199.767042,0.011687,0.365768,-2.790459,-0.212283,-0.247885,0.013101,0.010914,-0.357666,-0.933785,-0.015049,-0.029876,-0.115485,-46.840885,22.690865,-36.128113,,,,,,,
1537388199.777082,0.009197,0.364411,-2.789846,-0.111230,-0.216484,0.070151,0.008593,-0.356399,-0.934294,-0.028323,-0.021989,-0.110353,-46.915279,22.745605,-35.927490,,,,,,,
1537388199.787107,0.006987,0.363964,-2.788685,-0.025117,-0.163797,0.118487,0.006530,-0.355981,-0.934470,-0.034530,-0.014563,-0.101312,-46.915279,22.745605,-35.927490,,,,,,,
1537388199.797117,0.005311,0.364113,-2.787154,0.025825,-0.094160,0.150541,0.004963,-0.356121,-0.934426,-0.035709,-0.008076,-0.092337,-47.196636,22.840759,-36.001892,,,,,,,
1537388199.807157,0.004451,0.364587,-2.785443,0.052261,-0.000114,0.160993,0.004159,-0.356563,-0.934262,-0.036889,-0.008076,-0.078541,-47.196636,22.840759,-36.001892,,,,,,,
1537388199.817197,0.004621,0.365251,-2.783747,0.070198,0.102381,0.156404,0.004316,-0.357184,-0.934024,-0.038527,-0.009607,-0.060269,-47.302731,22.955460,-35.953308,,,,,,,
1537388199.827238,0.005691,0.366134,-2.782095,0.092444,0.181398,0.153000,0.005313,-0.358008,-0.933703,-0.038730,-0.012002,-0.036710,-47.302731,22.955460,-35.953308,,,,,,,
1537388199.837247,0.007214,0.367324,-2.780536,0.128669,0.212355,0.144518,0.006733,-0.359119,-0.933267,-0.036442,-0.014722,-0.014242,-47.174068,22.934692,-36.080383,,,,,,,
1537388199.847288,0.008834,0.369096,-2.779080,0.192688,0.210241,0.134175,0.008239,-0.360773,-0.932617,-0.033110,-0.014227,0.008408,-47.174068,22.934692,-36.080383,,,,,,,
1537388199.857328,0.010337,0.371626,-2.777801,0.269561,0.189950,0.115420,0.009631,-0.363131,-0.931688,-0.029376,-0.012098,0.030367,-47.040218,23.086609,-36.166382,,,,,,,
1537388199.867368,0.011629,0.374889,-2.776849,0.340120,0.154618,0.081731,0.010821,-0.366169,-0.930485,-0.026767,-0.005367,0.049580,-47.040218,23.086609,-36.166382,,,,,,,
1537388199.877378,0.012646,0.378601,-2.776354,0.378749,0.106378,0.038307,0.011750,-0.369621,-0.929108,-0.024323,0.002556,0.065537,-46.977169,22.777481,-35.907288,,,,,,,
1537388199.887418,0.013292,0.382480,-2.776419,0.389698,0.049512,-0.014848,0.012331,-0.373222,-0.927660,-0.021883,0.011146,0.075334,-46.977169,22.777481,-35.907288,,,,,,,
1537388199.897459,0.013701,0.386213,-2.777087,0.368639,0.008598,-0.072509,0.012692,-0.376683,-0.926255,-0.019131,0.019490,0.080277,-46.973042,22.652878,-35.979065,,,,,,,
1537388199.907468,0.014056,0.389663,-2.778413,0.342231,-0.016331,-0.134537,0.013002,-0.379876,-0.924946,-0.016908,0.026635,0.084339,-46.973042,22.652878,-35.979065,,,,,,,
1537388199.917509,0.014624,0.392780,-2.780382,0.304021,-0.013490,-0.192463,0.013510,-0.382758,-0.923749,-0.015417,0.032646,0.085950,-46.820957,22.352730,-35.765137,,,,,,,
1537388199.927549,0.015578,0.395482,-2.782945,0.261499,0.005387,-0.245131,0.014375,-0.385253,-0.922699,-0.012987,0.044265,0.086898,-46.820957,22.352730,-35.765137,,,,,,,
1537388199.937589,0.016986,0.397673,-2.785947,0.209306,0.036084,-0.281865,0.015660,-0.387274,-0.921831,-0.012638,0.054617,0.088228,-46.948231,22.067383,-35.718567,,,,,,,
1537388199.947599,0.018759,0.399254,-2.789192,0.147473,0.058328,-0.300447,0.017283,-0.388731,-0.921189,-0.011515,0.063963,0.088746,-46.948231,22.067383,-35.718567,,,,,,,
1537388199.957639,0.020824,0.400163,-2.792531,0.078125,0.083842,-0.305188,0.019178,-0.389569,-0.920797,-0.009915,0.078869,0.086783,-46.285862,21.840569,-35.671875,,,,,,,
1537388199.967680,0.023144,0.400353,-2.795800,0.008730,0.111561,-0.297112,0.021312,-0.389743,-0.920677,-0.012630,0.092990,0.087059,-46.285862,21.840569,-35.671875,,,,,,,
1537388199.977720,0.025593,0.399911,-2.798839,-0.051101,0.128707,-0.272914,0.023571,-0.389336,-0.920794,-0.015011,0.102654,0.087191,-46.165432,21.600250,-35.869141,,,,,,,
1537388199.987730,0.027945,0.399002,-2.801503,-0.094942,0.132049,-0.237888,0.025747,-0.388499,-0.921089,-0.016637,0.109798,0.087532,-46.165432,21.600250,-35.869141,,,,,,,
1537388199.997770,0.030036,0.397728,-2.803661,-0.128126,0.119460,-0.188847,0.027687,-0.387325,-0.921527,-0.019859,0.113079,0.089114,-45.801670,21.644234,-35.518005,,,,,,,
1537388200.007810,0.031594,0.396214,-2.805249,-0.151683,0.083418,-0.136458,0.029141,-0.385928,-0.922068,-0.022168,0.111163,0.090678,-45.801670,21.644234,-35.518005,,,,,,,
1537388200.017820,0.032449,0.394552,-2.806266,-0.165602,0.032422,-0.087165,0.029951,-0.384395,-0.922683,-0.022047,0.105998,0.092208,-45.697018,21.540688,-35.628357,,,,,,,
1537388200.027860,0.032608,0.392824,-2.806816,-0.170965,-0.017542,-0.046381,0.030119,-0.382798,-0.923340,-0.020079,0.094575,0.092499,-45.697018,21.540688,-35.628357,,,,,,,
1537388200.037901,0.032065,0.391091,-2.806944,-0.170979,-0.071784,-0.007689,0.029639,-0.381198,-0.924018,-0.017081,0.076144,0.088035,-45.617054,21.946060,-35.749939,,,,,,,
1537388200.047940,0.030905,0.389392,-2.806672,-0.168876,-0.115356,0.028834,0.028587,-0.379626,-0.924698,-0.015098,0.060138,0.082092,-45.617054,21.946060,-35.749939,,,,,,,
1537388200.057950,0.029322,0.387739,-2.806046,-0.165742,-0.139721,0.062077,0.027142,-0.378097,-0.925368,-0.016842,0.045516,0.074477,-45.757313,21.863007,-35.836487,,,,,,,
1537388200.067991,0.027428,0.386110,-2.805079,-0.164738,-0.156639,0.092076,0.025406,-0.376588,-0.926032,-0.018463,0.029222,0.067130,-45.757313,21.863007,-35.836487,,,,,,,
,,,,,,,,,,,,,,,,42.293036,-71.262275,55.228798,-1.000000,-1.000000,1537388199.999848,
1537388200.078031,0.025210,0.384432,-2.803860,-0.171151,-0.181093,0.112446,0.023368,-0.375032,-0.926717,-0.017676,0.017046,0.056523,-45.699810,21.879631,-35.920288,,,,,,,
1537388200.088071,0.022736,0.382626,-2.802462,-0.188231,-0.195979,0.127379,0.021090,-0.373358,-0.927447,-0.015627,0.004279,0.047824,-45.699810,21.879631,-35.920288,,,,,,,
1537388200.098081,0.020223,0.380647,-2.801054,-0.204212,-0.199217,0.124100,0.018774,-0.371521,-0.928234,-0.017767,-0.010055,0.042813,-45.700970,22.133896,-35.979065,,,,,,,
1537388200.108121,0.017708,0.378524,-2.799768,-0.216954,-0.205709,0.111234,0.016454,-0.369549,-0.929065,-0.016896,-0.027164,0.034641,-45.700970,22.133896,-35.979065,,,,,,,
1537388200.118162,0.015147,0.376345,-2.798746,-0.215766,-0.220809,0.083513,0.014086,-0.367524,-0.929907,-0.012530,-0.044906,0.023474,-45.967304,22.421204,-35.927673,,,,,,,
1537388200.128202,0.012751,0.374263,-2.798130,-0.204994,-0.211404,0.043988,0.011868,-0.365586,-0.930702,-0.008511,-0.057509,0.015861,-45.967304,22.421204,-35.927673,,,,,,,
1537388200.138212,0.010755,0.372299,-2.797908,-0.196411,-0.181689,0.008644,0.010018,-0.363758,-0.931440,-0.004799,-0.065609,0.010038,-45.943066,22.391022,-35.939209,,,,,,,
1537388200.148252,0.009486,0.370063,-2.798071,-0.234826,-0.114656,-0.024956,0.008843,-0.361674,-0.932262,-0.001016,-0.070501,0.002163,-45.943066,22.391022,-35.939209,,,,,,,
1537388200.158292,0.009009,0.367181,-2.798614,-0.307333,-0.053036,-0.064057,0.008408,-0.358985,-0.933305,0.009277,-0.072686,-0.007567,-46.086018,22.525711,-35.999939,,,,,,,
1537388200.168302,0.009128,0.363438,-2.799503,-0.396900,-0.010593,-0.092484,0.008532,-0.355489,-0.934641,0.018537,-0.065043,-0.022909,-46.086018,22.525711,-35.999939,,,,,,,
1537388200.178342,0.009608,0.358962,-2.800664,-0.465106,0.011601,-0.118580,0.008995,-0.351303,-0.936219,0.016838,-0.063157,-0.030487,-46.043507,22.720230,-36.287354,,,,,,,
1537388200.188383,0.010102,0.353934,-2.802017,-0.517268,-0.001382,-0.138040,0.009476,-0.346591,-0.937968,0.015747,-0.063520,-0.035863,-46.043507,22.720230,-36.287354,,,,,,,
1537388200.198423,0.010344,0.348461,-2.803630,-0.565087,-0.042156,-0.163779,0.009722,-0.341452,-0.939849,0.012220,-0.057535,-0.039048,-46.007298,23.134247,-36.499634,,,,,,,
1537388200.208433,0.010122,0.342442,-2.805525,-0.626724,-0.102174,-0.191652,0.009535,-0.335788,-0.941889,0.006548,-0.051114,-0.041158,-46.007298,23.134247,-36.499634,,,,,,,
1537388200.218473,0.009273,0.335700,-2.807799,-0.695764,-0.178272,-0.230188,0.008756,-0.329430,-0.944139,0.002948,-0.052345,-0.050124,-45.925648,23.482132,-36.599243,,,,,,,
1537388200.228513,0.007847,0.328485,-2.810573,-0.729589,-0.245853,-0.280328,0.007428,-0.322609,-0.946503,-0.002133,-0.052482,-0.057983,-45.925648,23.482132,-36.599243,,,,,,,
1537388200.238554,0.006198,0.321279,-2.813924,-0.717621,-0.277099,-0.334648,0.005881,-0.315780,-0.948814,-0.009986,-0.050476,-0.060128,-46.253811,23.876488,-36.657593,,,,,,,
1537388200.248563,0.004507,0.314387,-2.817761,-0.682264,-0.292237,-0.377153,0.004286,-0.309233,-0.950976,-0.016478,-0.045045,-0.068402,-46.253811,23.876488,-36.657593,,,,,,,
1537388200.258604,0.002831,0.307987,-2.821849,-0.622499,-0.291181,-0.391805,0.002698,-0.303141,-0.952942,-0.020749,-0.041128,-0.082550,-46.555607,24.014420,-36.744995,,,,,,,
1537388200.268644,0.001572,0.302718,-2.826061,-0.487143,-0.229181,-0.408442,0.001500,-0.298116,-0.954528,-0.026235,-0.039607,-0.074677,-46.555607,24.014420,-36.744995,,,,,,,
1537388200.278654,0.000418,0.298930,-2.830373,-0.349546,-0.255683,-0.405478,0.000400,-0.294498,-0.955652,-0.018893,-0.035351,-0.052954,-46.750835,24.836571,-36.830505,,,,,,,
1537388200.288694,-0.001212,0.296303,-2.834292,-0.241923,-0.288406,-0.360963,-0.001159,-0.291986,-0.956422,-0.027467,-0.039267,-0.064483,-46.750835,24.836571,-36.830505,,,,,,,
1537388200.298734,-0.003352,0.294436,-2.837632,-0.167427,-0.309345,-0.301706,-0.003207,-0.290200,-0.956960,-0.042661,-0.043708,-0.057352,-47.033283,25.032082,-36.728455,,,,,,,
1537388200.308775,-0.005637,0.293396,-2.840379,-0.089703,-0.326072,-0.254206,-0.005396,-0.289205,-0.957252,-0.050985,-0.056910,-0.032815,-47.033283,25.032082,-36.728455,,,,,,,
1537388200.318784,-0.008864,0.292702,-2.842737,-0.066240,-0.397339,-0.209979,-0.008487,-0.288540,-0.957430,-0.051206,-0.023716,-0.041929,-47.225994,24.916565,-36.896729,,,,,,,
1537388200.328825,-0.011867,0.292225,-2.844297,-0.042145,-0.314647,-0.127886,-0.011363,-0.288083,-0.957538,-0.064091,-0.021761,-0.039075,-47.225994,24.916565,-36.896729,,,,,,,
1537388200.338865,-0.012969,0.291968,-2.845184,-0.022577,-0.060206,-0.072152,-0.012420,-0.287837,-0.957599,-0.085129,-0.037114,-0.027463,-47.624454,24.989952,-37.046570,,,,,,,
1537388200.348905,-0.010426,0.291792,-2.845602,-0.017142,0.351092,-0.029942,-0.009986,-0.287669,-0.957678,-0.101404,-0.035252,-0.029948,-47.624454,24.989952,-37.046570,,,,,,,
1537388200.358915,-0.003561,0.291662,-2.845679,-0.008522,0.793278,-0.001730,-0.003411,-0.287544,-0.957761,-0.105079,-0.040398,-0.041888,-47.451138,24.843246,-37.098755,,,,,,,
1537388200.368955,0.007271,0.291959,-2.845479,0.046068,1.175734,0.026959,0.006963,-0.287829,-0.957656,-0.097463,-0.032346,-0.052079,-47.451138,24.843246,-37.098755,,,,,,,
1537388200.378996,0.020955,0.293136,-2.844928,0.139258,1.437639,0.064881,0.020060,-0.288956,-0.957132,-0.091654,-0.011978,-0.043845,-46.757221,24.650543,-37.328186,,,,,,,
1537388200.389005,0.036212,0.295246,-2.843973,0.229468,1.581059,0.108604,0.034638,-0.290976,-0.956103,-0.073822,-0.000910,-0.028180,-46.757221,24.650543,-37.328186,,,,,,,
1537388200.399046,0.052345,0.298110,-2.842506,0.292006,1.673284,0.168416,0.050014,-0.293714,-0.954584,-0.054225,0.007246,-0.016226,-45.156651,24.381065,-37.736023,,,,,,,
1537388200.409086,0.069391,0.301369,-2.840521,0.316149,1.783559,0.218336,0.066211,-0.296828,-0.952633,-0.059863,0.020827,0.004726,-45.156651,24.381065,-37.736023,,,,,,,
1537388200.419126,0.087217,0.304495,-2.838488,0.285123,1.846473,0.210441,0.083099,-0.299811,-0.950372,-0.053817,0.030509,0.015527,-43.227551,24.435921,-38.095520,,,,,,,
1537388200.429136,0.105066,0.307098,-2.837118,0.236405,1.805413,0.132329,0.099966,-0.302294,-0.947958,-0.031378,0.036242,0.005041,-43.227551,24.435921,-38.095520,,,,,,,
1537388200.439176,0.121848,0.309462,-2.836784,0.232819,1.625494,0.032561,0.115773,-0.304547,-0.945435,-0.006597,0.045605,0.006104,-41.580021,24.369835,-38.612061,,,,,,,
1537388200.449216,0.136418,0.311987,-2.837568,0.268854,1.362348,-0.065598,0.129430,-0.306950,-0.942883,0.019633,0.045155,0.019879,-41.580021,24.369835,-38.612061,,,,,,,
1537388200.459257,0.149247,0.314767,-2.839191,0.312310,1.168453,-0.191780,0.141388,-0.309595,-0.940298,0.027512,0.056741,0.044088,-39.902920,23.835442,-38.500977,,,,,,,
1537388200.469267,0.161022,0.317609,-2.843209,0.346292,1.019022,-0.385523,0.152308,-0.312296,-0.937696,0.045980,0.077234,0.056592,-39.902920,23.835442,-38.500977,,,,,,,
1537388200.479307,0.172785,0.319983,-2.848731,0.316003,0.981731,-0.559743,0.163200,-0.314551,-0.935106,0.068672,0.074118,0.055406,-38.552464,23.422340,-38.605347,,,,,,,
1537388200.489347,0.185072,0.321078,-2.855828,0.190464,1.001303,-0.662013,0.174613,-0.315590,-0.932691,0.056344,0.043770,0.049467,-38.552464,23.422340,-38.605347,,,,,,,
1537388200.499387,0.197080,0.320432,-2.862642,0.028576,0.950762,-0.691519,0.185840,-0.314977,-0.930727,0.018399,0.037252,0.031221,-37.380787,23.156181,-38.779480,,,,,,,
1537388200.509397,0.208732,0.318377,-2.869393,-0.101664,0.967875,-0.657001,0.196806,-0.313026,-0.929130,-0.026808,0.058540,0.037375,-37.380787,23.156181,-38.779480,,,,,,,
1537388200.519437,0.221912,0.315486,-2.874884,-0.173755,1.205100,-0.604885,0.209232,-0.310279,-0.927334,-0.051517,0.079871,0.083111,-36.258030,23.132294,-38.321655,,,,,,,
1537388200.529478,0.236950,0.312062,-2.879794,-0.242791,1.409588,-0.487429,0.223402,-0.307022,-0.925110,-0.048689,0.066742,0.116287,-36.258030,23.132294,-38.321655,,,,,,,
1537388200.539487,0.252923,0.308318,-2.882590,-0.296547,1.462404,-0.384250,0.238435,-0.303456,-0.922530,-0.058183,0.026555,0.122131,-34.789043,23.075035,-38.304749,,,,,,,
1537388200.549528,0.265632,0.304258,-2.886336,-0.297600,1.058363,-0.467080,0.250462,-0.299585,-0.920607,-0.078755,0.084330,0.041304,-34.789043,23.075035,-38.304749,,,,,,,
1537388200.559568,0.275980,0.300195,-2.889805,-0.288729,0.888611,-0.467427,0.260304,-0.295707,-0.919129,-0.064900,0.069785,0.031175,-33.712002,23.166840,-38.213562,,,,,,,
1537388200.569607,0.285755,0.296164,-2.893137,-0.298528,0.868724,-0.392586,0.269610,-0.291853,-0.917677,-0.009173,0.009260,0.095473,-33.712002,23.166840,-38.213562,,,,,,,
1537388200.579618,0.293921,0.292627,-2.894958,-0.261163,0.686742,-0.293339,0.277391,-0.288468,-0.916428,-0.026796,0.036683,0.077469,-32.689083,23.308601,-38.100769,,,,,,,
1537388200.589658,0.299654,0.289780,-2.896636,-0.213012,0.479030,-0.215308,0.282882,-0.285741,-0.915603,-0.053512,0.045888,0.050537,-32.689083,23.308601,-38.100769,,,,,,,
1537388200.599699,0.303594,0.287411,-2.897142,-0.189432,0.321374,-0.154706,0.286689,-0.283471,-0.915125,-0.017585,0.024666,0.074396,-32.128902,23.659523,-37.983582,,,,,,,
1537388200.609739,0.305771,0.285494,-2.898121,-0.138985,0.142116,-0.145178,0.288843,-0.281632,-0.915015,-0.016886,0.019074,0.087699,-32.128902,23.659523,-37.983582,,,,,,,
1537388200.619749,0.306091,0.284272,-2.898769,-0.059667,-0.053196,-0.148257,0.289240,-0.280459,-0.915250,-0.017404,0.015841,0.096295,-32.015537,23.649796,-38.058777,,,,,,,
1537388200.629789,0.304221,0.283728,-2.900467,0.016647,-0.298857,-0.182148,0.287574,-0.279937,-0.915935,-0.019706,0.002547,0.092067,-32.015537,23.649796,-38.058777,,,,,,,
1537388200.639829,0.300530,0.283868,-2.902294,0.106656,-0.459097,-0.218445,0.284179,-0.280070,-0.916953,-0.001311,-0.008504,0.055915,-32.067875,23.511055,-37.889282,,,,,,,
1537388200.649839,0.296984,0.285079,-2.904837,0.210926,-0.396860,-0.185014,0.280827,-0.281233,-0.917629,0.016002,-0.013521,0.045773,-32.067875,23.511055,-37.889282,,,,,,,
1537388200.659878,0.295111,0.287050,-2.906321,0.246505,-0.184986,-0.106581,0.278946,-0.283124,-0.917622,-0.011673,0.008817,0.042683,-32.333752,23.337654,-37.898987,,,,,,,
1537388200.669920,0.295476,0.288879,-2.907365,0.180672,0.070572,-0.022443,0.279129,-0.284878,-0.917023,-0.034363,0.020687,0.027069,-32.333752,23.337654,-37.898987,,,,,,,
1537388200.679960,0.297891,0.289729,-2.907087,0.053272,0.284083,0.000620,0.281272,-0.285692,-0.916114,-0.038627,0.018450,0.032646,-32.065258,23.133408,-37.909729,,,,,,,
1537388200.689970,0.301993,0.289292,-2.907089,-0.071747,0.440779,-0.017760,0.285065,-0.285273,-0.915072,-0.028076,0.006480,0.063220,-32.065258,23.133408,-37.909729,,,,,,,
1537388200.700010,0.306594,0.287690,-2.906576,-0.173984,0.457459,-0.067525,0.289409,-0.283738,-0.914185,-0.021083,-0.011290,0.081528,-31.751827,23.225464,-37.926025,,,,,,,
1537388200.710050,0.311250,0.285441,-2.907168,-0.195010,0.426066,-0.141256,0.293857,-0.281581,-0.913433,0.009091,-0.023244,0.072948,-31.751827,23.225464,-37.926025,,,,,,,
1537388200.720090,0.314654,0.283337,-2.908511,-0.118531,0.248224,-0.269468,0.297147,-0.279561,-0.912989,0.015750,-0.041178,0.036509,-31.349018,23.533485,-37.872864,,,,,,,
1537388200.730100,0.318271,0.282060,-2.911710,0.003189,0.294925,-0.347035,0.300559,-0.278335,-0.912246,0.036874,-0.035981,0.025909,-31.349018,23.533485,-37.872864,,,,,,,
1537388200.740141,0.323311,0.281465,-2.914900,0.069058,0.438003,-0.360084,0.305206,-0.277764,-0.910877,0.040085,-0.027427,0.049182,-30.986668,23.598335,-37.838684,,,,,,,
1537388200.750181,0.330163,0.281135,-2.918299,0.070563,0.650816,-0.297866,0.311469,-0.277446,-0.908851,0.018197,-0.000203,0.032432,-30.986668,23.598335,-37.838684,,,,,,,
1537388200.760221,0.338705,0.280632,-2.920128,0.008121,0.816673,-0.217628,0.319268,-0.276963,-0.906289,-0.016762,0.019989,0.032219,-30.546322,23.245110,-37.854797,,,,,,,
1537388200.770231,0.348183,0.279213,-2.921717,-0.115920,0.938408,-0.186701,0.327976,-0.275599,-0.903591,-0.045246,0.041849,0.008632,-30.546322,23.245110,-37.854797,,,,,,,
1537388200.780254,0.358856,0.276559,-2.921983,-0.259166,1.076101,-0.161281,0.337858,-0.273047,-0.900720,-0.012632,0.023429,0.020990,-29.935551,23.249748,-37.734985,,,,,,,
1537388200.790294,0.370733,0.272888,-2.922167,-0.358645,1.205252,-0.146286,0.348892,-0.269513,-0.897572,-0.000763,-0.000110,0.027943,-29.935551,23.249748,-37.734985,,,,,,,
1537388200.800304,0.382497,0.269059,-2.921525,-0.339362,1.135961,-0.130946,0.359810,-0.265825,-0.894356,0.001823,-0.009444,0.020653,-28.850124,23.530937,-37.688232,,,,,,,
1537388200.810344,0.389433,0.267449,-2.922715,-0.029682,0.467691,-0.181167,0.366166,-0.264272,-0.892234,0.038191,-0.039774,0.066703,-28.850124,23.530937,-37.688232,,,,,,,
1537388200.820385,0.388612,0.267161,-2.923289,0.000259,-0.281189,-0.072222,0.365462,-0.263994,-0.892605,0.079804,-0.050215,0.098873,-28.087940,23.648392,-37.670593,,,,,,,
1537388200.830425,0.382751,0.266253,-2.922764,-0.137961,-0.632118,0.020363,0.360314,-0.263118,-0.894954,-0.005074,-0.020741,0.025248,-28.087940,23.648392,-37.670593,,,,,,,
1537388200.840435,0.376765,0.263915,-2.921659,-0.272250,-0.534508,-0.061956,0.355175,-0.260862,-0.897664,0.015445,-0.012179,0.000249,-28.325344,23.649025,-37.760315,,,,,,,
1537388200.850475,0.373684,0.259671,-2.921154,-0.458276,-0.196613,-0.123060,0.352809,-0.256763,-0.899777,0.041982,-0.043759,-0.035435,-28.325344,23.649025,-37.760315,,,,,,,
1537388200.860515,0.374127,0.253621,-2.919543,-0.640259,0.151237,-0.122194,0.353769,-0.250911,-0.901050,0.031149,-0.049519,-0.081082,-28.717915,23.946136,-37.848755,,,,,,,
1537388200.870556,0.376791,0.246456,-2.916877,-0.767796,0.364980,-0.056382,0.356820,-0.243968,-0.901753,0.035819,-0.046300,-0.102291,-28.575672,24.729126,-37.882019,,,,,,,
1537388200.880565,0.380984,0.238795,-2.913656,-0.846251,0.534038,0.026965,0.361282,-0.236532,-0.901957,0.041672,-0.049799,-0.112172,-28.575672,24.729126,-37.882019,,,,,,,
1537388200.890606,0.385931,0.230953,-2.908955,-0.886016,0.584526,0.091750,0.366427,-0.228905,-0.901850,0.035611,-0.047523,-0.105536,-28.130795,25.415298,-37.828369,,,,,,,
1537388200.900646,0.389674,0.223361,-2.904609,-0.852621,0.400979,0.102276,0.370450,-0.221508,-0.902053,0.025745,-0.048618,-0.089890,-28.130795,25.415298,-37.828369,,,,,,,
1537388200.910656,0.389148,0.216713,-2.900144,-0.725720,-0.117812,0.093251,0.370526,-0.215020,-0.903591,0.016635,-0.056601,-0.047719,-28.407909,25.759804,-38.051025,,,,,,,
1537388200.920696,0.381672,0.211552,-2.897194,-0.536404,-0.888604,0.065250,0.364169,-0.209977,-0.907353,0.033277,-0.065078,-0.012706,-28.407909,25.759804,-38.051025,,,,,,,
1537388200.930736,0.366463,0.208340,-2.894766,-0.309820,-1.646492,0.045943,0.350567,-0.206836,-0.913412,0.051380,-0.077511,0.017095,-29.552959,26.303413,-38.169739,,,,,,,
1537388200.940777,0.345941,0.207484,-2.894219,-0.020800,-2.139605,0.010948,0.331810,-0.205998,-0.920580,0.061516,-0.085964,0.045717,-29.552959,26.303413,-38.169739,,,,,,,
1537388200.950786,0.323381,0.209226,-2.894474,0.255809,-2.286826,-0.028695,0.310844,-0.207703,-0.927489,0.036721,-0.072357,0.066115,-31.798512,26.405975,-38.463440,,,,,,,
1537388200.960827,0.301851,0.212608,-2.896328,0.403862,-2.122498,-0.079874,0.290595,-0.211010,-0.933290,0.021448,-0.064473,0.051576,-31.798512,26.405975,-38.463440,,,,,,,
1537388200.970867,0.284086,0.216342,-2.897974,0.413719,-1.692305,-0.097567,0.273746,-0.214658,-0.937542,0.004818,-0.062289,0.030163,-33.621052,26.016273,-38.270264,,,,,,,
1537388200.980907,0.272062,0.219646,-2.899543,0.334420,-1.067462,-0.034205,0.262262,-0.217884,-0.940077,-0.011179,-0.031170,0.011916,-33.621052,26.016273,-38.270264,,,,,,,
1537388200.990917,0.266232,0.222022,-2.898899,0.184414,-0.417677,0.114186,0.256640,-0.220203,-0.941088,-0.038287,0.007999,-0.003935,-34.552715,25.583199,-38.369995,,,,,,,
1537388201.000957,0.265981,0.222928,-2.896348,-0.038175,0.177869,0.316918,0.256351,-0.221087,-0.940959,-0.049076,0.046373,-0.020207,-34.552715,25.583199,-38.369995,,,,,,,
1537388201.010998,0.270383,0.221752,-2.890434,-0.324517,0.668678,0.515458,0.260560,-0.219939,-0.940072,-0.041108,0.066924,-0.028907,-34.309063,26.170380,-38.290405,,,,,,,
1537388201.021038,0.278187,0.218106,-2.883161,-0.612312,1.012557,0.594874,0.268107,-0.216381,-0.938775,-0.022990,0.092739,-0.026908,-34.309063,26.170380,-38.290405,,,,,,,
1537388201.031048,0.288175,0.212081,-2.874431,-0.860121,1.214065,0.598115,0.277835,-0.210495,-0.937283,-0.002506,0.107758,-0.007450,-33.528118,26.772491,-38.566162,,,,,,,
1537388201.041088,0.299110,0.204058,-2.865841,-1.047777,1.269132,0.557366,0.288556,-0.202645,-0.935772,0.008105,0.082299,0.013531,-33.528118,26.772491,-38.566162,,,,,,,
1537388201.051128,0.309648,0.195005,-2.856927,-1.112459,1.186502,0.495367,0.298948,-0.193772,-0.934389,0.013705,0.061524,0.023638,-32.809711,27.612503,-39.006714,,,,,,,
1537388201.061138,0.318691,0.186653,-2.849470,-0.968921,0.989791,0.415675,0.307881,-0.185571,-0.933152,0.010631,0.053110,0.033692,-32.809711,27.612503,-39.006714,,,,,,,
1537388201.071178,0.325542,0.181066,-2.843283,-0.600197,0.711110,0.331081,0.314594,-0.180078,-0.931988,0.007748,0.062006,0.040982,-32.255985,28.471527,-39.007812,,,,,,,
,,,,,,,,,,,,,,,,42.293043,-71.262300,58.359710,-1.000000,-1.000000,1537388200.999836,
1537388201.081218,0.329710,0.179802,-2.839926,-0.090652,0.394189,0.251655,0.318549,-0.178834,-0.930884,0.014306,0.073610,0.046545,-32.255985,28.471527,-39.007812,,,,,,,
1537388201.091259,0.331294,0.183315,-2.838488,0.425178,0.108324,0.187100,0.319817,-0.182290,-0.929778,0.013329,0.075250,0.053481,-31.730724,28.374161,-39.309204,,,,,,,
1537388201.101269,0.330791,0.190626,-2.839288,0.797891,-0.122001,0.157910,0.318908,-0.189474,-0.928654,0.010301,0.060003,0.059910,-31.730724,28.374161,-39.309204,,,,,,,
1537388201.111309,0.328270,0.200247,-2.840557,1.004175,-0.337500,0.143819,0.315963,-0.198912,-0.927686,0.006668,0.049787,0.045056,-31.400570,28.037865,-39.689148,,,,,,,
1537388201.121349,0.324319,0.210774,-2.842707,1.071629,-0.459183,0.135039,0.311611,-0.209217,-0.926891,0.008747,0.057728,0.033824,-31.400570,28.037865,-39.689148,,,,,,,
1537388201.131389,0.319978,0.221224,-2.844462,1.044009,-0.480676,0.115742,0.306880,-0.219424,-0.926109,0.014379,0.063006,0.042930,-31.259014,27.076317,-40.124573,,,,,,,
1537388201.141399,0.315863,0.230600,-2.846631,0.918229,-0.453246,0.083979,0.302414,-0.228562,-0.925367,0.025909,0.063462,0.048857,-31.259014,27.076317,-40.124573,,,,,,,
1537388201.151439,0.312001,0.238172,-2.848033,0.725266,-0.416318,0.046480,0.298298,-0.235927,-0.924855,0.049557,0.055248,0.044896,-30.638004,26.717590,-40.622864,,,,,,,
1537388201.161480,0.308627,0.243854,-2.849491,0.537491,-0.357859,0.039918,0.294764,-0.241445,-0.924564,0.074880,0.050832,0.048465,-30.638004,26.717590,-40.622864,,,,,,,
1537388201.171489,0.305186,0.248303,-2.849529,0.414684,-0.370478,0.102381,0.291255,-0.245760,-0.924539,0.080083,0.050234,0.054620,-29.961895,26.522560,-41.064453,,,,,,,
1537388201.181530,0.301047,0.252333,-2.848864,0.352553,-0.398806,0.206906,0.287131,-0.249664,-0.924783,0.064905,0.032547,0.047952,-29.961895,26.522560,-41.064453,,,,,,,
1537388201.191570,0.297021,0.256336,-2.846551,0.322255,-0.338510,0.305902,0.283110,-0.253538,-0.924969,0.072435,0.029233,0.062069,-29.175053,26.333229,-41.693359,,,,,,,
1537388201.201610,0.293506,0.260350,-2.843605,0.294006,-0.255719,0.418716,0.279560,-0.257419,-0.924977,0.085552,0.035785,0.071705,-29.175053,26.333229,-41.693359,,,,,,,
1537388201.211620,0.290337,0.264709,-2.838497,0.294354,-0.177891,0.592617,0.276304,-0.261628,-0.924774,0.080996,0.035875,0.066925,-27.534237,26.676361,-42.834167,,,,,,,
1537388201.221660,0.287340,0.270050,-2.831793,0.341408,-0.103903,0.834110,0.273131,-0.266780,-0.924244,0.055177,0.040202,0.077397,-27.534237,26.676361,-42.834167,,,,,,,
1537388201.231701,0.284271,0.276814,-2.822164,0.418196,-0.045626,1.124986,0.269781,-0.273292,-0.923325,0.034678,0.051658,0.085679,-24.431805,26.770050,-44.053223,,,,,,,
1537388201.241741,0.280833,0.285109,-2.810288,0.498334,-0.013139,1.384988,0.265968,-0.281262,-0.922037,0.032112,0.067501,0.091257,-24.431805,26.770050,-44.053223,,,,,,,
1537388201.251751,0.276633,0.294493,-2.796515,0.552194,-0.043043,1.566012,0.261360,-0.290254,-0.920567,0.033608,0.084596,0.110691,-18.525806,26.288864,-44.945557,,,,,,,
1537388201.261791,0.271668,0.304340,-2.781521,0.556179,-0.042564,1.652601,0.256007,-0.299663,-0.919055,0.035527,0.053875,0.145739,-18.525806,26.288864,-44.945557,,,,,,,
1537388201.271831,0.268032,0.314162,-2.767005,0.604234,0.086127,1.550808,0.251872,-0.309020,-0.917097,0.081761,-0.031953,0.190733,-8.844292,24.685127,-42.404236,,,,,,,
1537388201.281872,0.264750,0.324591,-2.754839,0.727684,0.035940,1.327214,0.248004,-0.318922,-0.914758,0.119413,-0.051089,0.197336,-8.844292,24.685127,-42.404236,,,,,,,
1537388201.291881,0.261179,0.334980,-2.744997,0.762673,-0.059120,1.118297,0.243867,-0.328750,-0.912388,0.065169,-0.072846,0.203373,1.900162,20.525795,-33.766724,,,,,,,
1537388201.301922,0.257472,0.344625,-2.737030,0.725034,-0.114700,0.921668,0.239664,-0.337844,-0.910177,0.005621,-0.096055,0.205221,1.900162,20.525795,-33.766724,,,,,,,
1537388201.311962,0.253869,0.353017,-2.730869,0.640481,-0.163964,0.718355,0.235663,-0.345730,-0.908258,-0.023642,-0.072956,0.233637,10.133312,16.153542,-19.711792,,,,,,,
1537388201.321972,0.249982,0.359980,-2.726167,0.534509,-0.249278,0.565303,0.231530,-0.352255,-0.906813,-0.046441,-0.050607,0.264494,10.133312,16.153542,-19.711792,,,,,,,
1537388201.332012,0.244638,0.365450,-2.722086,0.396544,-0.449543,0.485219,0.226211,-0.357369,-0.906154,-0.077300,-0.048606,0.287685,15.864151,13.045113,-1.067749,,,,,,,
1537388201.342052,0.235888,0.369070,-2.718127,0.218351,-0.837629,0.430251,0.217970,-0.360748,-0.906835,-0.101942,-0.037446,0.281057,15.864151,13.045113,-1.067749,,,,,,,
1537388201.352093,0.222173,0.370933,-2.714175,0.062757,-1.356913,0.394095,0.205364,-0.362485,-0.909082,-0.122829,-0.006168,0.247675,20.088207,11.700203,23.332306,,,,,,,
1537388201.362102,0.204331,0.371713,-2.709901,-0.030459,-1.693257,0.410976,0.189054,-0.363212,-0.912324,-0.195631,0.018394,0.197999,20.088207,11.700203,23.332306,,,,,,,
1537388201.372143,0.182368,0.371874,-2.705170,-0.075492,-2.143733,0.437114,0.168963,-0.363362,-0.916198,-0.347994,0.020405,0.052124,23.668362,11.154297,48.813202,,,,,,,
1537388201.382183,0.154356,0.372291,-2.701425,0.015945,-2.845858,0.298244,0.143212,-0.363751,-0.920421,-0.337395,0.016171,-0.048481,23.668362,11.154297,48.813202,,,,,,,
1537388201.392223,0.119432,0.374094,-2.701008,0.229777,-3.672678,-0.022247,0.110908,-0.365430,-0.924208,-0.209983,0.005154,-0.078279,33.675407,11.089149,62.161896,,,,,,,
1537388201.402233,0.077496,0.377501,-2.703474,0.387736,-4.470124,-0.231999,0.071967,-0.368599,-0.926799,-0.105171,-0.042076,-0.077718,33.675407,11.089149,62.161896,,,,,,,
1537388201.412273,0.030157,0.381659,-2.706833,0.434714,-4.925260,-0.297274,0.027983,-0.372460,-0.927626,-0.112410,-0.106681,-0.117570,52.701675,14.335869,61.474945,,,,,,,
1537388201.422313,-0.018825,0.385548,-2.710146,0.367729,-5.004410,-0.307997,-0.017442,-0.376067,-0.926428,-0.135252,-0.047700,-0.128030,52.701675,14.335869,61.474945,,,,,,,
1537388201.432323,-0.067701,0.388468,-2.713519,0.244126,-5.020679,-0.326750,-0.062609,-0.378771,-0.923370,-0.151426,0.053728,-0.119415,72.778076,18.645226,50.267548,,,,,,,
1537388201.442364,-0.104421,0.384204,-2.716902,-1.093164,-2.513663,-0.208017,-0.096633,-0.374821,-0.922047,-0.179383,0.076024,-0.102581,72.778076,18.645226,50.267548,,,,,,,
1537388201.452404,-0.118066,0.373413,-2.722178,-1.315305,-1.033899,-0.362563,-0.109675,-0.364796,-0.924605,-0.062444,-0.003216,-0.000733,92.472000,19.668442,38.398285,,,,,,,
1537388201.462444,-0.121190,0.357697,-2.727257,-1.739428,-0.360929,-0.208221,-0.113242,-0.350118,-0.929835,0.093024,-0.041987,0.206859,92.472000,19.668442,38.398285,,,,,,,
1537388201.472454,-0.128109,0.338733,-2.728747,-1.949853,-0.752157,0.144925,-0.120499,-0.332292,-0.935447,0.058686,-0.074660,-0.141899,122.749039,15.485184,32.784363,,,,,,,
1537388201.482494,-0.134119,0.318276,-2.729741,-2.037620,-0.662331,0.190064,-0.127001,-0.312930,-0.941247,0.034365,0.067904,-0.121864,122.749039,15.485184,32.784363,,,,,,,
1537388201.492534,-0.141469,0.297898,-2.729439,-1.996486,-0.699819,0.353950,-0.134787,-0.293511,-0.946406,-0.068399,0.069680,-0.066274,171.847397,-4.447540,32.308716,,,,,,,
1537388201.502575,-0.147665,0.277616,-2.726865,-1.955031,-0.498759,0.600253,-0.141495,-0.274063,-0.951246,-0.009200,-0.008270,-0.005221,171.847397,-4.447540,32.308716,,,,,,,
1537388201.512584,-0.152529,0.257087,-2.721476,-1.953215,-0.289988,0.898686,-0.146945,-0.254264,-0.955906,0.013568,-0.061730,0.088673,245.542862,-80.955727,50.546387,,,,,,,
1537388201.522625,-0.154774,0.235682,-2.713332,-1.993286,0.122473,1.162957,-0.149895,-0.233506,-0.960732,0.014855,-0.139724,0.092980,245.542862,-80.955727,50.546387,,,,,,,
1537388201.532665,-0.121200,0.231326,-2.705635,-0.371176,3.174223,0.856864,-0.117683,-0.229269,-0.966223,-0.098855,-0.093867,0.316244,300.371613,-162.375366,55.519775,,,,,,,
1537388201.542705,-0.106325,0.222391,-2.696147,-0.947095,1.301907,1.060086,-0.103512,-0.220562,-0.969865,0.097576,-0.157200,-0.074447,300.371613,-162.375366,55.519775,,,,,,,
1537388201.552715,-0.086149,0.216856,-2.687849,-0.678879,1.850013,0.875484,-0.084027,-0.215160,-0.972957,0.133466,-0.108067,-0.105748,471.833374,-199.927429,32.289490,,,,,,,
1537388201.562755,-0.067585,0.211694,-2.680270,-0.439919,1.969311,0.770455,-0.066026,-0.210116,-0.975444,0.135805,0.002123,-0.112721,471.833374,-199.927429,32.289490,,,,,,,
1537388201.572796,-0.051864,0.207317,-2.672043,-0.367099,1.687966,0.849977,-0.050731,-0.205835,-0.977271,0.079814,0.038248,-0.128808,1001.791138,-295.705017,260.970490,,,,,,,
1537388201.582805,-0.036569,0.204208,-2.662592,-0.234320,1.751778,0.969053,-0.035801,-0.202792,-0.978567,0.057301,0.100970,-0.037775,1001.791138,-295.705017,260.970490,,,,,,,
1537388201.592846,-0.019835,0.202560,-2.651976,-0.102738,1.923278,1.062044,-0.019428,-0.201178,-0.979362,0.069203,0.152670,0.018989,1596.191162,-749.884155,1816.227295,,,,,,,
1537388201.602886,-0.001424,0.201956,-2.640116,-0.042800,2.119501,1.200516,-0.001395,-0.200586,-0.979675,0.074103,0.182245,0.042846,1596.191162,-749.884155,1816.227295,,,,,,,
1537388201.612926,0.018012,0.201251,-2.626133,-0.104538,2.238092,1.423093,0.017648,-0.199895,-0.979658,0.060370,0.165639,0.029631,0.000000,0.000000,0.000000,,,,,,,
1537388201.622936,0.037777,0.200326,-2.610987,-0.136761,2.284206,1.468699,0.037012,-0.198989,-0.979302,0.035406,0.137328,0.003884,0.000000,0.000000,0.000000,,,,,,,
1537388201.632976,0.046643,0.199348,-2.596308,-0.287378,0.794691,1.485594,0.045703,-0.198030,-0.979130,-0.069598,0.123613,-0.325466,0.000000,0.000000,0.000000,,,,,,,
1537388201.643017,0.059380,0.199564,-2.582850,-0.037513,1.535742,1.248826,0.058167,-0.198242,-0.978426,-0.141297,0.032608,-0.101469,0.000000,0.000000,0.000000,,,,,,,
1537388201.653057,0.072520,0.200088,-2.573448,-0.000670,1.429774,0.802696,0.071011,-0.198755,-0.977473,-0.296536,-0.018225,0.337932,0.000000,0.000000,0.000000,,,,,,,
1537388201.663067,0.083149,0.200554,-2.567139,-0.014362,1.138239,0.600719,0.081388,-0.199212,-0.976571,-0.369825,-0.153861,0.048669,0.000000,0.000000,0.000000,,,,,,,
1537388201.673107,0.090187,0.199821,-2.560171,-0.186549,0.711457,0.692359,0.088272,-0.198494,-0.976119,-0.240097,-0.282463,-0.005570,0.000000,0.000000,0.000000,,,,,,,
1537388201.683147,0.091835,0.196494,-2.553546,-0.456947,0.162691,0.562734,0.089941,-0.195232,-0.976624,-0.101446,-0.228764,-0.145400,0.000000,0.000000,0.000000,,,,,,,
1537388201.693157,0.089724,0.190535,-2.549094,-0.683631,-0.204058,0.321463,0.087982,-0.189385,-0.977953,0.021058,-0.095634,-0.160444,0.000000,0.000000,0.000000,,,,,,,
1537388201.703197,0.086003,0.182850,-2.546601,-0.808561,-0.349383,0.132212,0.084466,-0.181833,-0.979695,0.035469,-0.047293,-0.091167,0.000000,0.000000,0.000000,,,,,,,
1537388201.713238,0.082037,0.174491,-2.545505,-0.841160,-0.383183,0.011405,0.080701,-0.173607,-0.981503,0.013629,-0.046165,-0.028751,0.000000,0.000000,0.000000,,,,,,,
1537388201.723278,0.078419,0.166177,-2.545066,-0.820870,-0.333197,-0.028231,0.077259,-0.165413,-0.983193,-0.011677,-0.025749,-0.004767,0.000000,0.000000,0.000000,,,,,,,
1537388201.733288,0.076302,0.158516,-2.544408,-0.744651,-0.143820,0.026991,0.075272,-0.157853,-0.984590,-0.033982,-0.007949,0.009629,0.000000,0.000000,0.000000,,,,,,,
1537388201.743328,0.076553,0.152294,-2.542644,-0.587803,0.122967,0.162486,0.075593,-0.151706,-0.985531,-0.069108,-0.007428,0.029949,0.000000,0.000000,0.000000,,,,,,,
1537388201.753368,0.079881,0.148154,-2.539279,-0.383271,0.461613,0.346040,0.078922,-0.147613,-0.985891,-0.100665,-0.010072,0.059134,0.000000,0.000000,0.000000,,,,,,,
1537388201.763408,0.085984,0.146457,-2.534253,-0.150893,0.749014,0.523530,0.084958,-0.145934,-0.985640,-0.119443,-0.016099,0.079664,0.000000,0.000000,0.000000,,,,,,,
1537388201.773418,0.093819,0.147222,-2.527971,0.077630,0.911220,0.652337,0.092668,-0.146691,-0.984832,-0.108842,-0.012626,0.071945,0.000000,0.000000,0.000000,,,,,,,
1537388201.783474,0.103249,0.150188,-2.521187,0.269062,1.086825,0.701806,0.101905,-0.149624,-0.983477,-0.075050,0.015728,0.060305,0.000000,0.000000,0.000000,,,,,,,
1537388201.793515,0.113846,0.154512,-2.514611,0.387404,1.133826,0.679796,0.112247,-0.153898,-0.981690,-0.041141,0.043348,0.060685,0.000000,0.000000,0.000000,,,,,,,
1537388201.803555,0.122277,0.160157,-2.508825,0.517168,0.874171,0.613110,0.120412,-0.159474,-0.979831,-0.014607,0.068562,-0.000866,0.000000,0.000000,0.000000,,,,,,,
1537388201.813565,0.128739,0.166382,-2.503972,0.569061,0.653840,0.530895,0.126611,-0.165616,-0.978029,0.009681,0.061108,-0.012419,0.000000,0.000000,0.000000,,,,,,,
1537388201.823605,0.133282,0.172682,-2.499914,0.562146,0.496488,0.459879,0.130911,-0.171825,-0.976390,0.012826,0.054348,-0.024952,0.000000,0.000000,0.000000,,,,,,,
1537388201.833645,0.137308,0.178397,-2.496479,0.501650,0.460817,0.393440,0.134704,-0.177452,-0.974867,-0.009399,0.037056,-0.011446,0.000000,0.000000,0.000000,,,,,,,
1537388201.843655,0.141950,0.183271,-2.493461,0.420559,0.549115,0.353118,0.139105,-0.182247,-0.973363,-0.053106,0.023586,0.025441,0.000000,0.000000,0.000000,,,,,,,
1537388201.853695,0.147999,0.187318,-2.490403,0.334914,0.707063,0.359521,0.144880,-0.186224,-0.971767,-0.098600,0.015692,0.063045,0.000000,0.000000,0.000000,,,,,,,
1537388201.863736,0.155569,0.190728,-2.486953,0.271585,0.853461,0.396012,0.152133,-0.189574,-0.970009,-0.112247,0.023665,0.083336,0.000000,0.000000,0.000000,,,,,,,
1537388201.873776,0.163771,0.193719,-2.482813,0.221132,0.909298,0.464995,0.159990,-0.192510,-0.968165,-0.113420,0.034322,0.075190,0.000000,0.000000,0.000000,,,,,,,
1537388201.883786,0.172142,0.196606,-2.477925,0.206968,0.938517,0.538548,0.167994,-0.195342,-0.966240,-0.110437,0.042357,0.052208,0.000000,0.000000,0.000000,,,,,,,
1537388201.893826,0.180956,0.199929,-2.472667,0.253661,1.002799,0.568463,0.176385,-0.198600,-0.964078,-0.104272,0.048179,0.044110,0.000000,0.000000,0.000000,,,,,,,
1537388201.903866,0.190916,0.204148,-2.467498,0.348292,1.130006,0.575936,0.185818,-0.202733,-0.961442,-0.098202,0.055653,0.052720,0.000000,0.000000,0.000000,,,,,,,
1537388201.913907,0.202123,0.209568,-2.462453,0.466366,1.248752,0.592114,0.196358,-0.208037,-0.958209,-0.102882,0.062652,0.051974,0.000000,0.000000,0.000000,,,,,,,
1537388201.923916,0.214147,0.216222,-2.457463,0.574890,1.316329,0.624477,0.207566,-0.214541,-0.954405,-0.105179,0.069079,0.039854,0.000000,0.000000,0.000000,,,,,,,
1537388201.933957,0.224324,0.224232,-2.452093,0.697827,1.023345,0.711790,0.216878,-0.222357,-0.950537,-0.078481,0.071158,-0.002039,0.000000,0.000000,0.000000,,,,,,,
1537388201.943997,0.228556,0.234046,-2.445350,0.842359,0.426679,0.906235,0.220395,-0.231915,-0.947439,-0.019467,0.059842,-0.115549,0.000000,0.000000,0.000000,,,,,,,
1537388201.954007,0.231151,0.244421,-2.437034,0.806458,0.542757,1.054143,0.222289,-0.241995,-0.944471,0.025102,0.024664,-0.144716,0.000000,0.000000,0.000000,,,,,,,
1537388201.964047,0.234583,0.254460,-2.427618,0.738794,0.624362,1.152858,0.224953,-0.251723,-0.941293,0.077171,0.051634,-0.092139,0.000000,0.000000,0.000000,,,,,,,
1537388201.974087,0.239356,0.264358,-2.416336,0.695147,0.819648,1.338886,0.228841,-0.261290,-0.937742,0.005290,0.021696,-0.105181,0.000000,0.000000,0.000000,,,,,,,
1537388201.984128,0.245735,0.274984,-2.402719,0.723709,1.059163,1.591380,0.234129,-0.271532,-0.933517,-0.014540,-0.053374,-0.048966,0.000000,0.000000,0.000000,,,,,,,
1537388201.994137,0.253707,0.287026,-2.386535,0.805563,1.265798,1.872073,0.240726,-0.283101,-0.928388,0.010357,-0.079128,-0.003832,0.000000,0.000000,0.000000,,,,,,,
1537388202.004178,0.261553,0.300233,-2.367806,0.834479,1.336592,2.119898,0.247014,-0.295743,-0.922778,0.027309,-0.062075,-0.031064,0.000000,0.000000,0.000000,,,,,,,
1537388202.014218,0.264608,0.313869,-2.347484,0.802127,0.802268,2.234076,0.248755,-0.308741,-0.918041,0.031031,-0.039297,-0.068409,0.000000,0.000000,0.000000,,,,,,,
1537388202.024258,0.264376,0.326902,-2.327462,0.732525,0.576352,2.134145,0.247468,-0.321111,-0.914137,0.038024,-0.033839,-0.010316,0.000000,0.000000,0.000000,,,,,,,
1537388202.034268,0.263184,0.338176,-2.308585,0.581852,0.470624,1.968116,0.245421,-0.331767,-0.910878,0.057862,-0.065908,0.063817,0.000000,0.000000,0.000000,,,,,,,
1537388202.044308,0.261755,0.347074,-2.290702,0.358397,0.470604,1.819453,0.243346,-0.340148,-0.908340,0.068834,-0.040574,0.033584,0.000000,0.000000,0.000000,,,,,,,
1537388202.054349,0.258439,0.354046,-2.273925,0.234843,0.163022,1.636201,0.239721,-0.346696,-0.906827,0.131922,-0.058944,0.023374,0.000000,0.000000,0.000000,,,,,,,
1537388202.064389,0.251998,0.359154,-2.259799,0.137530,-0.254161,1.319926,0.233430,-0.351482,-0.906626,0.106612,-0.071369,-0.008459,0.000000,0.000000,0.000000,,,,,,,
1537388202.074399,0.243411,0.362167,-2.248506,-0.010311,-0.516421,1.034833,0.225380,-0.354302,-0.907565,0.046745,-0.064445,-0.033841,0.000000,0.000000,0.000000,,,,,,,
1537388202.084439,0.233829,0.362499,-2.238551,-0.248450,-0.615830,0.872594,0.216647,-0.354612,-0.909568,0.048490,-0.099016,-0.094964,0.000000,0.000000,0.000000,,,,,,,
1537388202.094479,0.225296,0.360328,-2.229200,-0.458504,-0.470338,0.776861,0.209048,-0.352582,-0.912132,0.052640,-0.109744,-0.128868,0.000000,0.000000,0.000000,,,,,,,
1537388202.104489,0.220789,0.356757,-2.220739,-0.533695,-0.014088,0.662430,0.205210,-0.349237,-0.914288,0.024145,-0.079672,-0.098865,0.000000,0.000000,0.000000,,,,,,,
,,,,,,,,,,,,,,,,42.293046,-71.262319,58.979973,-1.000000,-1.000000,1537388201.999877,
1537388202.114529,0.222945,0.353002,-2.213377,-0.499475,0.613260,0.572473,0.207469,-0.345716,-0.915116,-0.041606,-0.050555,-0.072082,0.000000,0.000000,0.000000,,,,,,,
1537388202.124569,0.224700,0.349763,-2.207178,-0.431276,0.275379,0.468369,0.209324,-0.342675,-0.915837,-0.137012,-0.013496,-0.067851,0.000000,0.000000,0.000000,,,,,,,
1537388202.134610,0.223409,0.346394,-2.201350,-0.452115,0.027667,0.471383,0.208396,-0.339508,-0.917227,-0.052649,-0.007004,-0.011667,0.000000,0.000000,0.000000,,,,,,,
1537388202.144620,0.221361,0.343151,-2.195978,-0.418656,-0.031498,0.383086,0.206757,-0.336456,-0.918721,0.029709,0.054031,0.006459,0.000000,0.000000,0.000000,,,,,,,
1537388202.154660,0.219235,0.339676,-2.191766,-0.433194,-0.090701,0.298813,0.205057,-0.333182,-0.920294,0.184210,0.126181,-0.032465,0.000000,0.000000,0.000000,,,,,,,
1537388202.164700,0.216317,0.335970,-2.187533,-0.444821,-0.164308,0.312939,0.202634,-0.329685,-0.922089,0.160770,0.083225,-0.087280,0.000000,0.000000,0.000000,,,,,,,
1537388202.174740,0.212944,0.332834,-2.183273,-0.364804,-0.213227,0.330654,0.199740,-0.326723,-0.923773,0.138486,0.041109,-0.092631,0.000000,0.000000,0.000000,,,,,,,
1537388202.184750,0.208482,0.331038,-2.179085,-0.218531,-0.346364,0.357603,0.195738,-0.325024,-0.925227,0.159563,0.046872,-0.083577,0.000000,0.000000,0.000000,,,,,,,
1537388202.194790,0.202895,0.330703,-2.174984,-0.077623,-0.445404,0.372631,0.190587,-0.324708,-0.926413,0.170955,0.063096,-0.081659,0.000000,0.000000,0.000000,,,,,,,
1537388202.204831,0.196853,0.331532,-2.171326,0.040914,-0.490246,0.345642,0.184933,-0.325492,-0.927283,0.164767,0.057014,-0.091439,0.000000,0.000000,0.000000,,,,,,,
1537388202.214840,0.191274,0.333089,-2.168206,0.107032,-0.439097,0.312654,0.179661,-0.326963,-0.927802,0.131252,0.013029,-0.093057,0.000000,0.000000,0.000000,,,,,,,
1537388202.224881,0.186319,0.334926,-2.165351,0.133646,-0.387913,0.295491,0.174949,-0.328700,-0.928089,0.091820,-0.027349,-0.072781,0.000000,0.000000,0.000000,,,,,,,
1537388202.234921,0.181113,0.336875,-2.162461,0.143332,-0.446575,0.304325,0.170001,-0.330539,-0.928355,0.066923,-0.047238,-0.050298,0.000000,0.000000,0.000000,,,,,,,
1537388202.244961,0.174708,0.338903,-2.159587,0.155346,-0.578987,0.297433,0.163934,-0.332453,-0.928763,0.074347,-0.047079,-0.042276,0.000000,0.000000,0.000000,,,,,,,
1537388202.254971,0.167398,0.341012,-2.157310,0.174966,-0.662680,0.217711,0.157023,-0.334441,-0.929243,0.078985,-0.038636,-0.027620,0.000000,0.000000,0.000000,,,,,,,
1537388202.265011,0.159809,0.342960,-2.156591,0.182112,-0.774600,0.055741,0.149863,-0.336276,-0.929763,0.055703,-0.042875,-0.016465,0.000000,0.000000,0.000000,,,,,,,
1537388202.275052,0.150732,0.344542,-2.157664,0.166055,-0.997644,-0.116595,0.141337,-0.337765,-0.930558,0.053533,-0.026050,-0.023955,0.000000,0.000000,0.000000,,,,,,,
1537388202.285092,0.139284,0.345683,-2.160063,0.136119,-1.303671,-0.230960,0.130621,-0.338840,-0.931733,0.073068,-0.009625,-0.020385,0.000000,0.000000,0.000000,,,,,,,
1537388202.295102,0.124971,0.346369,-2.163221,0.094300,-1.604135,-0.302660,0.117243,-0.339485,-0.933276,0.100866,-0.028267,-0.024793,0.000000,0.000000,0.000000,,,,,,,
1537388202.305142,0.109408,0.346422,-2.166563,0.019768,-1.651238,-0.309277,0.102704,-0.339535,-0.934970,0.120502,-0.028690,-0.005246,0.000000,0.000000,0.000000,,,,,,,
1537388202.315182,0.095258,0.345457,-2.169685,-0.096900,-1.452727,-0.297855,0.089495,-0.338627,-0.936655,0.099897,-0.024853,0.028681,0.000000,0.000000,0.000000,,,,,,,
1537388202.325192,0.083066,0.343383,-2.172628,-0.207056,-1.299092,-0.293701,0.078127,-0.336674,-0.938374,0.040510,-0.031566,0.015645,0.000000,0.000000,0.000000,,,,,,,
1537388202.335232,0.069999,0.340691,-2.176034,-0.244854,-1.476770,-0.365868,0.065922,-0.334139,-0.940216,0.011821,-0.040373,-0.014557,0.000000,0.000000,0.000000,,,,,,,
1537388202.345273,0.054594,0.338111,-2.181110,-0.220234,-1.775576,-0.538758,0.051478,-0.331705,-0.941978,0.037695,-0.044653,-0.004266,0.000000,0.000000,0.000000,,,,,,,
1537388202.355313,0.037446,0.335531,-2.188296,-0.235163,-1.984891,-0.738931,0.035350,-0.329270,-0.943574,0.052373,-0.018538,0.028947,0.000000,0.000000,0.000000,,,,,,,
1537388202.365323,0.020060,0.332107,-2.197796,-0.346294,-2.043904,-0.962654,0.018963,-0.326035,-0.945167,0.056049,-0.002822,0.024849,0.000000,0.000000,0.000000,,,,,,,
1537388202.375363,0.003296,0.327386,-2.209675,-0.493792,-2.058079,-1.178194,0.003121,-0.321569,-0.946881,0.059211,-0.023844,-0.018985,0.000000,0.000000,0.000000,,,,,,,
1537388202.385403,-0.012946,0.321649,-2.223757,-0.601919,-2.063552,-1.373256,-0.012281,-0.316132,-0.948636,0.056929,-0.050323,-0.030994,0.000000,0.000000,0.000000,,,,,,,
1537388202.395443,-0.028317,0.315549,-2.239724,-0.644154,-2.010045,-1.536143,-0.026915,-0.310339,-0.950245,0.069167,-0.051814,-0.002071,0.000000,0.000000,0.000000,,,,,,,
1537388202.405453,-0.042093,0.309822,-2.256986,-0.619575,-1.866456,-1.641324,-0.040077,-0.304890,-0.951544,0.080773,-0.021008,0.045950,0.000000,0.000000,0.000000,,,,,,,
1537388202.415494,-0.054065,0.304952,-2.274827,-0.544143,-1.680747,-1.670524,-0.051546,-0.300247,-0.952468,0.070207,-0.004669,0.085982,0.000000,0.000000,0.000000,,,,,,,
1537388202.425534,-0.063917,0.301143,-2.292326,-0.453098,-1.433723,-1.620799,-0.060999,-0.296612,-0.953048,0.047159,-0.005924,0.114104,0.000000,0.000000,0.000000,,,,,,,
1537388202.435574,-0.070858,0.298342,-2.308630,-0.359324,-1.078426,-1.491331,-0.067671,-0.293936,-0.953427,0.013365,-0.019525,0.129956,0.000000,0.000000,0.000000,,,,,,,
1537388202.445584,-0.075251,0.296531,-2.322889,-0.252815,-0.801746,-1.292012,-0.071899,-0.292205,-0.953649,-0.018982,-0.037538,0.121847,0.000000,0.000000,0.000000,,,,,,,
1537388202.455624,-0.079391,0.295804,-2.334934,-0.127709,-0.767384,-1.089495,-0.075863,-0.291509,-0.953555,-0.028141,-0.044840,0.096255,0.000000,0.000000,0.000000,,,,,,,
1537388202.465664,-0.084661,0.296277,-2.345145,-0.001149,-0.840081,-0.939982,-0.080876,-0.291962,-0.953004,-0.005855,-0.029083,0.083269,0.000000,0.000000,0.000000,,,,,,,
1537388202.475674,-0.090618,0.297830,-2.354112,0.103080,-0.854388,-0.846395,-0.086510,-0.293446,-0.952053,0.011528,-0.009410,0.086132,0.000000,0.000000,0.000000,,,,,,,
1537388202.485714,-0.096097,0.300010,-2.362340,0.153858,-0.754682,-0.783469,-0.091664,-0.295530,-0.950926,0.008351,-0.007403,0.090879,0.000000,0.000000,0.000000,,,,,,,
1537388202.495755,-0.100222,0.302384,-2.369802,0.167144,-0.588762,-0.708177,-0.095514,-0.297797,-0.949839,-0.006094,-0.025491,0.090769,0.000000,0.000000,0.000000,,,,,,,
1537388202.505795,-0.103147,0.304746,-2.376231,0.171857,-0.452574,-0.601818,-0.098220,-0.300051,-0.948853,-0.024675,-0.047987,0.082917,0.000000,0.000000,0.000000,,,,,,,
1537388202.515805,-0.105476,0.306982,-2.381343,0.171282,-0.368605,-0.476041,-0.100359,-0.302183,-0.947952,-0.037535,-0.057024,0.076935,0.000000,0.000000,0.000000,,,,,,,
1537388202.525845,-0.107646,0.308997,-2.385232,0.154818,-0.321009,-0.358751,-0.102350,-0.304103,-0.947125,-0.039877,-0.053883,0.072201,0.000000,0.000000,0.000000,,,,,,,
1537388202.535885,-0.109577,0.310619,-2.387857,0.125490,-0.254164,-0.234125,-0.104124,-0.305648,-0.946434,-0.048891,-0.051117,0.071968,0.000000,0.000000,0.000000,,,,,,,
1537388202.545926,-0.111060,0.311749,-2.389342,0.086590,-0.173543,-0.126705,-0.105489,-0.306724,-0.945935,-0.066416,-0.060433,0.073346,0.000000,0.000000,0.000000,,,,,,,
1537388202.555935,-0.112248,0.312375,-2.390025,0.044694,-0.132637,-0.056549,-0.106592,-0.307320,-0.945618,-0.062903,-0.063453,0.070007,0.000000,0.000000,0.000000,,,,,,,
1537388202.565976,-0.113254,0.312419,-2.390245,-0.013101,-0.097230,-0.011035,-0.107542,-0.307362,-0.945496,-0.044512,-0.052303,0.068162,0.000000,0.000000,0.000000,,,,,,,
1537388202.576016,-0.114323,0.311733,-2.390203,-0.084606,-0.112114,0.016437,-0.108576,-0.306708,-0.945590,-0.034933,-0.036645,0.071704,0.000000,0.000000,0.000000,,,,,,,
1537388202.586026,-0.116991,0.309674,-2.390370,-0.248356,-0.322730,0.000382,-0.111172,-0.304748,-0.945922,-0.019077,-0.022095,0.026367,0.000000,0.000000,0.000000,,,,,,,
1537388202.596066,-0.121283,0.305978,-2.391256,-0.414204,-0.481262,-0.056502,-0.115366,-0.301226,-0.946548,-0.011572,0.012346,-0.028916,0.000000,0.000000,0.000000,,,,,,,
1537388202.606106,-0.125570,0.301181,-2.393038,-0.516363,-0.468970,-0.127624,-0.119603,-0.296648,-0.947468,-0.027004,0.018099,0.001087,0.000000,0.000000,0.000000,,,,,,,
1537388202.616147,-0.129223,0.295915,-2.395489,-0.553617,-0.426568,-0.175015,-0.123263,-0.291615,-0.948560,-0.033552,0.006687,0.026151,0.000000,0.000000,0.000000,,,,,,,
1537388202.626156,-0.132431,0.290759,-2.398168,-0.536597,-0.384986,-0.191125,-0.126502,-0.286680,-0.949638,-0.042810,0.013990,0.036781,0.000000,0.000000,0.000000,,,,,,,
1537388202.636197,-0.135150,0.286010,-2.400748,-0.488779,-0.332505,-0.171845,-0.129266,-0.282126,-0.950629,-0.036948,0.015113,0.043997,0.000000,0.000000,0.000000,,,,,,,
1537388202.646237,-0.137739,0.281931,-2.402672,-0.412255,-0.301123,-0.111716,-0.131883,-0.278211,-0.951423,-0.045241,0.015332,0.046180,0.000000,0.000000,0.000000,,,,,,,
1537388202.656277,-0.139947,0.278790,-2.403970,-0.301640,-0.224958,-0.070825,-0.134104,-0.275193,-0.951990,-0.045018,0.021027,0.054560,0.000000,0.000000,0.000000,,,,,,,
1537388202.666287,-0.141096,0.276755,-2.404849,-0.184655,-0.101921,-0.051464,-0.135277,-0.273235,-0.952388,-0.035881,0.035610,0.070277,0.000000,0.000000,0.000000,,,,,,,
1537388202.676327,-0.140605,0.276113,-2.405521,-0.032511,0.077608,-0.056724,-0.134834,-0.272618,-0.952628,-0.035729,0.049565,0.084021,0.000000,0.000000,0.000000,,,,,,,
1537388202.686368,-0.138106,0.277136,-2.406013,0.136628,0.290258,-0.060957,-0.132414,-0.273602,-0.952685,-0.040727,0.055676,0.100283,0.000000,0.000000,0.000000,,,,,,,
1537388202.696408,-0.133803,0.279757,-2.406195,0.293001,0.462406,-0.050134,-0.128218,-0.276122,-0.952532,-0.053820,0.052718,0.099077,0.000000,0.000000,0.000000,,,,,,,
1537388202.706418,-0.128569,0.283696,-2.406056,0.419692,0.543775,-0.036967,-0.123090,-0.279906,-0.952104,-0.058200,0.047591,0.078965,0.000000,0.000000,0.000000,,,,,,,
1537388202.716458,-0.122998,0.288606,-2.405852,0.506051,0.566251,-0.046222,-0.117614,-0.284616,-0.951399,-0.047898,0.046747,0.059493,0.000000,0.000000,0.000000,,,,,,,
1537388202.726498,-0.117167,0.294092,-2.405871,0.553025,0.587498,-0.075985,-0.111880,-0.289871,-0.950504,-0.029157,0.046981,0.048572,0.000000,0.000000,0.000000,,,,,,,
1537388202.736508,-0.111302,0.299810,-2.406262,0.564906,0.570231,-0.112192,-0.106118,-0.295338,-0.949481,-0.012352,0.039632,0.045825,0.000000,0.000000,0.000000,,,,,,,
1537388202.746548,-0.105702,0.305422,-2.407029,0.539492,0.525207,-0.139935,-0.100622,-0.300696,-0.948397,-0.011286,0.033178,0.034564,0.000000,0.000000,0.000000,,,,,,,
1537388202.756588,-0.100572,0.310499,-2.408062,0.478872,0.467401,-0.153917,-0.095601,-0.305534,-0.947370,-0.014552,0.027214,0.019727,0.000000,0.000000,0.000000,,,,,,,
1537388202.766629,-0.096154,0.314839,-2.409215,0.399049,0.387242,-0.150810,-0.091287,-0.309664,-0.946454,-0.017996,0.018984,0.009274,0.000000,0.000000,0.000000,,,,,,,
1537388202.776639,-0.092534,0.318241,-2.410375,0.305325,0.311385,-0.139244,-0.087762,-0.312896,-0.945724,-0.020056,0.011627,0.006072,0.000000,0.000000,0.000000,,,,,,,
1537388202.786671,-0.089597,0.320635,-2.411486,0.204092,0.247297,-0.122421,-0.084917,-0.315169,-0.945229,-0.018431,0.007720,0.005211,0.000000,0.000000,0.000000,,,,,,,
1537388202.796711,-0.087195,0.322005,-2.412461,0.107071,0.201395,-0.099234,-0.082609,-0.316469,-0.944999,-0.018603,0.002153,0.008079,0.000000,0.000000,0.000000,,,,,,,
1537388202.806751,-0.085236,0.322542,-2.413294,0.032440,0.162976,-0.079166,-0.080743,-0.316979,-0.944989,-0.020239,-0.004142,0.012326,0.000000,0.000000,0.000000,,,,,,,
1537388202.816761,-0.083608,0.322583,-2.414004,-0.007007,0.135250,-0.064300,-0.079203,-0.317018,-0.945107,-0.022115,-0.006774,0.017510,0.000000,0.000000,0.000000,,,,,,,
1537388202.826801,-0.082155,0.322488,-2.414666,-0.011253,0.123509,-0.062138,-0.077832,-0.316927,-0.945251,-0.027682,-0.007139,0.021957,0.000000,0.000000,0.000000,,,,,,,
1537388202.836842,-0.080565,0.322558,-2.415376,0.010059,0.144842,-0.070661,-0.076327,-0.316994,-0.945351,-0.031201,-0.004982,0.032189,0.000000,0.000000,0.000000,,,,,,,
