timestamp(unix),attitude_roll(radians),attitude_pitch(radians),attitude_yaw(radians),rotation_rate_x(radians/s),rotation_rate_y(radians/s),rotation_rate_z(radians/s),gravity_x(G),gravity_y(G),gravity_z(G),user_acc_x(G),user_acc_y(G),user_acc_z(G),magnetic_field_x(microteslas),magnetic_field_y(microteslas),magnetic_field_z(microteslas),latitude(degree),longitude(degree),altitude(meter),speed(m/s),course(degree),timestamp(unix),User Mark
1537206808.996341,-1.184776,0.117068,-2.433970,-0.121422,0.230292,-0.017786,-0.920069,-0.116800,-0.373925,0.010477,0.015574,0.022622,-53.281925,17.589600,2.301086,,,,,,,
1537206809.006321,-1.182399,0.116731,-2.435235,-0.129974,0.220725,-0.018890,-0.919214,-0.116466,-0.376126,0.008889,0.012066,0.017575,-53.292557,17.576225,2.875977,,,,,,,
1537206809.016269,-1.180264,0.116357,-2.436493,-0.133278,0.204742,-0.012487,-0.918449,-0.116094,-0.378105,0.000526,0.012792,0.014183,-53.292557,17.576225,2.875977,,,,,,,
1537206809.026249,-1.178314,0.115881,-2.437804,-0.141908,0.191990,-0.006117,-0.917761,-0.115622,-0.379916,-0.006449,0.014914,0.018374,-53.292557,17.576225,2.875977,,,,,,,
,,,,,,,,,,,,,,,,42.293471,-71.264343,65.302170,-1.000000,-1.000000,1537206804.624177,
1537206809.036228,-1.176444,0.115321,-2.439091,-0.139852,0.188792,0.001370,-0.917108,-0.115066,-0.381656,-0.008429,0.016296,0.024967,-53.378036,17.819916,3.139435,,,,,,,
1537206809.046207,-1.174443,0.114729,-2.440311,-0.133442,0.205850,0.005657,-0.916406,-0.114477,-0.383517,-0.010795,0.019018,0.033572,-53.378036,17.819916,3.139435,,,,,,,
1537206809.056186,-1.172388,0.114154,-2.441433,-0.122780,0.206864,0.006782,-0.915676,-0.113906,-0.385424,-0.012379,0.022277,0.038119,-52.634274,17.810648,2.203003,,,,,,,
1537206809.066166,-1.170137,0.113603,-2.442532,-0.120556,0.231403,0.004634,-0.914864,-0.113358,-0.387510,-0.013863,0.024247,0.039777,-52.634274,17.810648,2.203003,,,,,,,
1537206809.076145,-1.167727,0.113071,-2.443568,-0.114152,0.239915,0.006795,-0.913982,-0.112830,-0.389737,-0.016666,0.023871,0.042325,-52.971954,17.944637,3.783600,,,,,,,
1537206809.086124,-1.165360,0.112561,-2.444501,-0.104593,0.234536,0.008990,-0.913110,-0.112323,-0.391922,-0.020468,0.020267,0.043259,-52.971954,17.944637,3.783600,,,,,,,
1537206809.096103,-1.163002,0.112086,-2.445305,-0.089665,0.238733,0.011203,-0.912233,-0.111852,-0.394094,-0.026076,0.021260,0.040747,-54.041454,17.545013,2.636871,,,,,,,
1537206809.106083,-1.160634,0.111607,-2.446015,-0.082199,0.238692,0.012309,-0.911346,-0.111375,-0.396275,-0.029664,0.022722,0.040165,-54.041454,17.545013,2.636871,,,,,,,
1537206809.116062,-1.158372,0.111159,-2.446742,-0.086456,0.228028,0.008027,-0.910493,-0.110930,-0.398356,-0.022628,0.024093,0.039240,-52.994129,17.727093,2.345551,,,,,,,
1537206809.126041,-1.156221,0.110721,-2.447573,-0.094941,0.217377,-0.000549,-0.909678,-0.110494,-0.400333,-0.012685,0.024465,0.034458,-52.994129,17.727093,2.345551,,,,,,,
1537206809.136020,-1.154282,0.110388,-2.448453,-0.092748,0.195984,-0.013324,-0.908934,-0.110164,-0.402111,-0.004152,0.028834,0.029155,-53.361496,17.941671,1.986389,,,,,,,
1537206809.146000,-1.152593,0.110153,-2.449285,-0.082099,0.172430,-0.018578,-0.908277,-0.109931,-0.403656,-0.001574,0.028174,0.032425,-53.361496,17.941671,1.986389,,,,,,,
1537206809.155948,-1.151030,0.109965,-2.450018,-0.071455,0.167038,-0.017447,-0.907664,-0.109744,-0.405084,-0.002630,0.022021,0.032495,-53.062733,17.784719,0.921661,,,,,,,
1537206809.165928,-1.149642,0.109809,-2.450646,-0.062990,0.146710,-0.015246,-0.907117,-0.109588,-0.406350,-0.003574,0.016433,0.025567,-53.062733,17.784719,0.921661,,,,,,,
1537206809.175907,-1.148155,0.109622,-2.451130,-0.048097,0.166941,-0.004511,-0.906530,-0.109402,-0.407707,-0.005046,0.009518,0.020729,-53.574707,18.044699,2.680145,,,,,,,
1537206809.185879,-1.146661,0.109326,-2.451422,-0.036533,0.166922,0.013701,-0.905949,-0.109108,-0.409074,-0.008236,0.002449,0.020616,-53.574707,18.044699,2.680145,,,,,,,
1537206809.195858,-1.145209,0.108933,-2.451558,-0.028127,0.159430,0.025496,-0.905393,-0.108718,-0.410407,-0.006442,-0.002137,0.023795,-52.513351,18.060551,1.232574,,,,,,,
1537206809.205838,-1.143855,0.108563,-2.451683,-0.025981,0.148732,0.021249,-0.904873,-0.108350,-0.411649,0.002468,-0.005343,0.021238,-52.513351,18.060551,1.232574,,,,,,,
1537206809.215817,-1.141754,0.108397,-2.452386,-0.094534,0.240783,-0.037930,-0.904023,-0.108184,-0.413556,0.012314,-0.001664,0.025998,-53.499851,17.610548,1.058136,,,,,,,
1537206809.225796,-1.139437,0.108004,-2.453425,-0.109893,0.213187,-0.000625,-0.903101,-0.107794,-0.415667,0.017984,0.004736,0.032580,-53.499851,17.610548,1.058136,,,,,,,
1537206809.235775,-1.138027,0.107519,-2.454304,-0.090951,0.110586,-0.002552,-0.902561,-0.107312,-0.416963,0.018101,-0.019947,0.018006,-53.393730,18.040752,1.270599,,,,,,,
1537206809.245755,-1.137444,0.107241,-2.455016,-0.072955,0.041078,-0.006656,-0.902345,-0.107036,-0.417501,0.016145,-0.010075,0.014623,-53.393730,18.040752,1.270599,,,,,,,
1537206809.255734,-1.137217,0.106907,-2.455560,-0.061413,0.020765,0.008372,-0.902283,-0.106704,-0.417721,0.005356,-0.007447,0.011349,-53.249527,17.892906,0.772247,,,,,,,
1537206809.265713,-1.136959,0.106501,-2.456075,-0.065741,0.033624,0.017945,-0.902214,-0.106300,-0.417972,0.000450,-0.001152,0.013355,-53.249527,17.892906,0.772247,,,,,,,
1537206809.275692,-1.136430,0.106090,-2.456633,-0.072013,0.069951,0.014671,-0.902032,-0.105891,-0.418468,0.001077,0.002635,0.016795,-53.604065,17.954578,2.173553,,,,,,,
1537206809.285641,-1.135647,0.105743,-2.457267,-0.075085,0.085963,0.005032,-0.901738,-0.105546,-0.419189,0.002110,0.005693,0.023437,-53.604065,17.954578,2.173553,,,,,,,
1537206809.295620,-1.134908,0.105474,-2.457960,-0.076112,0.064591,-0.005627,-0.901453,-0.105278,-0.419867,-0.000540,0.009728,0.026175,-53.097618,17.818172,0.218201,,,,,,,
1537206809.305600,-1.134501,0.105331,-2.458748,-0.078172,0.029330,-0.024814,-0.901296,-0.105136,-0.420241,-0.001735,0.013279,0.027648,-53.097618,17.818172,0.218201,,,,,,,
1537206809.315579,-1.134387,0.105433,-2.459623,-0.079113,0.006869,-0.045078,-0.901238,-0.105238,-0.420339,-0.000175,0.015363,0.029027,-53.539188,17.727900,1.406464,,,,,,,
1537206809.325558,-1.134378,0.105652,-2.460585,-0.079019,-0.011317,-0.060005,-0.901214,-0.105456,-0.420337,-0.006028,0.014895,0.035953,-53.539188,17.727900,1.406464,,,,,,,
1537206809.335537,-1.134509,0.105902,-2.461567,-0.081191,-0.025186,-0.060003,-0.901245,-0.105704,-0.420208,-0.018402,0.012702,0.038128,-52.984829,17.584656,0.398804,,,,,,,
1537206809.345517,-1.134854,0.106083,-2.462526,-0.080229,-0.046534,-0.054640,-0.901372,-0.105884,-0.419889,-0.024668,0.009510,0.032743,-52.984829,17.584656,0.398804,,,,,,,
1537206809.355496,-1.135393,0.106137,-2.463455,-0.083589,-0.061436,-0.041834,-0.901593,-0.105938,-0.419400,-0.020877,0.005383,0.028516,-53.629265,17.731125,1.936432,,,,,,,
1537206809.365475,-1.136051,0.106084,-2.464485,-0.099646,-0.074159,-0.039774,-0.901874,-0.105885,-0.418810,-0.014477,0.002232,0.026033,-53.629265,17.731125,1.936432,,,,,,,
1537206809.375454,-1.137048,0.105968,-2.465780,-0.130619,-0.122066,-0.050570,-0.902303,-0.105769,-0.417915,-0.008220,0.000011,0.020302,-52.946915,17.356234,-0.172821,,,,,,,
1537206809.385434,-1.138423,0.105810,-2.467379,-0.156246,-0.160389,-0.059213,-0.902891,-0.105613,-0.416681,-0.006197,0.003867,0.015390,-52.946915,17.356234,-0.172821,,,,,,,
1537206809.395413,-1.140095,0.105670,-2.469217,-0.172220,-0.189158,-0.071013,-0.903600,-0.105474,-0.415178,-0.007487,0.009175,0.022798,-53.488083,17.332146,0.375641,,,,,,,
1537206809.405392,-1.141636,0.105576,-2.471147,-0.175292,-0.158188,-0.076397,-0.904248,-0.105380,-0.413788,-0.003925,0.008090,0.035523,-53.488083,17.332146,0.375641,,,,,,,
1537206809.415371,-1.142708,0.105657,-2.473044,-0.167516,-0.107020,-0.094553,-0.904683,-0.105460,-0.412816,0.004598,0.009360,0.049901,-52.559078,17.176672,0.379791,,,,,,,
1537206809.425320,-1.143214,0.105964,-2.474996,-0.162867,-0.049445,-0.118071,-0.904863,-0.105765,-0.412344,0.011201,0.011100,0.059760,-52.559078,17.176672,0.379791,,,,,,,
1537206809.435299,-1.143286,0.106528,-2.477099,-0.169978,-0.016373,-0.146965,-0.904838,-0.106327,-0.412254,0.016151,0.010654,0.060127,-52.790859,17.171932,0.449707,,,,,,,
1537206809.445279,-1.143185,0.107279,-2.479436,-0.186808,-0.008861,-0.171614,-0.904723,-0.107073,-0.412312,0.021590,0.011293,0.055959,-52.790859,17.171932,0.449707,,,,,,,
1537206809.455258,-1.143266,0.108217,-2.482198,-0.221757,-0.043996,-0.210199,-0.904665,-0.108006,-0.412198,0.027986,0.009373,0.053463,-52.900631,16.893925,1.441833,,,,,,,
1537206809.465237,-1.143670,0.109209,-2.485549,-0.276038,-0.084341,-0.236075,-0.904734,-0.108992,-0.411787,0.031290,0.002623,0.055845,-52.900631,16.893925,1.441833,,,,,,,
1537206809.475216,-1.144324,0.110075,-2.489350,-0.316639,-0.109755,-0.237340,-0.904916,-0.109853,-0.411156,0.031274,-0.004878,0.059151,-52.955246,16.641685,1.450378,,,,,,,
1537206809.485196,-1.145263,0.110832,-2.493332,-0.332740,-0.140629,-0.236329,-0.905226,-0.110606,-0.410272,0.030394,-0.015646,0.057519,-52.955246,16.641685,1.450378,,,,,,,
1537206809.495175,-1.146587,0.111624,-2.497402,-0.335996,-0.182265,-0.242709,-0.905688,-0.111393,-0.409036,0.029819,-0.024197,0.054834,-52.982056,16.589500,2.064514,,,,,,,
1537206809.505154,-1.148876,0.112575,-2.501229,-0.290400,-0.318122,-0.251929,-0.906525,-0.112337,-0.406919,0.025055,-0.026808,0.053404,-52.982056,16.589500,2.064514,,,,,,,
1537206809.515133,-1.153226,0.114104,-2.504385,-0.202168,-0.499065,-0.270476,-0.908128,-0.113856,-0.402902,0.021211,-0.041570,0.065591,-53.344498,16.157368,1.748627,,,,,,,
1537206809.525113,-1.157456,0.115670,-2.507104,-0.185096,-0.420096,-0.246979,-0.909660,-0.115412,-0.398985,0.021705,-0.033193,0.088697,-53.344498,16.157368,1.748627,,,,,,,
1537206809.535092,-1.160331,0.116829,-2.509979,-0.223460,-0.292768,-0.214228,-0.910680,-0.116563,-0.396314,-0.008326,-0.021621,0.077238,-53.344498,16.157368,1.748627,,,,,,,
1537206809.545071,-1.162551,0.117613,-2.511567,-0.269391,-0.246573,-0.195311,-0.911474,-0.117342,-0.394254,-0.030787,-0.018949,0.039717,-53.335358,15.770103,1.605072,,,,,,,
1537206809.555050,-1.164759,0.118025,-2.515133,-0.325150,-0.255829,-0.167854,-0.912297,-0.117751,-0.392223,-0.042750,-0.023118,0.007381,-53.335358,15.770103,1.605072,,,,,,,
1537206809.564999,-1.167268,0.117929,-2.518890,-0.360901,-0.303589,-0.123169,-0.913289,-0.117656,-0.389937,-0.055385,-0.030995,-0.011308,-52.798210,15.584541,1.997101,,,,,,,
1537206809.574978,-1.169696,0.117220,-2.522969,-0.418899,-0.282893,-0.075473,-0.914310,-0.116952,-0.387750,-0.058331,-0.032020,-0.020102,-52.798210,15.584541,1.997101,,,,,,,
1537206809.584958,-1.172124,0.115715,-2.527142,-0.448460,-0.286831,0.004429,-0.915409,-0.115457,-0.385598,-0.052883,-0.035742,-0.030281,-53.543041,15.315104,3.345215,,,,,,,
1537206809.594937,-1.174587,0.113773,-2.531194,-0.455214,-0.282438,0.043883,-0.916562,-0.113528,-0.383427,-0.040576,-0.036161,-0.038906,-53.543041,15.315104,3.345215,,,,,,,
1537206809.604916,-1.177393,0.111564,-2.535267,-0.470451,-0.321813,0.063058,-0.917863,-0.111333,-0.380949,-0.026061,-0.031840,-0.046984,-53.856121,15.743393,4.424805,,,,,,,
1537206809.614895,-1.180350,0.109199,-2.539427,-0.481208,-0.332419,0.069414,-0.919227,-0.108982,-0.378333,-0.010308,-0.025219,-0.059579,-53.856121,15.743393,4.424805,,,,,,,
1537206809.624875,-1.183394,0.106848,-2.543632,-0.480119,-0.346322,0.064094,-0.920609,-0.106645,-0.375629,0.007889,-0.016387,-0.069424,-53.007938,15.492157,5.489441,,,,,,,
1537206809.634854,-1.186444,0.104662,-2.547962,-0.485270,-0.354885,0.041658,-0.921964,-0.104471,-0.372905,0.024351,-0.008902,-0.076665,-53.007938,15.492157,5.489441,,,,,,,
1537206809.644833,-1.189497,0.102785,-2.552464,-0.489207,-0.359219,0.005345,-0.923279,-0.102604,-0.370161,0.039627,-0.001812,-0.081545,-52.128059,15.399062,3.359497,,,,,,,
1537206809.654812,-1.192513,0.101383,-2.557149,-0.486569,-0.355079,-0.048017,-0.924523,-0.101210,-0.367428,0.050759,0.003859,-0.082188,-52.128059,15.399062,3.359497,,,,,,,
1537206809.664792,-1.195298,0.100566,-2.561990,-0.478470,-0.324290,-0.106715,-0.925620,-0.100397,-0.364882,0.059180,0.007349,-0.074327,-52.775520,15.265329,5.171021,,,,,,,
1537206809.674771,-1.197810,0.100433,-2.566977,-0.467068,-0.305293,-0.180325,-0.926546,-0.100264,-0.362560,0.066637,0.011000,-0.062901,-52.775520,15.265329,5.171021,,,,,,,
1537206809.684750,-1.200231,0.101129,-2.572142,-0.451371,-0.309829,-0.264562,-0.927356,-0.100957,-0.360291,0.071979,0.004750,-0.051529,-52.819416,14.823717,6.301514,,,,,,,
1537206809.694729,-1.202789,0.102624,-2.577369,-0.426219,-0.330406,-0.336990,-0.928133,-0.102444,-0.357862,0.072145,-0.004276,-0.042727,-52.819416,14.823717,6.301514,,,,,,,
1537206809.704678,-1.205414,0.104710,-2.582572,-0.406572,-0.342365,-0.389173,-0.928867,-0.104519,-0.355348,0.060551,-0.009510,-0.034698,-53.106785,14.466219,6.360199,,,,,,,
1537206809.714657,-1.208106,0.107195,-2.587893,-0.405176,-0.355271,-0.428648,-0.929575,-0.106989,-0.352752,0.045816,-0.015951,-0.034790,-53.106785,14.466219,6.360199,,,,,,,
1537206809.724636,-1.210785,0.109899,-2.593390,-0.414564,-0.359545,-0.453246,-0.930242,-0.109678,-0.350158,0.035864,-0.020830,-0.038926,-53.855602,13.993857,10.125397,,,,,,,
1537206809.734616,-1.213308,0.112648,-2.599155,-0.447496,-0.347654,-0.465181,-0.930837,-0.112410,-0.347703,0.024862,-0.027086,-0.040390,-53.855602,13.993857,10.125397,,,,,,,
1537206809.744595,-1.215702,0.115294,-2.605196,-0.466670,-0.328334,-0.461040,-0.931384,-0.115039,-0.345369,0.015689,-0.038572,-0.034208,-53.304813,13.143037,6.719360,,,,,,,
1537206809.754574,-1.218139,0.117849,-2.611143,-0.458322,-0.349701,-0.447096,-0.931944,-0.117576,-0.342996,0.009291,-0.044045,-0.020224,-53.304813,13.143037,6.719360,,,,,,,
1537206809.764553,-1.220877,0.120487,-2.616941,-0.441294,-0.373280,-0.451244,-0.932586,-0.120195,-0.340335,0.006072,-0.047224,-0.008313,-53.335869,12.635666,7.357880,,,,,,,
1537206809.774533,-1.223791,0.123082,-2.622452,-0.414863,-0.371225,-0.424415,-0.933277,-0.122771,-0.337509,0.006946,-0.052858,0.005996,-53.335869,12.635666,7.357880,,,,,,,
1537206809.784512,-1.226332,0.125478,-2.627577,-0.390513,-0.322163,-0.389105,-0.933852,-0.125149,-0.335036,0.001967,-0.047565,0.022063,-52.801010,11.943093,7.579712,,,,,,,
1537206809.794491,-1.228476,0.127544,-2.632293,-0.363095,-0.277359,-0.340965,-0.934322,-0.127198,-0.332946,-0.008915,-0.042846,0.034179,-52.801010,11.943093,7.579712,,,,,,,
1537206809.804470,-1.230182,0.129293,-2.636473,-0.318612,-0.227304,-0.289537,-0.934678,-0.128934,-0.331276,-0.026366,-0.042224,0.036263,-53.011364,11.456903,8.299255,,,,,,,
1537206809.814450,-1.231880,0.130723,-2.639987,-0.267918,-0.228515,-0.233750,-0.935064,-0.130351,-0.329627,-0.040140,-0.037877,0.028480,-53.011364,11.456903,8.299255,,,,,,,
1537206809.824429,-1.233385,0.131792,-2.642924,-0.233112,-0.188002,-0.179157,-0.935427,-0.131411,-0.328173,-0.048337,-0.029264,0.014819,-53.723782,11.246243,9.974640,,,,,,,
1537206809.834408,-1.234439,0.132426,-2.645584,-0.232357,-0.136650,-0.130103,-0.935694,-0.132039,-0.327159,-0.050024,-0.022410,0.003612,-53.723782,11.246243,9.974640,,,,,,,
1537206809.844357,-1.234907,0.132705,-2.648350,-0.263391,-0.074499,-0.101515,-0.935812,-0.132315,-0.326710,-0.043558,-0.010583,-0.010571,-53.505756,11.215356,9.318451,,,,,,,
1537206809.854336,-1.235393,0.132751,-2.651404,-0.297691,-0.096717,-0.091006,-0.935965,-0.132361,-0.326253,-0.029962,-0.011117,-0.022273,-53.505756,11.215356,9.318451,,,,,,,
1537206809.864315,-1.236206,0.132678,-2.654814,-0.336119,-0.131766,-0.099720,-0.936239,-0.132289,-0.325495,-0.012293,-0.015477,-0.030462,-52.998577,10.992515,8.290741,,,,,,,
1537206809.874295,-1.237097,0.132746,-2.658572,-0.358261,-0.129576,-0.127598,-0.936520,-0.132357,-0.324658,0.007962,-0.024061,-0.033314,-52.998577,10.992515,8.290741,,,,,,,
1537206809.884274,-1.237382,0.133056,-2.662477,-0.359921,-0.050620,-0.155441,-0.936574,-0.132664,-0.324377,0.033010,-0.021221,-0.036142,-53.409348,10.714460,8.105927,,,,,,,
1537206809.894253,-1.236749,0.133780,-2.666574,-0.366644,0.037913,-0.210007,-0.936278,-0.133382,-0.324938,0.055754,-0.011226,-0.050672,-53.409348,10.714460,8.105927,,,,,,,
1537206809.904232,-1.235206,0.134944,-2.671119,-0.400028,0.118033,-0.266850,-0.935628,-0.134535,-0.326331,0.071965,-0.011706,-0.077951,-53.211979,10.268301,9.158417,,,,,,,
1537206809.914212,-1.233181,0.136439,-2.676268,-0.444300,0.137368,-0.319418,-0.934774,-0.136016,-0.328158,0.070730,-0.027299,-0.103513,-53.211979,10.268301,9.158417,,,,,,,
1537206809.924191,-1.231304,0.138111,-2.681866,-0.475100,0.097969,-0.347298,-0.933941,-0.137673,-0.329836,0.048916,-0.044975,-0.121229,-52.138969,10.240961,8.500336,,,,,,,
1537206809.934170,-1.230090,0.139781,-2.687613,-0.478521,0.017911,-0.347236,-0.933322,-0.139326,-0.330892,0.014957,-0.064943,-0.123286,-52.138969,10.240961,8.500336,,,,,,,
1537206809.944149,-1.229867,0.141395,-2.693176,-0.458704,-0.088921,-0.329939,-0.933035,-0.140925,-0.331024,-0.020273,-0.079641,-0.111709,-53.667385,9.408867,10.241089,,,,,,,
1537206809.954129,-1.230919,0.142997,-2.698275,-0.410120,-0.210854,-0.312469,-0.933169,-0.142510,-0.329968,-0.047102,-0.079261,-0.094349,-53.667385,9.408867,10.241089,,,,,,,
1537206809.964108,-1.233126,0.144572,-2.702750,-0.350884,-0.315745,-0.287488,-0.933682,-0.144069,-0.327832,-0.063739,-0.066243,-0.075549,-52.986744,8.888172,10.860901,,,,,,,
1537206809.974087,-1.235910,0.146026,-2.706588,-0.297944,-0.347978,-0.253007,-0.934392,-0.145507,-0.325162,-0.074962,-0.049103,-0.055682,-52.986744,8.888172,10.860901,,,,,,,
1537206809.984036,-1.238749,0.147248,-2.709828,-0.249272,-0.348137,-0.208974,-0.935143,-0.146716,-0.322450,-0.086220,-0.031079,-0.030623,-53.038902,8.572487,9.842651,,,,,,,
1537206809.994015,-1.241575,0.148185,-2.712308,-0.180425,-0.330215,-0.149903,-0.935919,-0.147643,-0.319762,-0.095392,-0.017884,0.001281,-53.038902,8.572487,9.842651,,,,,,,
1537206810.003994,-1.244430,0.149004,-2.713555,-0.057057,-0.317950,-0.103338,-0.936714,-0.148453,-0.317050,-0.095498,-0.011489,0.041964,-53.648014,8.529690,10.887878,,,,,,,
1537206810.013974,-1.247602,0.150023,-2.713287,0.092011,-0.335755,-0.075816,-0.937571,-0.149461,-0.314028,-0.090047,-0.009124,0.068667,-53.648014,8.529690,10.887878,,,,,,,
1537206810.023953,-1.251372,0.151180,-2.711533,0.236655,-0.381281,-0.038686,-0.938583,-0.150605,-0.310437,-0.088226,-0.012207,0.076306,-53.015347,8.119818,10.944183,,,,,,,
1537206810.033932,-1.256217,0.152316,-2.708465,0.352318,-0.476823,0.001541,-0.939913,-0.151728,-0.305833,-0.087034,-0.013265,0.065095,-53.015347,8.119818,10.944183,,,,,,,
1537206810.043911,-1.262194,0.153333,-2.704545,0.409356,-0.569931,0.035043,-0.941577,-0.152733,-0.300163,-0.079511,-0.012215,0.041526,-52.772537,8.269991,11.250793,,,,,,,
1537206810.053891,-1.269215,0.153972,-2.700335,0.415090,-0.669162,0.077873,-0.943568,-0.153364,-0.293515,-0.056966,-0.001970,0.014112,-52.772537,8.269991,11.250793,,,,,,,
1537206810.063870,-1.277133,0.154097,-2.696171,0.388884,-0.750079,0.119440,-0.945844,-0.153487,-0.286030,-0.024646,0.006316,-0.002895,-52.772537,8.269991,11.250793,,,,,,,
1537206810.073849,-1.285826,0.153780,-2.692147,0.364864,-0.835292,0.153553,-0.948341,-0.153174,-0.277811,0.007179,0.011786,-0.005164,-52.316235,8.603319,11.545319,,,,,,,
1537206810.083828,-1.295512,0.152850,-2.688210,0.342729,-0.931140,0.211172,-0.951124,-0.152256,-0.268650,0.032911,0.014439,0.004597,-52.316235,8.603319,11.545319,,,,,,,
1537206810.093808,-1.306072,0.151211,-2.684252,0.331193,-1.017411,0.279513,-0.954147,-0.150635,-0.258657,0.056427,0.005845,0.027455,-52.363029,8.812351,12.612976,,,,,,,
1537206810.103787,-1.317506,0.148845,-2.680058,0.345245,-1.096335,0.352255,-0.957385,-0.148296,-0.247818,0.077471,-0.003255,0.059052,-52.363029,8.812351,12.612976,,,,,,,
1537206810.113766,-1.329557,0.145975,-2.675541,0.368120,-1.151868,0.400473,-0.960711,-0.145458,-0.236364,0.108004,-0.008443,0.095068,-52.351078,9.170910,13.988129,,,,,,,
1537206810.123715,-1.341842,0.143002,-2.670704,0.410757,-1.163833,0.400720,-0.963959,-0.142515,-0.224642,0.143250,-0.024279,0.125078,-52.351078,9.170910,13.988129,,,,,,,
1537206810.133694,-1.353936,0.140439,-2.665399,0.474250,-1.122630,0.354059,-0.966958,-0.139978,-0.213045,0.179925,-0.043128,0.155383,-51.315857,9.488285,15.158630,,,,,,,
1537206810.143673,-1.365288,0.138556,-2.659624,0.535949,-1.029148,0.285986,-0.969571,-0.138113,-0.202108,0.212476,-0.043985,0.178075,-51.315857,9.488285,15.158630,,,,,,,
1537206810.153653,-1.375384,0.137442,-2.653437,0.592433,-0.896137,0.216777,-0.971712,-0.137009,-0.192339,0.227862,-0.045181,0.183061,-51.370068,10.248917,15.566742,,,,,,,
1537206810.163632,-1.384372,0.136790,-2.647029,0.613382,-0.784228,0.176216,-0.973489,-0.136364,-0.183614,0.213144,-0.045368,0.174153,-51.370068,10.248917,15.566742,,,,,,,
1537206810.173611,-1.392072,0.136339,-2.640822,0.587307,-0.652824,0.150321,-0.974934,-0.135917,-0.176123,0.198872,-0.039605,0.157599,-50.662128,10.600690,15.823700,,,,,,,
1537206810.183590,-1.398490,0.135919,-2.635271,0.517334,-0.539312,0.134880,-0.976101,-0.135501,-0.169873,0.193737,-0.027310,0.140271,-50.662128,10.600690,15.823700,,,,,,,
1537206810.193574,-1.403719,0.135451,-2.630549,0.429182,-0.440654,0.120420,-0.977038,-0.135038,-0.164777,0.194995,-0.014880,0.122007,-50.030689,11.072115,16.284485,,,,,,,
1537206810.203553,-1.408181,0.135184,-2.626805,0.340155,-0.385844,0.073971,-0.977799,-0.134773,-0.160421,0.200684,-0.001625,0.103796,-50.030689,11.072115,16.284485,,,,,,,
1537206810.213532,-1.412015,0.135340,-2.623496,0.241633,-0.336348,0.012536,-0.978386,-0.134927,-0.156669,0.197228,0.000375,0.076880,-50.055466,11.207900,17.273224,,,,,,,
1537206810.223511,-1.415276,0.135956,-2.621887,0.143111,-0.296467,-0.052091,-0.978810,-0.135538,-0.153464,0.167622,-0.018530,0.044821,-50.055466,11.207900,17.273224,,,,,,,
1537206810.233491,-1.417795,0.136854,-2.620350,0.033742,-0.222299,-0.086925,-0.979073,-0.136428,-0.150979,0.117256,-0.057069,0.014245,-50.333176,11.087255,18.032837,,,,,,,
1537206810.243470,-1.418817,0.137676,-2.621008,-0.078878,-0.066907,-0.091971,-0.979115,-0.137241,-0.149962,0.048756,-0.107067,-0.003084,-50.333176,11.087255,18.032837,,,,,,,
1537206810.253449,-1.417972,0.138257,-2.621297,-0.135143,0.103193,-0.072171,-0.978909,-0.137817,-0.150776,-0.036213,-0.155640,-0.013835,-49.919048,11.039114,17.979065,,,,,,,
1537206810.263398,-1.416051,0.138486,-2.622468,-0.097973,0.192783,-0.027224,-0.978587,-0.138044,-0.152652,-0.125784,-0.193118,-0.039792,-49.919048,11.039114,17.979065,,,,,,,
1537206810.273377,-1.413049,0.138117,-2.622558,-0.067356,0.330520,0.048594,-0.978174,-0.137678,-0.155597,-0.207144,-0.228136,-0.086026,-49.656574,11.062010,16.074249,,,,,,,
1537206810.283356,-1.409183,0.136607,-2.622953,-0.058767,0.381998,0.173481,-0.977769,-0.136183,-0.159411,-0.262602,-0.271944,-0.146803,-49.656574,11.062010,16.074249,,,,,,,
1537206810.293336,-1.405364,0.134119,-2.623112,-0.060667,0.366180,0.258883,-0.977484,-0.133717,-0.163199,-0.252267,-0.280651,-0.219354,-50.324287,10.942443,15.513916,,,,,,,
1537206810.303315,-1.402568,0.131250,-2.623472,-0.094279,0.239349,0.279109,-0.977398,-0.130874,-0.165995,-0.189014,-0.288667,-0.273000,-50.324287,10.942443,15.513916,,,,,,,
1537206810.313294,-1.401144,0.128429,-2.624643,-0.188304,0.091372,0.249922,-0.977521,-0.128077,-0.167448,-0.105258,-0.285345,-0.288225,-50.424603,11.137489,16.502991,,,,,,,
1537206810.323273,-1.400694,0.125822,-2.627355,-0.350273,-0.007185,0.198962,-0.977772,-0.125490,-0.167944,-0.037563,-0.286207,-0.264917,-50.424603,11.137489,16.502991,,,,,,,
1537206810.333253,-1.400675,0.123671,-2.631942,-0.529943,-0.071564,0.110511,-0.978032,-0.123356,-0.168008,0.009603,-0.279278,-0.222495,-49.650520,11.381977,16.985565,,,,,,,
1537206810.343232,-1.400620,0.122329,-2.638269,-0.678292,-0.072093,-0.001315,-0.978185,-0.122024,-0.168090,0.030263,-0.266572,-0.171983,-49.650520,11.381977,16.985565,,,,,,,
1537206810.353211,-1.399940,0.121824,-2.645888,-0.777456,-0.004532,-0.103335,-0.978131,-0.121523,-0.168765,0.018994,-0.271482,-0.113965,-50.216240,11.155103,17.942719,,,,,,,
1537206810.363190,-1.398403,0.122166,-2.654248,-0.821178,0.073429,-0.197591,-0.977830,-0.121862,-0.170262,-0.016631,-0.278345,-0.061184,-50.216240,11.155103,17.942719,,,,,,,
1537206810.373170,-1.395942,0.123234,-2.662960,-0.838386,0.164109,-0.271432,-0.977279,-0.122922,-0.172645,-0.060166,-0.277621,-0.021157,-51.104324,10.510242,17.598999,,,,,,,
1537206810.383149,-1.392520,0.124744,-2.671780,-0.835677,0.251567,-0.308864,-0.976499,-0.124421,-0.175955,-0.100573,-0.268783,0.014853,-51.104324,10.510242,17.598999,,,,,,,
1537206810.393128,-1.388515,0.126308,-2.680643,-0.840856,0.297498,-0.312141,-0.975594,-0.125972,-0.179828,-0.129509,-0.244679,0.033451,-49.788918,9.500973,16.980743,,,,,,,
1537206810.403077,-1.384519,0.127626,-2.689575,-0.856068,0.281614,-0.285526,-0.974703,-0.127280,-0.183694,-0.145216,-0.210519,0.041528,-49.788918,9.500973,16.980743,,,,,,,
1537206810.413056,-1.381161,0.128461,-2.698655,-0.874870,0.200674,-0.237512,-0.973976,-0.128108,-0.186947,-0.137092,-0.168142,0.050762,-50.839470,8.860964,16.726837,,,,,,,
1537206810.423035,-1.378338,0.128735,-2.707745,-0.882924,0.154915,-0.187340,-0.973410,-0.128379,-0.189689,-0.100351,-0.117898,0.063239,-50.839470,8.860964,16.726837,,,,,,,
1537206810.433015,-1.375755,0.128601,-2.716770,-0.882243,0.140046,-0.149961,-0.972934,-0.128247,-0.192205,-0.050138,-0.065738,0.076132,-51.192150,8.426327,16.871796,,,,,,,
1537206810.442994,-1.373145,0.128050,-2.725697,-0.879410,0.145462,-0.109386,-0.972498,-0.127701,-0.194758,-0.011099,-0.025223,0.082896,-51.192150,8.426327,16.871796,,,,,,,
1537206810.452973,-1.370675,0.127210,-2.734576,-0.881762,0.130569,-0.090169,-0.972119,-0.126867,-0.197181,0.020459,0.014684,0.085395,-50.669308,7.588013,16.102997,,,,,,,
1537206810.462952,-1.368499,0.126342,-2.743538,-0.890349,0.098577,-0.094453,-0.971795,-0.126006,-0.199317,0.048318,0.055877,0.087669,-50.669308,7.588013,16.102997,,,,,,,
1537206810.472931,-1.366595,0.125534,-2.752405,-0.873298,0.073919,-0.099671,-0.971513,-0.125205,-0.201189,0.059312,0.093405,0.100817,-51.123089,6.898155,16.975952,,,,,,,
1537206810.482911,-1.365033,0.124902,-2.760860,-0.819930,0.043719,-0.111090,-0.971275,-0.124577,-0.202722,0.058341,0.144490,0.126779,-51.123089,6.898155,16.975952,,,,,,,
1537206810.492890,-1.364024,0.124592,-2.768413,-0.712134,-0.006001,-0.129662,-0.971107,-0.124270,-0.203710,0.052330,0.190401,0.158071,-51.245380,6.552315,16.562469,,,,,,,
1537206810.502869,-1.363680,0.124765,-2.774626,-0.558500,-0.054882,-0.144778,-0.971016,-0.124442,-0.204040,0.046669,0.229438,0.187392,-51.245380,6.552315,16.562469,,,,,,,
1537206810.512848,-1.363728,0.125282,-2.778697,-0.343101,-0.059191,-0.132918,-0.970963,-0.124955,-0.203979,0.031479,0.244080,0.217773,-51.927494,5.641865,17.539948,,,,,,,
1537206810.522828,-1.363669,0.126202,-2.780586,-0.106120,0.000429,-0.127411,-0.970838,-0.125867,-0.204013,0.024168,0.238416,0.242084,-51.927494,5.641865,17.539948,,,,,,,
1537206810.532776,-1.363034,0.127696,-2.779511,0.146056,0.100508,-0.138938,-0.970523,-0.127350,-0.204591,0.042407,0.225021,0.253739,-50.896519,5.517975,15.802155,,,,,,,
1537206810.542756,-1.361345,0.129977,-2.776545,0.394292,0.246472,-0.172948,-0.969890,-0.129612,-0.206168,0.074107,0.222751,0.260215,-50.896519,5.517975,15.802155,,,,,,,
1537206810.552735,-1.358229,0.133041,-2.771076,0.581789,0.420513,-0.206254,-0.968850,-0.132649,-0.209105,0.117364,0.256871,0.246779,-51.639664,5.529247,16.559265,,,,,,,
1537206810.562714,-1.353545,0.136548,-2.764939,0.693281,0.586463,-0.213287,-0.967400,-0.136124,-0.213539,0.143379,0.306000,0.215538,-51.639664,5.529247,16.559265,,,,,,,
1537206810.572693,-1.348157,0.140205,-2.757739,0.742462,0.635325,-0.209864,-0.965743,-0.139746,-0.218637,0.143356,0.343374,0.165735,-51.317421,5.394672,15.346344,,,,,,,
1537206810.582673,-1.343304,0.143905,-2.750890,0.743320,0.558447,-0.209782,-0.964160,-0.143409,-0.223203,0.136127,0.368080,0.102582,-51.317421,5.394672,15.346344,,,,,,,
1537206810.592652,-1.339863,0.147488,-2.744207,0.721371,0.400588,-0.190528,-0.962880,-0.146954,-0.226400,0.098150,0.377652,0.039678,-51.317421,5.394672,15.346344,,,,,,,
1537206810.602631,-1.338177,0.150423,-2.737172,0.710573,0.226787,-0.113552,-0.962074,-0.149857,-0.227923,0.030738,0.378037,-0.001233,-51.314251,5.459656,15.694519,,,,,,,
1537206810.612610,-1.337981,0.152568,-2.730080,0.740343,0.098705,-0.024661,-0.961714,-0.151977,-0.228037,-0.042940,0.371322,-0.010168,-51.314251,5.459656,15.694519,,,,,,,
1537206810.622590,-1.338665,0.153799,-2.721679,0.810624,0.044133,0.089996,-0.961687,-0.153194,-0.227335,-0.103941,0.363338,0.020991,-52.149586,5.888479,14.846222,,,,,,,
1537206810.632569,-1.339455,0.153901,-2.712283,0.948007,0.080049,0.243359,-0.961851,-0.153294,-0.226573,-0.154924,0.365193,0.078089,-52.149586,5.888479,14.846222,,,,,,,
1537206810.642548,-1.339737,0.152862,-2.700140,1.160139,0.171113,0.405617,-0.962070,-0.152268,-0.226337,-0.186704,0.370850,0.127308,-52.247890,6.336376,14.979736,,,,,,,
1537206810.652527,-1.339456,0.151139,-2.686105,1.364349,0.261004,0.501649,-0.962260,-0.150564,-0.226668,-0.182165,0.361258,0.129225,-52.247890,6.336376,14.979736,,,,,,,
1537206810.662507,-1.339135,0.149761,-2.670129,1.551210,0.271739,0.488787,-0.962388,-0.149202,-0.227024,-0.135726,0.322847,0.094776,-53.757290,7.207718,15.097046,,,,,,,
1537206810.672455,-1.338644,0.149307,-2.652853,1.697098,0.319930,0.418019,-0.962342,-0.148753,-0.227512,-0.071975,0.241847,0.049686,-53.757290,7.207718,15.097046,,,,,,,
1537206810.682435,-1.337575,0.150047,-2.634705,1.783609,0.397191,0.315940,-0.961991,-0.149484,-0.228515,-0.043166,0.166589,0.001037,-52.303185,8.635225,14.354858,,,,,,,
1537206810.692414,-1.336041,0.151826,-2.616464,1.798450,0.438548,0.223111,-0.961379,-0.151244,-0.229929,-0.048081,0.114058,-0.058142,-52.303185,8.635225,14.354858,,,,,,,
1537206810.702393,-1.334616,0.154319,-2.598944,1.721180,0.395006,0.142674,-0.960681,-0.153707,-0.231209,-0.061291,0.083196,-0.119789,-52.270687,9.204229,13.393341,,,,,,,
1537206810.712372,-1.334156,0.157262,-2.582869,1.575319,0.256811,0.068360,-0.960131,-0.156615,-0.231544,-0.061064,0.070769,-0.173653,-52.270687,9.204229,13.393341,,,,,,,
1537206810.722352,-1.335284,0.160380,-2.568762,1.383264,0.060173,0.010930,-0.959912,-0.159694,-0.230346,-0.041629,0.056025,-0.211213,-52.949829,9.987375,12.487518,,,,,,,
1537206810.732331,-1.338121,0.163301,-2.556419,1.211094,-0.133272,-0.003695,-0.960104,-0.162576,-0.227513,-0.023478,0.025400,-0.232143,-52.949829,9.987375,12.487518,,,,,,,
1537206810.742310,-1.343199,0.165875,-2.545712,1.051439,-0.405773,-0.010699,-0.960835,-0.165116,-0.222539,-0.008052,-0.006897,-0.247920,-52.215508,9.972975,12.750641,,,,,,,
1537206810.752289,-1.351357,0.168174,-2.536084,0.965177,-0.741641,-0.011900,-0.962246,-0.167382,-0.214610,0.000179,-0.035499,-0.268895,-52.215508,9.972975,12.750641,,,,,,,
1537206810.762269,-1.362023,0.170067,-2.527122,0.881190,-0.961105,0.007073,-0.964169,-0.169248,-0.204269,-0.017109,-0.066317,-0.260148,-51.758492,10.368776,13.327972,,,,,,,
1537206810.772248,-1.373363,0.171624,-2.519310,0.751004,-0.999945,-0.002141,-0.966163,-0.170783,-0.193270,-0.047066,-0.109704,-0.227552,-51.758492,10.368776,13.327972,,,,,,,
1537206810.782227,-1.383293,0.173001,-2.513117,0.586230,-0.848581,-0.022413,-0.967803,-0.172139,-0.183623,-0.082200,-0.140788,-0.196550,-52.026783,10.604878,14.609528,,,,,,,
1537206810.792206,-1.392249,0.173940,-2.507893,0.510283,-0.802195,0.012350,-0.969249,-0.173064,-0.174920,-0.127538,-0.132738,-0.182578,-52.026783,10.604878,14.609528,,,,,,,
1537206810.802186,-1.401438,0.174249,-2.503172,0.443523,-0.856185,0.062209,-0.970762,-0.173369,-0.165996,-0.181795,-0.084398,-0.196827,-51.588913,10.900033,14.638397,,,,,,,
1537206810.812134,-1.411166,0.173840,-2.499531,0.312669,-0.933325,0.113874,-0.972401,-0.172966,-0.156557,-0.243297,-0.028100,-0.209593,-51.588913,10.900033,14.638397,,,,,,,
1537206810.822114,-1.421451,0.172431,-2.497506,0.128210,-1.017598,0.190873,-0.974200,-0.171578,-0.146584,-0.280042,0.024971,-0.220405,-51.200443,11.074447,15.860260,,,,,,,
1537206810.832093,-1.431960,0.169830,-2.497131,-0.041375,-1.058133,0.288189,-0.976125,-0.169015,-0.136399,-0.298548,0.069421,-0.213714,-51.200443,11.074447,15.860260,,,,,,,
1537206810.842072,-1.442724,0.166140,-2.497710,-0.159637,-1.098965,0.374044,-0.978149,-0.165377,-0.125964,-0.282990,0.098070,-0.183393,-50.786232,11.454757,16.642914,,,,,,,
1537206810.852051,-1.453480,0.161998,-2.499370,-0.227032,-1.111389,0.389698,-0.980119,-0.161290,-0.115514,-0.229628,0.114003,-0.146342,-50.786232,11.454757,16.642914,,,,,,,
,,,,,,,,,,,,,,,,42.293420,-71.264067,63.764606,-1.000000,-1.000000,1537206810.848232,
1537206810.862031,-1.464421,0.158162,-2.500856,-0.242709,-1.129542,0.346938,-0.981932,-0.157503,-0.104849,-0.166231,0.114260,-0.119562,-50.430679,11.705044,17.910431,,,,,,,
1537206810.872010,-1.474749,0.155041,-2.502944,-0.233204,-1.034737,0.270037,-0.983447,-0.154421,-0.094748,-0.105115,0.134554,-0.110009,-50.430679,11.705044,17.910431,,,,,,,
1537206810.881989,-1.483114,0.152687,-2.504726,-0.237245,-0.814942,0.196136,-0.984564,-0.152094,-0.086551,-0.072916,0.153712,-0.100308,-49.512405,11.820671,19.844360,,,,,,,
1537206810.891968,-1.488984,0.151188,-2.507471,-0.310345,-0.558525,0.100472,-0.985281,-0.150613,-0.080788,-0.063165,0.156808,-0.106788,-49.512405,11.820671,19.844360,,,,,,,
1537206810.901948,-1.491642,0.150496,-2.511626,-0.449580,-0.260099,0.016143,-0.985596,-0.149929,-0.078177,-0.037719,0.155971,-0.125253,-49.093994,11.663744,18.660858,,,,,,,
1537206810.911927,-1.492048,0.150577,-2.517245,-0.585895,-0.090893,-0.076577,-0.985616,-0.150008,-0.077777,0.000371,0.149902,-0.136121,-49.093994,11.663744,18.660858,,,,,,,
1537206810.921906,-1.490970,0.151483,-2.523765,-0.647694,0.050184,-0.159253,-0.985396,-0.150904,-0.078828,0.034346,0.139704,-0.118468,-49.005775,11.381028,19.624878,,,,,,,
1537206810.931885,-1.488073,0.152868,-2.530384,-0.638250,0.230473,-0.204217,-0.984954,-0.152273,-0.081665,0.075728,0.128531,-0.043091,-49.005775,11.381028,19.624878,,,,,,,
1537206810.941865,-1.483789,0.154563,-2.536788,-0.608899,0.362669,-0.224470,-0.984336,-0.153948,-0.085861,0.133277,0.128481,0.062591,-48.875748,11.119982,20.083771,,,,,,,
1537206810.951813,-1.478239,0.156146,-2.542811,-0.576675,0.495995,-0.208416,-0.983601,-0.155513,-0.091300,0.188862,0.122798,0.184089,-48.875748,11.119982,20.083771,,,,,,,
1537206810.961793,-1.471439,0.157767,-2.548949,-0.595362,0.610284,-0.229985,-0.982705,-0.157113,-0.097961,0.242104,0.112924,0.297943,-49.877251,10.564418,19.519409,,,,,,,
1537206810.971772,-1.463777,0.159548,-2.555584,-0.649478,0.674600,-0.243157,-0.981646,-0.158872,-0.105458,0.283129,0.108167,0.349232,-49.877251,10.564418,19.519409,,,,,,,
1537206810.981751,-1.455722,0.160453,-2.563400,-0.803966,0.689504,-0.146881,-0.980621,-0.159766,-0.113345,0.296204,0.146521,0.293688,-49.980820,9.916241,18.541351,,,,,,,
1537206810.991730,-1.446592,0.159752,-2.573611,-1.092964,0.777782,-0.020462,-0.979657,-0.159073,-0.122307,0.293225,0.167145,0.162575,-49.980820,9.916241,18.541351,,,,,,,
1537206811.001710,-1.435912,0.157356,-2.587613,-1.515122,0.867780,0.083877,-0.978670,-0.156707,-0.132813,0.295625,0.137405,0.002991,-50.234676,9.565189,18.390625,,,,,,,
1537206811.011689,-1.424119,0.153788,-2.605904,-1.948336,0.898914,0.097480,-0.977582,-0.153183,-0.144426,0.299482,0.066543,-0.151518,-50.234676,9.565189,18.390625,,,,,,,
1537206811.021668,-1.412701,0.149851,-2.627694,-2.256549,0.774437,0.045747,-0.976458,-0.149291,-0.155673,0.289446,-0.028886,-0.224988,-51.081238,8.961487,19.172272,,,,,,,
1537206811.031647,-1.403430,0.146113,-2.650910,-2.334557,0.513124,-0.018464,-0.975516,-0.145594,-0.164810,0.299262,-0.139791,-0.217346,-51.081238,8.961487,19.172272,,,,,,,
1537206811.041627,-1.396240,0.142989,-2.673491,-2.224326,0.385328,-0.092452,-0.974749,-0.142502,-0.171898,0.322177,-0.239349,-0.167579,-50.759525,7.766262,17.784668,,,,,,,
,,,,,,,,,,,,,,,,42.293454,-71.264360,61.334167,0.000000,-1.000000,1537206810.998274,
1537206811.051606,-1.389776,0.140895,-2.694410,-2.028393,0.340331,-0.179930,-0.973909,-0.140429,-0.178248,0.332216,-0.264142,-0.095678,-50.759525,7.766262,17.784668,,,,,,,
1537206811.061585,-1.384039,0.139630,-2.713146,-1.786939,0.299454,-0.227666,-0.973044,-0.139177,-0.183866,0.332221,-0.247649,-0.018451,-50.587330,6.728912,16.781342,,,,,,,
1537206811.071564,-1.379729,0.139219,-2.729067,-1.480692,0.174972,-0.268557,-0.972299,-0.138770,-0.188069,0.288339,-0.203332,0.090947,-50.587330,6.728912,16.781342,,,,,,,
1537206811.081544,-1.377183,0.139779,-2.742023,-1.180860,0.044113,-0.308414,-0.971741,-0.139325,-0.190529,0.195999,-0.149906,0.204490,-50.480442,5.802183,16.838531,,,,,,,
1537206811.091492,-1.376083,0.140871,-2.752670,-0.974177,-0.058397,-0.306109,-0.971381,-0.140406,-0.191568,0.065604,-0.095449,0.256525,-50.480442,5.802183,16.838531,,,,,,,
1537206811.101472,-1.375899,0.141651,-2.761887,-0.857663,-0.119704,-0.232820,-0.971238,-0.141178,-0.191725,-0.080032,-0.058880,0.223570,-50.480442,5.802183,16.838531,,,,,,,
1537206811.111451,-1.376294,0.141662,-2.770275,-0.803203,-0.174235,-0.138530,-0.971312,-0.141188,-0.191342,-0.211565,-0.041429,0.145047,-51.514618,5.557878,17.738586,,,,,,,
1537206811.121430,-1.377021,0.140574,-2.777952,-0.754404,-0.189127,0.002657,-0.971601,-0.140111,-0.190665,-0.390017,-0.076487,0.041693,-51.514618,5.557878,17.738586,,,,,,,
1537206811.131409,-1.378374,0.137415,-2.784336,-0.652348,-0.247828,0.256262,-0.972288,-0.136983,-0.189433,-0.563479,-0.092433,-0.043065,-51.405514,4.765131,17.312866,,,,,,,
1537206811.141389,-1.380780,0.132224,-2.788892,-0.505151,-0.316462,0.471696,-0.973426,-0.131839,-0.187225,-0.676965,-0.089429,-0.091217,-51.405514,4.765131,17.312866,,,,,,,
1537206811.151368,-1.384316,0.125743,-2.791735,-0.363762,-0.404436,0.616666,-0.974901,-0.125412,-0.183937,-0.693282,-0.141022,-0.089805,-50.270790,5.060061,17.580688,,,,,,,
1537206811.161347,-1.387971,0.119002,-2.793222,-0.240024,-0.362344,0.631182,-0.976376,-0.118721,-0.180522,-0.587788,-0.172386,-0.077565,-50.270790,5.060061,17.580688,,,,,,,
1537206811.171326,-1.389885,0.113127,-2.793872,-0.144740,-0.147365,0.543956,-0.977389,-0.112886,-0.178776,-0.401365,-0.177870,-0.050015,-50.960045,5.466143,18.204285,,,,,,,
1537206811.181306,-1.389807,0.108648,-2.793651,-0.028734,0.065262,0.406677,-0.977862,-0.108435,-0.178940,-0.210386,-0.176401,-0.029586,-50.960045,5.466143,18.204285,,,,,,,
1537206811.191288,-1.387797,0.105808,-2.792560,0.079803,0.257628,0.264039,-0.977799,-0.105611,-0.180961,-0.067870,-0.188334,-0.008630,-51.115807,6.049572,18.710480,,,,,,,
1537206811.201267,-1.384405,0.104419,-2.790922,0.150678,0.380822,0.136207,-0.977323,-0.104230,-0.184304,0.035108,-0.226230,0.009805,-51.115807,6.049572,18.710480,,,,,,,
1537206811.211246,-1.380488,0.104102,-2.788596,0.187875,0.418869,0.047774,-0.976626,-0.103914,-0.188137,0.113589,-0.273924,0.018246,-51.098423,6.320574,17.896271,,,,,,,
1537206811.221195,-1.376601,0.104220,-2.786284,0.243431,0.404673,0.034219,-0.975876,-0.104031,-0.191929,0.153289,-0.320453,0.034474,-51.098423,6.320574,17.896271,,,,,,,
1537206811.231174,-1.373527,0.103879,-2.782983,0.280793,0.307504,0.118852,-0.975316,-0.103693,-0.194935,0.152058,-0.354880,0.045597,-50.944225,6.573206,17.395233,,,,,,,
1537206811.241153,-1.372104,0.101856,-2.779812,0.261381,0.121194,0.318543,-0.975241,-0.101680,-0.196364,0.101950,-0.371373,0.037169,-50.944225,6.573206,17.395233,,,,,,,
1537206811.251133,-1.373797,0.096826,-2.776437,0.169932,-0.235288,0.641840,-0.976061,-0.096675,-0.194810,0.025881,-0.352605,0.018616,-50.893150,6.990316,18.162994,,,,,,,
1537206811.261112,-1.380005,0.087590,-2.773623,0.076094,-0.714303,1.070929,-0.978086,-0.087478,-0.188908,-0.042070,-0.318436,-0.012294,-50.893150,6.990316,18.162994,,,,,,,
1537206811.271091,-1.389612,0.074150,-2.770950,-0.051957,-0.974361,1.457974,-0.980924,-0.074083,-0.179698,-0.054125,-0.290099,-0.016759,-49.556423,7.988522,18.155182,,,,,,,
1537206811.281070,-1.399178,0.057018,-2.769139,-0.134048,-0.920834,1.813997,-0.983704,-0.056987,-0.170499,-0.011932,-0.278782,0.038312,-49.556423,7.988522,18.155182,,,,,,,
1537206811.291050,-1.407437,0.036300,-2.765921,-0.036720,-0.777478,2.177320,-0.986032,-0.036292,-0.162526,0.065790,-0.300164,0.090581,-49.717655,9.638409,18.913391,,,,,,,
1537206811.301029,-1.414561,0.013507,-2.761266,0.143179,-0.682986,2.365016,-0.987725,-0.013507,-0.155586,0.165643,-0.312909,0.130394,-49.717655,9.638409,18.913391,,,,,,,
1537206811.311008,-1.420881,-0.009692,-2.754472,0.310626,-0.619749,2.390422,-0.988733,0.009692,-0.149347,0.271676,-0.332949,0.139551,-48.895760,11.998692,19.590790,,,,,,,
1537206811.320987,-1.427410,-0.031528,-2.747426,0.394263,-0.699602,2.206292,-0.989241,0.031523,-0.142823,0.389388,-0.300368,0.129625,-48.895760,11.998692,19.590790,,,,,,,
1537206811.330967,-1.435554,-0.049962,-2.740856,0.392089,-0.888376,1.808312,-0.989627,0.049941,-0.134662,0.516361,-0.246505,0.116687,-47.963963,14.416440,20.506836,,,,,,,
1537206811.340946,-1.444753,-0.063448,-2.735020,0.411607,-0.970765,1.287587,-0.990066,0.063406,-0.125457,0.589355,-0.182089,0.144545,-47.963963,14.416440,20.506836,,,,,,,
1537206811.350925,-1.453498,-0.072113,-2.729143,0.506867,-0.869789,0.822599,-0.990542,0.072050,-0.116725,0.576846,-0.061369,0.216380,-46.533852,15.912079,21.205750,,,,,,,
1537206811.360874,-1.459398,-0.076579,-2.722548,0.636247,-0.558519,0.422698,-0.990884,0.076505,-0.110841,0.505410,0.040561,0.294572,-46.533852,15.912079,21.205750,,,,,,,
1537206811.370853,-1.461106,-0.076806,-2.715706,0.671461,-0.088823,-0.016307,-0.991055,0.076730,-0.109148,0.446224,0.115912,0.346483,-45.996979,16.468155,21.817902,,,,,,,
1537206811.380832,-1.458675,-0.073163,-2.709517,0.651254,0.270294,-0.378648,-0.991057,0.073098,-0.111587,0.403579,0.185020,0.347106,-45.996979,16.468155,21.817902,,,,,,,
1537206811.390812,-1.454389,-0.066380,-2.703898,0.629942,0.407458,-0.687398,-0.991040,0.066331,-0.115888,0.343167,0.219817,0.256223,-46.444317,16.224728,20.539459,,,,,,,
1537206811.400791,-1.449903,-0.056695,-2.699036,0.581403,0.411351,-0.975879,-0.991101,0.056665,-0.120404,0.245801,0.271582,0.132047,-46.444317,16.224728,20.539459,,,,,,,
1537206811.410770,-1.446649,-0.044813,-2.695685,0.434654,0.270727,-1.185763,-0.991302,0.044798,-0.123704,0.114563,0.302721,-0.006713,-47.614246,15.784777,20.134308,,,,,,,
1537206811.420749,-1.445096,-0.031883,-2.694727,0.191941,0.106275,-1.293673,-0.991601,0.031877,-0.125306,-0.037315,0.313856,-0.148498,-47.614246,15.784777,20.134308,,,,,,,
1537206811.430729,-1.445026,-0.018607,-2.696693,-0.106507,-0.011884,-1.360305,-0.991924,0.018606,-0.125417,-0.144932,0.325114,-0.271098,-48.038067,14.517326,19.485077,,,,,,,
1537206811.440708,-1.445283,-0.005101,-2.702081,-0.453716,-0.010203,-1.426258,-0.992115,0.005101,-0.125181,-0.190151,0.318476,-0.343920,-48.038067,14.517326,19.485077,,,,,,,
1537206811.450687,-1.444491,0.008429,-2.710854,-0.783812,0.109967,-1.461282,-0.991994,-0.008429,-0.125964,-0.248988,0.291357,-0.347348,-48.430958,12.882630,19.725128,,,,,,,
1537206811.460666,-1.441541,0.021686,-2.722548,-1.056267,0.339871,-1.467278,-0.991420,-0.021684,-0.128865,-0.325078,0.267930,-0.281184,-48.430958,12.882630,19.725128,,,,,,,
1537206811.470646,-1.436343,0.034493,-2.736059,-1.194693,0.527498,-1.441541,-0.990380,-0.034486,-0.133968,-0.389243,0.226731,-0.174473,-49.550789,10.659326,20.032532,,,,,,,
1537206811.480625,-1.429657,0.047118,-2.749519,-1.139987,0.629704,-1.442414,-0.988952,-0.047101,-0.140514,-0.394242,0.175275,-0.088078,-49.550789,10.659326,20.032532,,,,,,,
1537206811.490604,-1.422379,0.060171,-2.761398,-0.926179,0.672282,-1.475442,-0.987212,-0.060135,-0.147604,-0.358171,0.171433,-0.024622,-49.792328,8.673098,19.506378,,,,,,,
1537206811.500553,-1.415573,0.073953,-2.770540,-0.616578,0.603304,-1.517437,-0.985272,-0.073885,-0.154177,-0.329731,0.182375,0.012927,-49.792328,8.673098,19.506378,,,,,,,
1537206811.510532,-1.409154,0.088292,-2.776995,-0.356260,0.599802,-1.517072,-0.983115,-0.088177,-0.160312,-0.314737,0.192364,0.025714,-50.646141,6.606855,18.956299,,,,,,,
1537206811.520511,-1.401449,0.102459,-2.782898,-0.363589,0.749376,-1.486312,-0.980521,-0.102280,-0.167655,-0.331842,0.179047,0.013602,-50.646141,6.606855,18.956299,,,,,,,
1537206811.530491,-1.393201,0.115633,-2.789988,-0.508483,0.732179,-1.398491,-0.977694,-0.115376,-0.175483,-0.342299,0.136082,-0.064370,-50.951828,5.045509,19.075958,,,,,,,
1537206811.540470,-1.385884,0.127477,-2.799036,-0.728429,0.584055,-1.309882,-0.974972,-0.127132,-0.182368,-0.316639,0.130871,-0.182164,-50.951828,5.045509,19.075958,,,,,,,
1537206811.550449,-1.379700,0.138282,-2.810438,-0.967170,0.437001,-1.265142,-0.972420,-0.137842,-0.188122,-0.291954,0.096292,-0.252476,-50.700897,3.359879,17.515930,,,,,,,
1537206811.560428,-1.374279,0.148367,-2.823406,-1.090494,0.330962,-1.229416,-0.969973,-0.147823,-0.193108,-0.268964,0.033412,-0.259467,-50.700897,3.359879,17.515930,,,,,,,
1537206811.570408,-1.369757,0.158107,-2.836799,-1.106885,0.225372,-1.218725,-0.967633,-0.157449,-0.197196,-0.255832,-0.004629,-0.229180,-51.713360,1.591675,17.941620,,,,,,,
1537206811.580387,-1.365643,0.168151,-2.850107,-1.077735,0.188814,-1.267628,-0.965217,-0.167359,-0.200843,-0.214791,-0.016158,-0.183709,-51.713360,1.591675,17.941620,,,,,,,
1537206811.590366,-1.360878,0.178978,-2.863256,-1.031817,0.290873,-1.357145,-0.962420,-0.178024,-0.205051,-0.142286,-0.008820,-0.131070,-51.627102,-0.433140,16.682587,,,,,,,
1537206811.600345,-1.355232,0.191139,-2.876002,-0.943012,0.343511,-1.483739,-0.959061,-0.189977,-0.210003,-0.079009,0.031057,-0.079808,-51.627102,-0.433140,16.682587,,,,,,,
1537206811.610325,-1.349211,0.203991,-2.887693,-0.809309,0.382257,-1.508664,-0.955318,-0.202579,-0.215219,-0.076298,0.080891,-0.040580,-51.457859,-2.406496,17.344666,,,,,,,
1537206811.620304,-1.342929,0.216884,-2.898249,-0.694230,0.415878,-1.483513,-0.951324,-0.215188,-0.220607,-0.101395,0.138421,-0.016743,-51.457859,-2.406496,17.344666,,,,,,,
1537206811.630253,-1.336708,0.229398,-2.907751,-0.593526,0.409094,-1.414636,-0.947240,-0.227391,-0.225879,-0.116634,0.172307,0.004214,-51.457859,-2.406496,17.344666,,,,,,,
1537206811.640232,-1.331383,0.241011,-2.916295,-0.518049,0.306451,-1.298836,-0.943394,-0.238685,-0.230278,-0.132976,0.197547,0.020912,-51.939903,-7.516603,12.259216,,,,,,,
1537206811.650211,-1.326818,0.251807,-2.924305,-0.490118,0.249889,-1.220701,-0.939778,-0.249154,-0.233946,-0.087520,0.250085,0.032804,-51.939903,-7.516603,12.259216,,,,,,,
1537206811.660190,-1.322168,0.262361,-2.932013,-0.454943,0.281761,-1.206666,-0.936079,-0.259361,-0.237653,-0.006990,0.311714,0.061978,-52.790894,-8.863308,12.984924,,,,,,,
1537206811.670170,-1.316900,0.273162,-2.939037,-0.359638,0.360237,-1.221167,-0.932048,-0.269778,-0.241863,0.042476,0.376482,0.104366,-52.790894,-8.863308,12.984924,,,,,,,
1537206811.680149,-1.311538,0.283946,-2.944765,-0.229981,0.375705,-1.162826,-0.927872,-0.280146,-0.246097,0.023361,0.430384,0.125400,-52.843353,-10.580730,13.021393,,,,,,,
1537206811.690128,-1.306943,0.293575,-2.949439,-0.174010,0.309562,-1.004469,-0.924084,-0.289376,-0.249643,-0.021213,0.476067,0.139276,-52.843353,-10.580730,13.021393,,,,,,,
1537206811.700107,-1.303156,0.301278,-2.953664,-0.199552,0.234334,-0.802785,-0.920955,-0.296741,-0.252544,-0.017141,0.495136,0.172435,-53.238533,-11.775867,12.639435,,,,,,,
1537206811.710087,-1.300668,0.306929,-2.958320,-0.311593,0.067700,-0.619629,-0.918693,-0.302133,-0.254383,0.027808,0.466592,0.189075,-53.238533,-11.775867,12.639435,,,,,,,
1537206811.720066,-1.300423,0.310741,-2.963409,-0.376762,-0.206001,-0.460658,-0.917514,-0.305764,-0.254298,0.139010,0.437020,0.167018,-51.845200,-12.592541,12.287628,,,,,,,
1537206811.730045,-1.303034,0.313206,-2.968365,-0.396858,-0.485343,-0.331324,-0.917445,-0.308110,-0.251701,0.253413,0.364110,0.128029,-51.845200,-12.592541,12.287628,,,,,,,
1537206811.740024,-1.308245,0.314154,-2.973207,-0.428854,-0.727190,-0.173271,-0.918462,-0.309012,-0.246841,0.335347,0.256323,0.080261,-53.846184,-12.995914,13.006683,,,,,,,
1537206811.750004,-1.315115,0.313625,-2.977346,-0.369829,-0.839254,-0.012716,-0.920294,-0.308508,-0.240567,0.394720,0.137000,0.037427,-53.846184,-12.995914,13.006683,,,,,,,
1537206811.759983,-1.321395,0.312309,-2.980588,-0.328459,-0.668478,0.065258,-0.922179,-0.307257,-0.234883,0.455901,0.055227,0.051915,-52.407578,-13.160130,13.224304,,,,,,,
1537206811.769932,-1.324542,0.310684,-2.983887,-0.350100,-0.336282,0.080814,-0.923396,-0.305710,-0.232101,0.514659,0.038453,0.100097,-52.407578,-13.160130,13.224304,,,,,,,
1537206811.779911,-1.325362,0.309514,-2.987433,-0.357542,-0.163426,0.013350,-0.923933,-0.304596,-0.231431,0.555128,0.051910,0.100525,-52.214417,-13.300983,11.997192,,,,,,,
1537206811.789890,-1.325634,0.308419,-2.991317,-0.403498,-0.146071,0.026957,-0.924319,-0.303552,-0.231260,0.508196,0.157098,0.038084,-52.214417,-13.300983,11.997192,,,,,,,
1537206811.799869,-1.325869,0.306413,-2.996167,-0.531291,-0.189004,0.103158,-0.924962,-0.301641,-0.231190,0.331288,0.245000,-0.029155,-52.175385,-12.879391,13.719727,,,,,,,
1537206811.809849,-1.326969,0.303273,-3.002034,-0.648798,-0.337670,0.190195,-0.926130,-0.298646,-0.230400,0.175779,0.302232,-0.074852,-52.175385,-12.879391,13.719727,,,,,,,
1537206811.819828,-1.330156,0.299304,-3.008477,-0.701189,-0.564679,0.250981,-0.928004,-0.294855,-0.227728,0.045832,0.322534,-0.089731,-51.489540,-13.373363,13.401001,,,,,,,
1537206811.829807,-1.335156,0.294996,-3.014616,-0.653920,-0.712186,0.287683,-0.930357,-0.290736,-0.223379,-0.083406,0.302364,-0.053690,-51.489540,-13.373363,13.401001,,,,,,,
1537206811.839786,-1.341205,0.290776,-3.019114,-0.456887,-0.733439,0.319740,-0.932878,-0.286696,-0.218025,-0.216612,0.277220,0.023033,-51.947662,-13.306717,13.827911,,,,,,,
1537206811.849766,-1.347640,0.287045,-3.020316,-0.102696,-0.655166,0.346156,-0.935298,-0.283120,-0.212253,-0.357427,0.226204,0.120700,-51.947662,-13.306717,13.827911,,,,,,,
1537206811.859745,-1.353837,0.283724,-3.017541,0.283449,-0.494780,0.401488,-0.937508,-0.279932,-0.206654,-0.480872,0.170451,0.171849,-50.705505,-12.682945,14.934326,,,,,,,
1537206811.869724,-1.359311,0.280113,-3.011030,0.612500,-0.323284,0.520539,-0.939608,-0.276465,-0.201730,-0.581907,0.129828,0.135278,-50.705505,-12.682945,14.934326,,,,,,,
1537206811.879703,-1.364348,0.275635,-3.001596,0.850403,-0.231324,0.664792,-0.941814,-0.272158,-0.197246,-0.650318,0.105441,0.041668,-51.401917,-12.097172,15.457977,,,,,,,
1537206811.889683,-1.369391,0.269998,-2.990038,1.016624,-0.187020,0.817238,-0.944285,-0.266730,-0.192798,-0.669423,0.087927,-0.033109,-51.401917,-12.097172,15.457977,,,,,,,
1537206811.899662,-1.374627,0.263036,-2.976886,1.135829,-0.167028,0.971581,-0.947080,-0.260014,-0.188208,-0.632708,0.074665,-0.034982,-50.922829,-10.073635,15.377991,,,,,,,
1537206811.909611,-1.379486,0.254933,-2.962625,1.223410,-0.107427,1.094758,-0.950021,-0.252180,-0.183999,-0.542868,0.042982,0.012933,-50.922829,-10.073635,15.377991,,,,,,,
1537206811.919590,-1.383652,0.245990,-2.947460,1.292258,-0.025404,1.172977,-0.952957,-0.243517,-0.180452,-0.414139,-0.009321,0.072908,-50.776871,-8.456793,16.512115,,,,,,,
1537206811.929569,-1.387653,0.236602,-2.932046,1.300467,-0.032848,1.206121,-0.955877,-0.234401,-0.177047,-0.279764,-0.057286,0.101394,-50.776871,-8.456793,16.512115,,,,,,,
1537206811.939548,-1.391614,0.227358,-2.916847,1.286959,-0.057437,1.160170,-0.958662,-0.225405,-0.173638,-0.159121,-0.108961,0.081353,-51.033920,-6.785641,16.102875,,,,,,,
1537206811.949528,-1.395728,0.218966,-2.902458,1.213209,-0.109622,1.043466,-0.961197,-0.217221,-0.170016,-0.033386,-0.160266,0.036166,-51.033920,-6.785641,16.102875,,,,,,,
1537206811.959507,-1.399679,0.211479,-2.889637,1.063797,-0.119765,0.929507,-0.963437,-0.209906,-0.166489,0.091947,-0.166635,-0.035309,-50.993866,-5.042639,16.429199,,,,,,,
1537206811.969486,-1.403137,0.204555,-2.879066,0.851240,-0.130597,0.836550,-0.965417,-0.203132,-0.163395,0.182046,-0.154702,-0.091686,-50.993866,-5.042639,16.429199,,,,,,,
1537206811.979465,-1.406168,0.198010,-2.870793,0.642757,-0.149950,0.761773,-0.967199,-0.196719,-0.160683,0.232793,-0.146116,-0.113289,-51.274948,-3.753559,16.887939,,,,,,,
1537206811.989445,-1.409206,0.191898,-2.864595,0.457713,-0.196129,0.682880,-0.968851,-0.190722,-0.157934,0.275949,-0.136121,-0.100916,-51.274948,-3.753559,16.887939,,,,,,,
1537206811.999424,-1.412984,0.186435,-2.860000,0.333418,-0.330221,0.586261,-0.970455,-0.185357,-0.154434,0.308453,-0.120475,-0.060776,-51.237259,-2.599606,16.712463,,,,,,,
1537206812.009403,-1.418416,0.181896,-2.856282,0.279427,-0.533028,0.480492,-0.972101,-0.180894,-0.149287,0.340494,-0.100294,-0.016592,-51.237259,-2.599606,16.712463,,,,,,,
1537206812.019382,-1.425570,0.178137,-2.852955,0.267952,-0.691148,0.404802,-0.973810,-0.177196,-0.142425,0.353892,-0.105412,0.015304,-50.697655,-2.246954,16.983002,,,,,,,
1537206812.029361,-1.434051,0.174840,-2.849451,0.308472,-0.817424,0.369926,-0.975557,-0.173951,-0.134240,0.330171,-0.125716,0.035913,-50.697655,-2.246954,16.983002,,,,,,,
,,,,,,,,,,,,,,,,42.293454,-71.264360,61.334167,0.000000,-1.000000,1537206811.998357,
1537206812.039310,-1.442914,0.171085,-2.845240,0.384479,-0.799468,0.463194,-0.977349,-0.170251,-0.125671,0.269448,-0.147986,0.034012,-50.546745,-1.208855,17.794830,,,,,,,
1537206812.049289,-1.450461,0.165564,-2.839766,0.501518,-0.612786,0.668598,-0.979188,-0.164809,-0.118403,0.169221,-0.186937,0.050837,-50.546745,-1.208855,17.794830,,,,,,,
1537206812.059269,-1.456702,0.158299,-2.832493,0.677350,-0.476655,0.847688,-0.981071,-0.157638,-0.112423,0.077354,-0.206436,0.067180,-50.244415,-0.314533,18.587952,,,,,,,
1537206812.069248,-1.461707,0.150030,-2.823402,0.840143,-0.317149,0.943423,-0.982884,-0.149468,-0.107649,0.037953,-0.167290,0.065749,-50.244415,-0.314533,18.587952,,,,,,,
1537206812.079227,-1.464642,0.140923,-2.813521,0.875091,-0.089706,1.038389,-0.984508,-0.140457,-0.104905,0.030773,-0.044021,0.072556,-50.021049,1.413866,17.718567,,,,,,,
1537206812.089206,-1.464644,0.130560,-2.804554,0.733926,0.189961,1.156886,-0.985903,-0.130189,-0.105051,0.003435,0.050752,0.090570,-50.021049,1.413866,17.718567,,,,,,,
1537206812.099186,-1.462367,0.119087,-2.797361,0.541624,0.341673,1.229331,-0.987081,-0.118806,-0.107450,-0.025751,0.101609,0.115750,-48.609978,3.066343,19.238098,,,,,,,
1537206812.109165,-1.459852,0.107679,-2.791781,0.401109,0.294259,1.180573,-0.988091,-0.107471,-0.110075,-0.038628,0.111255,0.155425,-48.609978,3.066343,19.238098,,,,,,,
1537206812.119144,-1.458527,0.097002,-2.786348,0.443032,0.157213,1.106220,-0.989028,-0.096850,-0.111506,-0.031144,0.090167,0.208277,-48.005478,4.512768,17.947571,,,,,,,
1537206812.129123,-1.457907,0.087086,-2.779399,0.631254,0.131545,1.050704,-0.989864,-0.086976,-0.112222,-0.039677,0.084382,0.267969,-48.005478,4.512768,17.947571,,,,,,,
1537206812.139103,-1.455991,0.078225,-2.770203,0.873716,0.322258,0.963241,-0.990374,-0.078145,-0.114202,-0.059339,0.059758,0.301610,-50.547691,6.167528,19.213562,,,,,,,
1537206812.149082,-1.451703,0.070711,-2.758857,1.088828,0.570716,0.849952,-0.990431,-0.070652,-0.118514,-0.052950,0.029087,0.271926,-50.547691,6.167528,19.213562,,,,,,,
1537206812.159061,-1.444850,0.064867,-2.746390,1.177389,0.828289,0.694330,-0.989988,-0.064821,-0.125349,-0.010134,0.017565,0.177305,-50.547691,6.167528,19.213562,,,,,,,
1537206812.169040,-1.436146,0.060812,-2.733928,1.177252,0.977387,0.522319,-0.989112,-0.060775,-0.133995,0.046439,-0.008867,0.059471,-49.582649,7.254667,17.104095,,,,,,,
1537206812.178989,-1.426786,0.058583,-2.722287,1.106492,1.014728,0.338294,-0.987946,-0.058549,-0.143266,0.088578,-0.032042,-0.055358,-49.582649,7.254667,17.104095,,,,,,,
1537206812.188962,-1.417451,0.057923,-2.711529,1.039490,0.995544,0.193840,-0.986604,-0.057891,-0.152488,0.090455,-0.052842,-0.132744,-49.872742,8.118547,15.837158,,,,,,,
1537206812.198942,-1.408537,0.058146,-2.701438,0.986624,0.932674,0.123162,-0.985193,-0.058114,-0.161274,0.038125,-0.074378,-0.159176,-49.872742,8.118547,15.837158,,,,,,,
1537206812.208921,-1.400492,0.058595,-2.691850,0.945883,0.834645,0.115566,-0.983838,-0.058561,-0.169191,-0.039401,-0.091173,-0.144469,-49.866875,9.056999,14.233429,,,,,,,
1537206812.218900,-1.393995,0.058788,-2.682420,0.930099,0.663991,0.156216,-0.982707,-0.058754,-0.175577,-0.117620,-0.110878,-0.100226,-49.866875,9.056999,14.233429,,,,,,,
1537206812.228879,-1.389165,0.058456,-2.672702,0.958902,0.500633,0.223789,-0.981866,-0.058422,-0.180325,-0.181159,-0.123661,-0.041782,-50.035530,9.839132,13.344330,,,,,,,
1537206812.238859,-1.385801,0.057548,-2.662330,1.021924,0.369126,0.293650,-0.981306,-0.057516,-0.183637,-0.218691,-0.139887,0.019284,-50.035530,9.839132,13.344330,,,,,,,
1537206812.248838,-1.383310,0.056351,-2.651063,1.105671,0.306848,0.333668,-0.980912,-0.056321,-0.186093,-0.229003,-0.152053,0.056180,-50.377930,10.637546,13.561829,,,,,,,
1537206812.258817,-1.380733,0.055098,-2.639046,1.172784,0.337502,0.354286,-0.980498,-0.055070,-0.188634,-0.221071,-0.168868,0.062169,-50.377930,10.637546,13.561829,,,,,,,
1537206812.268796,-1.376936,0.053841,-2.626479,1.221107,0.487815,0.365073,-0.979842,-0.053815,-0.192368,-0.220384,-0.200289,0.058350,-51.042351,11.637759,13.175873,,,,,,,
1537206812.278776,-1.371987,0.052898,-2.613616,1.247286,0.585832,0.332027,-0.978927,-0.052873,-0.197225,-0.218216,-0.239302,0.038335,-51.042351,11.637759,13.175873,,,,,,,
1537206812.288755,-1.366607,0.052723,-2.600973,1.226785,0.599629,0.245437,-0.977861,-0.052699,-0.202491,-0.203505,-0.286031,-0.006692,-50.277359,12.462821,12.161987,,,,,,,
1537206812.298734,-1.361624,0.053701,-2.589268,1.143596,0.544251,0.109472,-0.976789,-0.053675,-0.207351,-0.180255,-0.327154,-0.052461,-50.277359,12.462821,12.161987,,,,,,,
1537206812.308683,-1.357802,0.055746,-2.578491,1.038715,0.407873,-0.011587,-0.975880,-0.055717,-0.211059,-0.151577,-0.360451,-0.085359,-50.254623,13.106430,10.959167,,,,,,,
1537206812.318662,-1.355090,0.058838,-2.569244,0.947847,0.298094,-0.139005,-0.975131,-0.058804,-0.213666,-0.126447,-0.381549,-0.094531,-50.254623,13.106430,10.959167,,,,,,,
1537206812.328641,-1.353255,0.063016,-2.560448,0.900656,0.211609,-0.253393,-0.974489,-0.062974,-0.215400,-0.107817,-0.414839,-0.075356,-50.789406,13.464772,11.011261,,,,,,,
1537206812.338622,-1.352488,0.067924,-2.552457,0.881776,0.101592,-0.322766,-0.974010,-0.067872,-0.216078,-0.087361,-0.429061,-0.050630,-50.789406,13.464772,11.011261,,,,,,,
1537206812.348601,-1.352789,0.073172,-2.544407,0.849762,-0.001871,-0.352725,-0.973714,-0.073107,-0.215705,-0.065608,-0.410658,-0.036172,-50.549408,13.158013,10.238892,,,,,,,
1537206812.358579,-1.354032,0.078481,-2.537296,0.793107,-0.093428,-0.367888,-0.973588,-0.078401,-0.214408,-0.038008,-0.374938,-0.039880,-50.549408,13.158013,10.238892,,,,,,,
1537206812.368558,-1.356020,0.083624,-2.530508,0.699014,-0.165535,-0.367264,-0.973606,-0.083526,-0.212383,-0.009838,-0.326432,-0.055469,-50.583534,13.233778,9.617615,,,,,,,
1537206812.378539,-1.358378,0.088365,-2.525215,0.587774,-0.195868,-0.345429,-0.973706,-0.088250,-0.210001,0.005658,-0.269111,-0.067037,-50.583534,13.233778,9.617615,,,,,,,
1537206812.388518,-1.360853,0.092498,-2.520620,0.458280,-0.216460,-0.308758,-0.973858,-0.092366,-0.207512,0.009731,-0.219722,-0.054466,-50.716431,13.055553,9.948730,,,,,,,
1537206812.398497,-1.363422,0.096113,-2.517424,0.368374,-0.234081,-0.283613,-0.974055,-0.095965,-0.204940,0.010386,-0.179640,-0.026093,-50.716431,13.055553,9.948730,,,,,,,
1537206812.408475,-1.365723,0.099689,-2.514074,0.353718,-0.185994,-0.299754,-0.974181,-0.099524,-0.202627,0.026199,-0.155023,0.024466,-50.758011,12.482433,9.702637,,,,,,,
1537206812.418456,-1.367138,0.104062,-2.510701,0.455086,-0.076742,-0.383638,-0.974032,-0.103875,-0.201159,0.062410,-0.128227,0.090609,-50.758011,12.482433,9.702637,,,,,,,
1537206812.428435,-1.366026,0.109496,-2.505694,0.583579,0.230979,-0.457967,-0.973240,-0.109277,-0.202124,0.096989,-0.093131,0.149771,-50.554321,12.207019,9.181580,,,,,,,
