timestamp(unix),attitude_roll(radians),attitude_pitch(radians),attitude_yaw(radians),rotation_rate_x(radians/s),rotation_rate_y(radians/s),rotation_rate_z(radians/s),gravity_x(G),gravity_y(G),gravity_z(G),user_acc_x(G),user_acc_y(G),user_acc_z(G),magnetic_field_x(microteslas),magnetic_field_y(microteslas),magnetic_field_z(microteslas),latitude(degree),longitude(degree),altitude(meter),speed(m/s),course(degree),timestamp(unix),User Mark
1537207048.645886,0.127935,0.546051,2.796598,-0.374804,0.271479,0.627659,0.109033,-0.519317,-0.847597,-0.040353,0.040511,-0.037779,-30.808399,-37.400417,-40.237366,,,,,,,
1537207048.655865,0.126767,0.543269,2.804563,-0.366301,0.309904,0.642611,0.108225,-0.516937,-0.849154,-0.039652,0.037277,-0.033583,-30.720139,-36.497097,-40.713623,,,,,,,
,,,,,,,,,,,,,,,,42.293473,-71.264350,65.333740,-1.000000,-1.000000,1537207045.782617,
1537207048.665844,0.126177,0.540767,2.812688,-0.335346,0.383455,0.662988,0.107887,-0.514793,-0.850498,-0.043998,0.028969,-0.020275,-30.720139,-36.497097,-40.713623,,,,,,,
1537207048.675824,0.126168,0.538808,2.821062,-0.278913,0.450493,0.695253,0.108005,-0.513113,-0.851498,-0.048893,0.014838,-0.006107,-31.088753,-36.039127,-41.553772,,,,,,,
1537207048.685803,0.126485,0.537475,2.829724,-0.216145,0.489738,0.725449,0.108361,-0.511969,-0.852141,-0.052102,-0.002100,0.007201,-31.088753,-36.039127,-41.553772,,,,,,,
1537207048.695752,0.126810,0.536657,2.838630,-0.170512,0.498104,0.754512,0.108691,-0.511266,-0.852521,-0.051654,-0.019878,0.019986,-31.793022,-35.688984,-41.350830,,,,,,,
1537207048.705731,0.126999,0.536087,2.847787,-0.146169,0.493748,0.774930,0.108890,-0.510776,-0.852790,-0.049106,-0.035459,0.029593,-31.793022,-35.688984,-41.350830,,,,,,,
1537207048.715710,0.126869,0.535540,2.857146,-0.150677,0.467120,0.793079,0.108814,-0.510305,-0.853081,-0.047291,-0.050837,0.038368,-31.950970,-34.826523,-40.887665,,,,,,,
1537207048.725689,0.126390,0.534738,2.866747,-0.183975,0.447049,0.811064,0.108457,-0.509616,-0.853538,-0.048811,-0.058622,0.042595,-31.950970,-34.826523,-40.887665,,,,,,,
1537207048.735669,0.125673,0.533605,2.876554,-0.220427,0.432326,0.825823,0.107917,-0.508640,-0.854188,-0.049842,-0.059506,0.042421,-31.343182,-34.179264,-42.240295,,,,,,,
1537207048.745648,0.124808,0.532217,2.886559,-0.247243,0.429295,0.840623,0.107266,-0.507445,-0.854981,-0.052274,-0.057893,0.035401,-31.343182,-34.179264,-42.240295,,,,,,,
1537207048.755627,0.123810,0.530786,2.896820,-0.250666,0.427229,0.864090,0.106502,-0.506211,-0.855807,-0.056606,-0.060271,0.025775,-31.960323,-33.758949,-42.462158,,,,,,,
1537207048.765606,0.122701,0.529508,2.907350,-0.233811,0.433603,0.888729,0.105632,-0.505108,-0.856566,-0.061976,-0.059482,0.013076,-31.960323,-33.758949,-42.462158,,,,,,,
1537207048.775586,0.121749,0.528599,2.918033,-0.198698,0.456946,0.905977,0.104872,-0.504324,-0.857122,-0.062697,-0.061015,0.004461,-32.402275,-32.951698,-42.264984,,,,,,,
1537207048.785565,0.121025,0.528202,2.928816,-0.147540,0.481260,0.920108,0.104276,-0.503981,-0.857396,-0.060575,-0.073549,-0.005763,-32.402275,-32.951698,-42.264984,,,,,,,
1537207048.795544,0.120228,0.528382,2.939543,-0.093178,0.456414,0.918296,0.103582,-0.504137,-0.857389,-0.070302,-0.057463,-0.027118,-32.338531,-32.273773,-42.303802,,,,,,,
1537207048.805523,0.119225,0.529050,2.950183,-0.043081,0.439068,0.918588,0.102681,-0.504714,-0.857158,-0.082036,-0.029024,-0.048757,-32.338531,-32.273773,-42.303802,,,,,,,
1537207048.815503,0.118266,0.530285,2.960690,0.018879,0.439792,0.910388,0.101786,-0.505779,-0.856636,-0.077006,-0.034840,-0.061607,-31.559977,-31.678566,-44.372681,,,,,,,
1537207048.825482,0.117256,0.531860,2.970862,0.050041,0.410730,0.877498,0.100828,-0.507137,-0.855947,-0.067777,-0.049412,-0.080379,-31.559977,-31.678566,-44.372681,,,,,,,
1537207048.835461,0.115895,0.533421,2.980626,0.045926,0.347681,0.842313,0.099571,-0.508482,-0.855295,-0.072105,-0.042940,-0.103994,-32.239719,-31.401344,-44.125122,,,,,,,
1537207048.845410,0.113866,0.534657,2.990061,0.012884,0.265582,0.814461,0.097763,-0.509546,-0.854870,-0.085465,-0.019537,-0.126239,-32.239719,-31.401344,-44.125122,,,,,,,
1537207048.855389,0.111250,0.535475,2.999367,-0.024467,0.208089,0.798303,0.095480,-0.510250,-0.854709,-0.087286,0.000042,-0.139020,-32.739552,-31.113617,-42.698364,,,,,,,
1537207048.865368,0.108624,0.535960,3.008534,-0.049910,0.216733,0.782146,0.093209,-0.510667,-0.854710,-0.078560,0.011598,-0.139659,-32.739552,-31.113617,-42.698364,,,,,,,
1537207048.875348,0.106501,0.536310,3.017575,-0.049646,0.273293,0.770348,0.091375,-0.510968,-0.854729,-0.068639,0.027737,-0.138191,-32.213696,-30.382442,-44.193329,,,,,,,
1537207048.885327,0.105084,0.536821,3.026481,-0.020581,0.337180,0.761902,0.090137,-0.511407,-0.854597,-0.057712,0.043725,-0.133669,-32.213696,-30.382442,-44.193329,,,,,,,
1537207048.895306,0.104544,0.537774,3.035265,0.029785,0.414854,0.761032,0.089624,-0.512226,-0.854161,-0.044519,0.057544,-0.118663,-32.507263,-30.154156,-44.566986,,,,,,,
1537207048.905285,0.104756,0.539502,3.043902,0.118574,0.478432,0.755048,0.089713,-0.513709,-0.853261,-0.031165,0.069968,-0.092678,-32.507263,-30.154156,-44.566986,,,,,,,
1537207048.915265,0.105490,0.542095,3.052294,0.203111,0.513185,0.738398,0.090198,-0.515932,-0.851867,-0.019977,0.074343,-0.058061,-32.883823,-30.030838,-43.469421,,,,,,,
1537207048.925244,0.106451,0.545421,3.060298,0.274845,0.506339,0.708911,0.090834,-0.518778,-0.850069,-0.008436,0.074793,-0.026457,-32.883823,-30.030838,-43.469421,,,,,,,
1537207048.935223,0.107352,0.549188,3.067769,0.315706,0.468656,0.663273,0.091390,-0.521995,-0.848037,0.006388,0.068138,0.001327,-32.907375,-29.806438,-43.285278,,,,,,,
1537207048.945202,0.108032,0.553035,3.074667,0.335322,0.428925,0.606846,0.091749,-0.525272,-0.845973,0.015886,0.061741,0.020442,-32.907375,-29.806438,-43.285278,,,,,,,
1537207048.955182,0.108686,0.556727,3.080908,0.324033,0.401101,0.550238,0.092092,-0.528410,-0.843979,0.019252,0.053709,0.024841,-32.526184,-29.594376,-44.556519,,,,,,,
1537207048.965161,0.109565,0.560015,3.086534,0.284009,0.394776,0.492381,0.092643,-0.531199,-0.842166,0.022454,0.047511,0.025699,-32.526184,-29.594376,-44.556519,,,,,,,
1537207048.975140,0.110506,0.562645,3.091599,0.218252,0.364046,0.440814,0.093281,-0.533425,-0.840687,0.029735,0.042901,0.021565,-32.648369,-29.609898,-43.748444,,,,,,,
1537207048.985089,0.111598,0.564449,3.096169,0.142934,0.362204,0.392370,0.094091,-0.534950,-0.839627,0.022394,0.038887,0.008694,-32.648369,-29.609898,-43.748444,,,,,,,
1537207048.995068,0.113244,0.565687,3.100244,0.100813,0.406096,0.345126,0.095398,-0.535996,-0.838812,0.004150,0.037369,0.006140,-32.904186,-29.160301,-43.080322,,,,,,,
1537207049.005047,0.116964,0.566751,3.104023,0.088926,0.657006,0.321320,0.098452,-0.536894,-0.837885,0.022352,0.044859,-0.004934,-32.904186,-29.160301,-43.080322,,,,,,,
1537207049.015027,0.121888,0.567801,3.107462,0.090218,0.670835,0.301032,0.102508,-0.537779,-0.836830,0.053315,0.058028,-0.068581,-31.500032,-28.884628,-44.143280,,,,,,,
1537207049.025006,0.126266,0.569473,3.111104,0.167585,0.629955,0.344198,0.106057,-0.539188,-0.835480,0.059868,0.066578,-0.085190,-31.500032,-28.884628,-44.143280,,,,,,,
1537207049.034985,0.130155,0.572847,3.115894,0.340244,0.662465,0.489218,0.109069,-0.542027,-0.833252,0.058030,0.091374,-0.069671,-31.348152,-29.021988,-44.875092,,,,,,,
1537207049.044964,0.134292,0.578425,3.123750,0.518143,0.919580,0.827247,0.112108,-0.546706,-0.829785,0.085112,0.149108,-0.054477,-31.348152,-29.021988,-44.875092,,,,,,,
1537207049.054944,0.139087,0.585660,3.135750,0.598928,1.194307,1.172198,0.115534,-0.552749,-0.825299,0.160131,0.220474,-0.088702,-31.282173,-29.310440,-44.340118,,,,,,,
1537207049.064923,0.144063,0.592908,-3.132577,0.511131,1.372447,1.373286,0.119062,-0.558775,-0.820727,0.209735,0.209089,-0.121030,-31.282173,-29.310440,-44.340118,,,,,,,
1537207049.074902,0.149703,0.598537,-3.115639,0.291778,1.566058,1.498913,0.123217,-0.563435,-0.816919,0.217329,0.176197,-0.100698,-30.779875,-28.560253,-44.272705,,,,,,,
1537207049.084881,0.156436,0.601753,-3.097115,0.014173,1.771624,1.582576,0.128431,-0.566088,-0.814278,0.194475,0.168093,-0.071007,-30.779875,-28.560253,-44.272705,,,,,,,
1537207049.094861,0.164285,0.602495,-3.077217,-0.253740,1.958956,1.650301,0.134750,-0.566700,-0.812829,0.178330,0.149067,-0.038107,-29.337708,-27.752842,-46.276550,,,,,,,
1537207049.104840,0.172901,0.601036,-3.056260,-0.492771,2.078815,1.688368,0.141891,-0.565497,-0.812452,0.175324,0.129431,-0.010164,-29.337708,-27.752842,-46.276550,,,,,,,
1537207049.114819,0.182063,0.597674,-3.034722,-0.691093,2.150340,1.695747,0.149672,-0.562721,-0.812983,0.177446,0.110359,0.005656,-28.724174,-26.361366,-47.179169,,,,,,,
1537207049.124768,0.191592,0.593146,-3.012962,-0.805094,2.192566,1.691874,0.157895,-0.558973,-0.814013,0.172305,0.097913,0.035708,-28.724174,-26.361366,-47.179169,,,,,,,
1537207049.134747,0.201142,0.588274,-2.991070,-0.839327,2.166058,1.693848,0.166204,-0.554926,-0.815127,0.172679,0.096903,0.058658,-27.320755,-24.977394,-47.630310,,,,,,,
1537207049.144726,0.209642,0.583903,-2.969047,-0.786584,2.034515,1.719890,0.173629,-0.551285,-0.816049,0.171143,0.094284,0.074228,-27.320755,-24.977394,-47.630310,,,,,,,
1537207049.154705,0.216405,0.580453,-2.946812,-0.714836,1.858047,1.754621,0.179552,-0.548403,-0.816709,0.161772,0.094561,0.092176,-26.021635,-23.292812,-49.199738,,,,,,,
1537207049.164685,0.221090,0.577893,-2.924379,-0.641056,1.645267,1.790465,0.183683,-0.546260,-0.817226,0.153078,0.094051,0.105312,-26.021635,-23.292812,-49.199738,,,,,,,
1537207049.174664,0.223410,0.576140,-2.901665,-0.578047,1.419748,1.832669,0.185791,-0.544791,-0.817731,0.143829,0.092169,0.114133,-26.021635,-23.292812,-49.199738,,,,,,,
1537207049.184643,0.223691,0.574843,-2.878628,-0.554312,1.246739,1.868202,0.186177,-0.543703,-0.818366,0.128307,0.094728,0.118247,-24.905317,-21.907162,-49.929871,,,,,,,
1537207049.194622,0.223053,0.573591,-2.855116,-0.563349,1.225538,1.916209,0.185806,-0.542652,-0.819148,0.112839,0.091968,0.139827,-24.905317,-21.907162,-49.929871,,,,,,,
1537207049.204602,0.222840,0.572023,-2.830953,-0.623242,1.308153,1.956360,0.185819,-0.541334,-0.820017,0.096866,0.074782,0.166650,-24.433529,-20.668629,-50.485077,,,,,,,
1537207049.214581,0.223473,0.569508,-2.806555,-0.727368,1.417571,1.941801,0.186639,-0.539217,-0.821224,0.069190,0.095980,0.164547,-24.433529,-20.668629,-50.485077,,,,,,,
1537207049.224560,0.225515,0.565932,-2.782356,-0.828071,1.535463,1.906968,0.188745,-0.536203,-0.822715,0.050116,0.107263,0.174445,-23.814386,-19.335865,-50.494873,,,,,,,
1537207049.234539,0.228283,0.561398,-2.758134,-0.930261,1.579747,1.894620,0.191570,-0.532370,-0.824549,0.053090,0.080893,0.169825,-23.814386,-19.335865,-50.494873,,,,,,,
1537207049.244519,0.230389,0.555793,-2.734033,-1.039095,1.447847,1.854665,0.193984,-0.527617,-0.827036,0.036912,0.083601,0.149867,-22.723793,-17.480236,-51.268768,,,,,,,
1537207049.254498,0.231819,0.549102,-2.711530,-1.094934,1.306693,1.620730,0.195974,-0.521922,-0.830175,-0.022466,0.068873,0.136480,-22.723793,-17.480236,-51.268768,,,,,,,
1537207049.264477,0.238417,0.542663,-2.696056,-0.865858,1.499552,1.018682,0.202236,-0.516418,-0.832113,-0.210720,-0.042115,0.113943,-20.874750,-16.093945,-53.360077,,,,,,,
1537207049.274426,0.246850,0.538814,-2.686208,-0.475525,1.276692,0.623957,0.209730,-0.513119,-0.832299,-0.257002,-0.204045,-0.063529,-20.874750,-16.093945,-53.360077,,,,,,,
1537207049.284405,0.252048,0.537271,-2.808529,-0.247394,0.674044,0.466768,0.214251,-0.511793,-0.831963,-0.221560,-0.220354,-0.099372,-20.006042,-14.941006,-53.375183,,,,,,,
1537207049.294384,0.251613,0.535821,-2.801414,-0.322265,0.236956,0.588489,0.214074,-0.510547,-0.832774,-0.104088,-0.026608,0.071559,-20.006042,-14.941006,-53.375183,,,,,,,
1537207049.304364,0.250498,0.533765,-2.794795,-0.384307,0.399712,0.654165,0.213404,-0.508779,-0.834027,0.010915,0.087575,0.137509,-20.465466,-14.586819,-53.640442,,,,,,,
1537207049.314343,0.252414,0.530377,-2.785745,-0.589545,0.729689,0.678324,0.215431,-0.505858,-0.835282,0.046196,0.064513,0.101486,-20.465466,-14.586819,-53.640442,,,,,,,
1537207049.324322,0.256286,0.523554,-2.780001,-1.010869,0.979740,0.739807,0.219534,-0.499961,-0.837760,0.044870,0.033744,0.057746,-19.628834,-13.885948,-52.774689,,,,,,,
1537207049.334301,0.259551,0.512694,-2.767036,-1.422884,0.888186,0.847586,0.223649,-0.490527,-0.842237,0.078719,-0.009580,0.028959,-19.628834,-13.885948,-52.774689,,,,,,,
1537207049.344281,0.260312,0.500230,-2.754684,-1.592119,0.887352,1.033465,0.225845,-0.479627,-0.847910,0.145462,-0.044726,0.010202,-18.505070,-12.142319,-53.816650,,,,,,,
1537207049.354260,0.260872,0.488106,-2.738333,-1.506413,0.800533,1.085261,0.227804,-0.468954,-0.853338,0.134074,0.008367,0.017081,-18.505070,-12.142319,-53.816650,,,,,,,
1537207049.364239,0.261602,0.477772,-2.726909,-1.294585,0.786461,1.019186,0.229668,-0.459802,-0.857808,0.120186,0.030236,-0.024288,-17.825468,-10.491035,-54.823425,,,,,,,
1537207049.374218,0.262177,0.469282,-2.713413,-1.080743,0.618562,0.920189,0.231164,-0.452246,-0.861415,0.118094,0.038992,-0.007222,-17.825468,-10.491035,-54.823425,,,,,,,
1537207049.384198,0.261363,0.462705,-2.703920,-0.870834,0.436970,0.895907,0.231226,-0.446370,-0.864458,0.154928,0.023900,-0.003539,-17.557457,-8.863873,-55.044739,,,,,,,
1537207049.394165,0.259860,0.457940,-2.692202,-0.690670,0.361272,0.889500,0.230471,-0.442102,-0.866850,0.139265,0.018853,0.037107,-17.557457,-8.863873,-55.044739,,,,,,,
1537207049.404144,0.258435,0.454523,-2.683786,-0.549528,0.328402,0.847607,0.229620,-0.439034,-0.868633,0.134149,0.037209,0.026912,-16.885101,-7.936956,-54.709991,,,,,,,
1537207049.414093,0.257034,0.452086,-2.673891,-0.443469,0.279665,0.786326,0.228674,-0.436843,-0.869986,0.122339,0.027999,0.001028,-16.885101,-7.936956,-54.709991,,,,,,,
1537207049.424072,0.255566,0.449954,-2.666942,-0.406645,0.233404,0.711857,0.227632,-0.434924,-0.871220,0.112975,0.006945,-0.019359,-16.118111,-7.263119,-55.421143,,,,,,,
1537207049.434051,0.254181,0.447755,-2.658867,-0.396356,0.210751,0.630810,0.226665,-0.432943,-0.872458,0.097340,0.002248,-0.023996,-16.118111,-7.263119,-55.421143,,,,,,,
1537207049.444031,0.253136,0.445369,-2.653363,-0.394590,0.208437,0.555031,0.226011,-0.430791,-0.873692,0.070818,0.002400,-0.005931,-16.378437,-6.665493,-55.144348,,,,,,,
1537207049.454010,0.252242,0.442876,-2.646742,-0.389965,0.191234,0.511309,0.225497,-0.428540,-0.874931,0.043881,-0.004077,0.015769,-16.378437,-6.665493,-55.144348,,,,,,,
1537207049.463989,0.251480,0.440544,-2.641690,-0.357711,0.196348,0.485862,0.225079,-0.426431,-0.876068,0.022907,-0.001105,0.038833,-16.315758,-5.982731,-54.525665,,,,,,,
1537207049.473968,0.250779,0.438616,-2.635464,-0.321623,0.200476,0.507405,0.224668,-0.424687,-0.877020,0.005450,0.003880,0.060095,-16.315758,-5.982731,-54.525665,,,,,,,
1537207049.483948,0.250333,0.437108,-2.629480,-0.281351,0.254815,0.553470,0.224435,-0.423321,-0.877740,-0.011712,-0.005283,0.086755,-15.836145,-5.566465,-55.123383,,,,,,,
1537207049.493927,0.250775,0.436465,-2.622718,-0.187495,0.355825,0.586974,0.224891,-0.422739,-0.877904,-0.022468,0.001642,0.147130,-15.836145,-5.566465,-55.123383,,,,,,,
1537207049.503906,0.252285,0.437187,-2.617013,-0.044484,0.464035,0.615400,0.226139,-0.423393,-0.877268,-0.032780,0.030097,0.201929,-15.253274,-5.317350,-55.699677,,,,,,,
1537207049.513885,0.254645,0.439350,-2.610481,0.095307,0.525261,0.631049,0.227978,-0.425352,-0.875843,-0.038906,0.068357,0.230229,-15.253274,-5.317350,-55.699677,,,,,,,
1537207049.523865,0.257451,0.442722,-2.605192,0.209474,0.551371,0.636990,0.230068,-0.428400,-0.873808,-0.045162,0.104258,0.240385,-15.007222,-5.182362,-55.830048,,,,,,,
1537207049.533844,0.260496,0.447289,-2.598795,0.324287,0.592533,0.694153,0.232221,-0.432523,-0.871204,-0.063093,0.121946,0.255359,-15.007222,-5.182362,-55.830048,,,,,,,
1537207049.543823,0.263654,0.453544,-2.591569,0.476815,0.643278,0.829437,0.234262,-0.438154,-0.867837,-0.083597,0.121031,0.273919,-14.014657,-5.318388,-55.450317,,,,,,,
1537207049.553802,0.265864,0.461737,-2.581982,0.593686,0.651835,1.116147,0.235229,-0.445504,-0.863824,-0.093673,0.035195,0.273050,-14.014657,-5.318388,-55.450317,,,,,,,
1537207049.563751,0.267044,0.471257,-2.570702,0.649268,0.665914,1.340601,0.235118,-0.454007,-0.859417,-0.045070,0.040295,0.304897,-13.558558,-5.857269,-55.723724,,,,,,,
1537207049.573730,0.267580,0.481572,-2.556667,0.672291,0.706752,1.516816,0.234328,-0.463173,-0.854728,-0.017607,0.066277,0.354042,-13.558558,-5.857269,-55.723724,,,,,,,
1537207049.583710,0.267657,0.492302,-2.541562,0.678134,0.729290,1.584074,0.233065,-0.472656,-0.849868,0.037443,0.076340,0.354476,-12.319202,-6.213947,-56.577637,,,,,,,
1537207049.593689,0.268633,0.501166,-2.526538,0.438271,0.847772,1.482298,0.232774,-0.480449,-0.845568,0.150267,0.101313,0.266665,-12.319202,-6.213947,-56.577637,,,,,,,
1537207049.603668,0.270864,0.507218,-2.511901,0.192296,0.938441,1.339956,0.233877,-0.485747,-0.842229,0.222498,0.099089,0.238897,-11.828725,-6.319904,-56.594025,,,,,,,
1537207049.613647,0.273824,0.511479,-2.498972,0.097877,0.913983,1.159063,0.235807,-0.489468,-0.839533,0.288698,0.085415,0.274988,-11.828725,-6.319904,-56.594025,,,,,,,
1537207049.623627,0.276479,0.515766,-2.487286,0.176712,0.776589,1.016594,0.237461,-0.493201,-0.836878,0.346233,0.091346,0.309229,-10.954933,-6.129763,-56.492859,,,,,,,
1537207049.633606,0.279791,0.521248,-2.477472,0.352198,0.818280,0.973749,0.239481,-0.497963,-0.833475,0.348761,0.111122,0.348139,-10.954933,-6.129763,-56.492859,,,,,,,
1537207049.643585,0.283889,0.529235,-2.467288,0.571506,0.966816,1.068740,0.241773,-0.504873,-0.828642,0.344531,0.110067,0.282973,-9.358885,-6.366520,-57.078705,,,,,,,
1537207049.653564,0.290831,0.538871,-2.455316,0.645054,1.469904,1.340834,0.246113,-0.513168,-0.822245,0.296627,0.102920,0.091364,-9.358885,-6.366520,-57.078705,,,,,,,
1537207049.663544,0.305313,0.548844,-2.439591,0.504258,2.567855,1.661320,0.256443,-0.521702,-0.813673,0.254299,0.056354,-0.116320,-7.965648,-7.166822,-57.525085,,,,,,,
1537207049.673523,0.326366,0.554673,-2.418148,-0.242534,3.344455,2.000156,0.272536,-0.526665,-0.805200,0.233613,0.029808,-0.489874,-7.965648,-7.166822,-57.525085,,,,,,,
1537207049.683502,0.342805,0.553330,-2.391418,-1.045991,2.921851,2.112528,0.285973,-0.525523,-0.801276,0.426338,0.098109,-0.817910,-4.368717,-6.284678,-56.871429,,,,,,,
1537207049.693481,0.358953,0.547985,-2.364202,-1.348007,3.141965,1.954800,0.299856,-0.520968,-0.799173,0.609690,0.169345,-0.503973,-4.368717,-6.284678,-56.871429,,,,,,,
1537207049.703430,0.378618,0.542319,-2.338616,-1.298127,3.349589,1.815024,0.316598,-0.516124,-0.795852,0.643118,0.151576,-0.306077,-4.368717,-6.284678,-56.871429,,,,,,,
1537207049.713409,0.400330,0.538261,-2.313809,-1.148592,3.487652,1.838121,0.334616,-0.512644,-0.790713,0.583276,0.104471,-0.406781,-0.240753,-5.112589,-56.694489,,,,,,,
1537207049.723389,0.422903,0.535846,-2.287331,-1.145855,3.669628,2.056782,0.352885,-0.510569,-0.784086,0.490484,0.060617,-0.530687,-0.240753,-5.112589,-56.694489,,,,,,,
1537207049.733368,0.444989,0.534427,-2.257076,-1.259673,3.758513,2.392315,0.370426,-0.509348,-0.776755,0.474087,0.000452,-0.632913,4.152248,-3.938046,-57.447144,,,,,,,
1537207049.743347,0.460542,0.533395,-2.222501,-1.457508,3.086532,2.704673,0.382695,-0.508460,-0.771370,0.591304,-0.061792,-0.775474,4.152248,-3.938046,-57.447144,,,,,,,
1537207049.753326,0.467572,0.532464,-2.183961,-1.584462,2.607444,3.023629,0.388321,-0.507658,-0.769083,0.631820,-0.076494,-0.758825,7.739687,-3.250443,-56.149872,,,,,,,
1537207049.763306,0.470799,0.532971,-2.142206,-1.580052,2.370969,3.285417,0.390685,-0.508095,-0.767596,0.487199,-0.072410,-0.481549,7.739687,-3.250443,-56.149872,,,,,,,
1537207049.773285,0.470903,0.534092,-2.099872,-1.548796,2.115642,3.291184,0.390506,-0.509060,-0.767048,0.539106,-0.010212,-0.467937,10.955484,-2.119616,-54.495880,,,,,,,
1537207049.783264,0.468532,0.532726,-2.060486,-1.670783,1.703218,2.859686,0.389000,-0.507883,-0.768591,0.610222,0.124735,-0.575998,10.955484,-2.119616,-54.495880,,,,,,,
1537207049.793243,0.465757,0.531331,-2.025235,-1.429875,1.446154,2.576259,0.387183,-0.506681,-0.770300,0.435250,0.190321,-0.409632,13.244436,-1.279512,-53.750305,,,,,,,
1537207049.803223,0.463179,0.531384,-1.994077,-1.120306,1.276500,2.393460,0.385184,-0.506727,-0.771271,0.302926,0.211668,-0.292938,13.244436,-1.279512,-53.750305,,,,,,,
1537207049.813202,0.458858,0.534189,-1.964399,-0.812960,1.022985,2.426359,0.381216,-0.509143,-0.771652,0.177209,0.139636,-0.260697,15.728216,-0.906633,-53.558685,,,,,,,
1537207049.823181,0.453964,0.539401,-1.935912,-0.547497,0.969288,2.432140,0.376267,-0.513622,-0.771112,0.111251,0.046321,-0.217398,15.728216,-0.906633,-53.558685,,,,,,,
1537207049.833160,0.449986,0.546640,-1.905170,-0.323317,1.043934,2.440767,0.371569,-0.519820,-0.769235,0.076001,0.073165,-0.144522,16.963572,-1.199398,-53.279999,,,,,,,
1537207049.843140,0.446991,0.555685,-1.878199,-0.138833,1.133795,2.479045,0.367217,-0.527525,-0.766073,0.023362,0.119246,-0.068583,16.963572,-1.199398,-53.279999,,,,,,,
1537207049.853088,0.444598,0.566206,-1.847561,0.014724,1.207793,2.509701,0.362975,-0.536434,-0.761897,-0.046172,0.107814,-0.014394,18.434572,-1.930084,-52.582214,,,,,,,
1537207049.863068,0.443169,0.577942,-1.821243,0.140940,1.309619,2.504955,0.359161,-0.546302,-0.756675,-0.105514,0.107627,0.046592,18.434572,-1.930084,-52.582214,,,,,,,
1537207049.873047,0.442913,0.590410,-1.791126,0.218333,1.434076,2.479635,0.356021,-0.556702,-0.750554,-0.138186,0.130753,0.108555,20.124601,-3.017534,-51.799866,,,,,,,
1537207049.883026,0.444003,0.602954,-1.765606,0.225522,1.587696,2.440022,0.353811,-0.567078,-0.743800,-0.158101,0.158585,0.152644,20.124601,-3.017534,-51.799866,,,,,,,
1537207049.893005,0.446603,0.615169,-1.735615,0.199689,1.760708,2.400210,0.352725,-0.577096,-0.736575,-0.176395,0.180795,0.189517,22.269747,-4.639851,-50.931610,,,,,,,
1537207049.902985,0.450527,0.626871,-1.710308,0.154603,1.901783,2.356055,0.352648,-0.586614,-0.729056,-0.188326,0.195012,0.222662,22.269747,-4.639851,-50.931610,,,,,,,
1537207049.912964,0.455868,0.638248,-1.680305,0.136246,2.063002,2.312025,0.353576,-0.595789,-0.721123,-0.200652,0.205836,0.265510,24.344305,-6.374088,-50.403687,,,,,,,
1537207049.922943,0.463019,0.649790,-1.655637,0.173356,2.247441,2.274685,0.355628,-0.605019,-0.712375,-0.232993,0.215630,0.316624,24.344305,-6.374088,-50.403687,,,,,,,
1537207049.932922,0.471911,0.661864,-1.627770,0.255408,2.349344,2.200311,0.358601,-0.614588,-0.702627,-0.291920,0.213816,0.358053,25.876036,-7.790695,-48.226929,,,,,,,
1537207049.942902,0.481477,0.674616,-1.605564,0.361728,2.325111,2.119788,0.361647,-0.624597,-0.692162,-0.360289,0.211588,0.404351,25.876036,-7.790695,-48.226929,,,,,,,
1537207049.952881,0.491006,0.688196,-1.580321,0.481741,2.228204,2.035148,0.364193,-0.635144,-0.681141,-0.422222,0.223783,0.473973,28.306684,-9.181273,-46.308319,,,,,,,
1537207049.962860,0.499832,0.702620,-1.561245,0.606788,2.069376,1.964477,0.365761,-0.646219,-0.669789,-0.473717,0.223337,0.548131,28.306684,-9.181273,-46.308319,,,,,,,
1537207049.972839,0.507820,0.718370,-1.538523,0.765512,1.935054,1.951607,0.366105,-0.658158,-0.657870,-0.502671,0.189897,0.661746,30.864763,-11.195553,-45.598389,,,,,,,
1537207049.982818,0.514855,0.735610,-1.520803,0.873546,1.888735,2.023766,0.365082,-0.671040,-0.645305,-0.543365,0.116581,0.788204,30.864763,-11.195553,-45.598389,,,,,,,
1537207049.992767,0.524115,0.752898,-1.497445,0.808583,2.312938,2.020845,0.365180,-0.683756,-0.631758,-0.591941,0.065333,0.953307,32.191719,-13.506210,-44.329193,,,,,,,
1537207050.002746,0.540088,0.766878,-1.478624,0.378270,3.106999,1.830875,0.370273,-0.693891,-0.617586,-0.617450,0.081388,1.072420,32.191719,-13.506210,-44.329193,,,,,,,
1537207050.012726,0.563502,0.773394,-1.453260,-0.414215,3.958127,1.478743,0.382207,-0.698568,-0.604912,-0.622671,0.138250,1.059624,34.552109,-14.733551,-41.432404,,,,,,,
1537207050.022705,0.592308,0.770728,-1.431333,-1.308316,4.529935,1.071897,0.400510,-0.696658,-0.595196,-0.578366,0.210406,1.003918,34.552109,-14.733551,-41.432404,,,,,,,
1537207050.032684,0.623703,0.759753,-1.402677,-2.050720,4.871454,0.691734,0.423435,-0.688742,-0.588502,-0.492924,0.213614,0.904710,38.398270,-14.802166,-38.118744,,,,,,,
1537207050.042663,0.656024,0.742849,-1.377183,-2.609126,4.994450,0.424886,0.449270,-0.676389,-0.583654,-0.392691,0.170743,0.803991,38.398270,-14.802166,-38.118744,,,,,,,
1537207050.052643,0.685785,0.721147,-1.343575,-3.151196,4.809029,0.261982,0.475624,-0.660246,-0.581253,-0.305672,0.147444,0.623855,42.808296,-13.351734,-35.313843,,,,,,,
1537207050.062622,0.710356,0.695125,-1.312038,-3.668486,4.408930,0.125050,0.500797,-0.640482,-0.582223,-0.217335,0.157999,0.479974,42.808296,-13.351734,-35.313843,,,,,,,
1537207050.072601,0.728869,0.664350,-1.271606,-4.231393,3.891489,-0.074993,0.524373,-0.616548,-0.587281,-0.140340,0.164155,0.375047,46.121674,-11.297028,-31.854736,,,,,,,
1537207050.082580,0.741001,0.627553,-1.234064,-4.934983,3.349111,-0.299265,0.546411,-0.587165,-0.597218,-0.058420,0.183143,0.282735,46.121674,-11.297028,-31.854736,,,,,,,
1537207050.092560,0.747017,0.584043,-1.185645,-5.765079,2.901558,-0.429326,0.566827,-0.551401,-0.612097,0.031287,0.227487,0.199530,48.586945,-7.995754,-29.333954,,,,,,,
1537207050.102539,0.749052,0.534614,-1.138785,-6.508109,2.650227,-0.454499,0.585929,-0.509509,-0.630148,0.110726,0.291079,0.124166,48.586945,-7.995754,-29.333954,,,,,,,
1537207050.112518,0.751490,0.481046,-1.082544,-6.974789,2.679239,-0.514731,0.605246,-0.462706,-0.647749,0.224710,0.381392,0.055388,50.654633,-3.997900,-26.208893,,,,,,,
1537207050.122497,0.758065,0.424826,-1.033577,-7.157245,2.844226,-0.697362,0.626404,-0.412162,-0.661619,0.386322,0.500404,-0.050631,50.654633,-3.997900,-26.208893,,,,,,,
1537207050.132477,0.768066,0.367201,-0.979317,-7.154430,2.773283,-0.907563,0.648430,-0.359005,-0.671306,0.524147,0.580089,-0.198673,52.775253,0.033243,-22.844849,,,,,,,
1537207050.142425,0.777716,0.310200,-0.933756,-7.107723,2.380183,-0.881293,0.668165,-0.305250,-0.678511,0.613390,0.582258,-0.344972,52.775253,0.033243,-22.844849,,,,,,,
1537207050.152405,0.785547,0.255600,-0.878826,-7.040302,2.011138,-0.550707,0.684236,-0.252826,-0.684032,0.647460,0.558902,-0.424428,53.781380,3.530027,-18.921783,,,,,,,
1537207050.162384,0.792589,0.206276,-0.830761,-6.699667,1.744525,-0.083158,0.697075,-0.204817,-0.687121,0.672401,0.552519,-0.446958,53.781380,3.530027,-18.921783,,,,,,,
1537207050.172363,0.799572,0.165169,-0.775430,-5.984743,1.510180,0.416299,0.707298,-0.164419,-0.687528,0.701027,0.548467,-0.455234,54.813316,5.238174,-15.628296,,,,,,,
1537207050.182342,0.806795,0.134110,-0.731532,-5.051807,1.340844,0.895539,0.715589,-0.133709,-0.685604,0.712237,0.575771,-0.464680,54.813316,5.238174,-15.628296,,,,,,,
1537207050.192322,0.814566,0.112965,-0.683887,-4.042705,1.246608,1.237418,0.722791,-0.112725,-0.681810,0.723956,0.632714,-0.469175,55.510056,5.440344,-13.162659,,,,,,,
1537207050.202301,0.823586,0.100833,-0.650083,-3.045023,1.283514,1.468088,0.729861,-0.100662,-0.676143,0.724439,0.673370,-0.456838,55.510056,5.440344,-13.162659,,,,,,,
1537207050.212280,0.834428,0.096495,-0.613335,-2.186348,1.392550,1.638144,0.737465,-0.096346,-0.668477,0.731880,0.677675,-0.456142,56.272888,4.043865,-11.437805,,,,,,,
1537207050.222259,0.846317,0.097968,-0.589149,-1.556644,1.424696,1.740836,0.745253,-0.097812,-0.659567,0.718812,0.676089,-0.489481,56.272888,4.043865,-11.437805,,,,,,,
1537207050.232239,0.857698,0.103163,-0.560296,-1.115327,1.311358,1.749777,0.752317,-0.102980,-0.650702,0.695956,0.668974,-0.527887,56.695969,2.188427,-9.429443,,,,,,,
1537207050.242218,0.867472,0.110094,-0.542294,-0.857998,1.119788,1.671325,0.758078,-0.109872,-0.642841,0.684625,0.666467,-0.557965,56.695969,2.188427,-9.429443,,,,,,,
1537207050.252197,0.874797,0.117174,-0.526189,-0.746571,0.842382,1.538786,0.762151,-0.116906,-0.636755,0.658671,0.674051,-0.587671,56.695969,2.188427,-9.429443,,,,,,,
1537207050.262176,0.878802,0.123494,-0.504471,-0.659291,0.476337,1.336821,0.764110,-0.123180,-0.633215,0.619038,0.665325,-0.604182,56.624779,0.366318,-8.064636,,,,,,,
1537207050.272156,0.878855,0.128657,-0.492665,-0.546105,0.041706,1.082762,0.763644,-0.128302,-0.632759,0.565427,0.641135,-0.603279,56.624779,0.366318,-8.064636,,,,,,,
1537207050.282135,0.874463,0.132558,-0.475970,-0.426651,-0.439935,0.829850,0.760468,-0.132170,-0.635781,0.495193,0.607847,-0.596198,57.117462,-1.351198,-8.114594,,,,,,,
1537207050.292084,0.865691,0.135615,-0.469229,-0.273390,-0.904579,0.617671,0.754550,-0.135200,-0.642163,0.423428,0.574455,-0.566485,57.117462,-1.351198,-8.114594,,,,,,,
1537207050.302063,0.853310,0.138721,-0.457977,-0.028555,-1.268168,0.456060,0.746222,-0.138276,-0.651176,0.358911,0.541276,-0.503349,56.767181,-2.025742,-8.169495,,,,,,,
1537207050.312042,0.839136,0.143093,-0.457132,0.321786,-1.436769,0.364217,0.736461,-0.142605,-0.661277,0.304921,0.511990,-0.424096,56.767181,-2.025742,-8.169495,,,,,,,
1537207050.322021,0.825272,0.149841,-0.452825,0.759739,-1.411413,0.315359,0.726499,-0.149281,-0.670756,0.278765,0.521641,-0.353689,56.447052,-2.397955,-10.068146,,,,,,,
1537207050.332001,0.813029,0.159811,-0.459376,1.291730,-1.297914,0.277600,0.717116,-0.159131,-0.678543,0.248826,0.544202,-0.317536,56.447052,-2.397955,-10.068146,,,,,,,
1537207050.341980,0.802584,0.173607,-0.463863,1.900573,-1.216880,0.227483,0.708344,-0.172736,-0.684405,0.197861,0.554572,-0.315839,56.306366,-2.930943,-11.567322,,,,,,,
1537207050.351959,0.793492,0.191145,-0.479876,2.504327,-1.205320,0.129376,0.699824,-0.189983,-0.688586,0.163167,0.572659,-0.326444,56.306366,-2.930943,-11.567322,,,,,,,
1537207050.361938,0.785062,0.211626,-0.494542,3.012336,-1.285201,-0.026804,0.691099,-0.210050,-0.691564,0.144472,0.594480,-0.326198,55.689491,-3.522392,-13.102417,,,,,,,
1537207050.371918,0.777259,0.233691,-0.519528,3.370416,-1.347323,-0.231862,0.682265,-0.231570,-0.693462,0.134279,0.623278,-0.300496,55.689491,-3.522392,-13.102417,,,,,,,
1537207050.381897,0.770758,0.256352,-0.542376,3.632902,-1.340670,-0.463133,0.673912,-0.253554,-0.693939,0.131111,0.632109,-0.243042,54.566353,-4.158003,-13.996735,,,,,,,
1537207050.391876,0.766526,0.278889,-0.574161,3.793271,-1.230988,-0.697203,0.666836,-0.275288,-0.692492,0.145267,0.615559,-0.181668,54.566353,-4.158003,-13.996735,,,,,,,
1537207050.401827,0.765536,0.300483,-0.603206,3.867605,-1.034405,-0.948910,0.661876,-0.295982,-0.688704,0.165043,0.592048,-0.137879,54.681992,-4.306572,-15.310822,,,,,,,
1537207050.411807,0.767902,0.320496,-0.640098,3.887563,-0.851436,-1.207309,0.659256,-0.315037,-0.682739,0.197510,0.536946,-0.120393,54.681992,-4.306572,-15.310822,,,,,,,
1537207050.421786,0.772730,0.338870,-0.674155,3.886492,-0.761131,-1.409160,0.658392,-0.332422,-0.675288,0.233560,0.463739,-0.119573,53.541229,-4.009277,-16.470032,,,,,,,
1537207050.431735,0.778768,0.355860,-0.714396,3.879207,-0.783825,-1.551148,0.658395,-0.348397,-0.667184,0.259055,0.377495,-0.120764,53.541229,-4.009277,-16.470032,,,,,,,
1537207050.441714,0.784766,0.371898,-0.751303,3.860356,-0.910943,-1.629041,0.658351,-0.363384,-0.659185,0.259160,0.285778,-0.114894,53.556274,-3.730392,-17.695862,,,,,,,
1537207050.451693,0.789790,0.387241,-0.792696,3.795854,-1.075017,-1.624959,0.657617,-0.377635,-0.651867,0.250052,0.202815,-0.099140,53.556274,-3.730392,-17.695862,,,,,,,
1537207050.461672,0.793838,0.402243,-0.829525,3.726686,-1.195173,-1.563309,0.656137,-0.391483,-0.645154,0.238013,0.142826,-0.060092,52.399170,-2.894533,-18.230103,,,,,,,
1537207050.471652,0.797321,0.417504,-0.869410,3.676292,-1.251219,-1.437569,0.654029,-0.405480,-0.638616,0.217446,0.089471,-0.003611,52.399170,-2.894533,-18.230103,,,,,,,
1537207050.481631,0.800870,0.433435,-0.908049,3.628918,-1.237792,-1.272386,0.651571,-0.419990,-0.631714,0.186518,0.039970,0.049255,51.876419,-2.585613,-20.109680,,,,,,,
1537207050.491610,0.804747,0.450191,-0.945338,3.586843,-1.196608,-1.094394,0.648851,-0.435138,-0.624216,0.132994,0.011737,0.095911,51.876419,-2.585613,-20.109680,,,,,,,
1537207050.501589,0.809211,0.468088,-0.981478,3.592688,-1.140696,-0.902277,0.645892,-0.451180,-0.615840,0.064130,-0.012351,0.140315,50.668472,-2.724911,-22.216248,,,,,,,
1537207050.511569,0.814760,0.488048,-1.017372,3.744509,-1.088712,-0.690141,0.642618,-0.468903,-0.605947,-0.024652,-0.045136,0.198263,50.668472,-2.724911,-22.216248,,,,,,,
1537207050.521548,0.822160,0.511396,-1.054347,4.057316,-1.012972,-0.457932,0.638888,-0.489396,-0.593560,-0.140673,-0.108871,0.289147,50.142159,-3.760164,-23.514801,,,,,,,
1537207050.531527,0.832206,0.538437,-1.093102,4.386154,-0.912751,-0.221390,0.634798,-0.512795,-0.577989,-0.229723,-0.149009,0.368623,50.142159,-3.760164,-23.514801,,,,,,,
1537207050.541506,0.844931,0.568354,-1.133237,4.587197,-0.812983,-0.010102,0.630342,-0.538245,-0.559428,-0.305040,-0.159997,0.434657,49.418472,-5.474953,-23.732513,,,,,,,
1537207050.551486,0.860095,0.598919,-1.173909,4.549347,-0.693006,0.080303,0.625987,-0.563750,-0.538818,-0.357249,-0.152314,0.492294,49.418472,-5.474953,-23.732513,,,,,,,
1537207050.561465,0.877454,0.627528,-1.214068,4.288651,-0.535820,0.050959,0.622583,-0.587146,-0.517348,-0.391840,-0.137982,0.557204,49.452545,-7.234869,-24.890717,,,,,,,
1537207050.571444,0.896275,0.652672,-1.252431,3.873574,-0.367216,-0.010199,0.620480,-0.607312,-0.496161,-0.435757,-0.152500,0.630118,49.452545,-7.234869,-24.890717,,,,,,,
1537207050.581393,0.915894,0.673728,-1.287786,3.387189,-0.168364,-0.081386,0.619814,-0.623904,-0.475998,-0.472338,-0.190427,0.692703,49.226715,-8.663088,-25.325745,,,,,,,
1537207050.591372,0.935495,0.690343,-1.319782,2.853054,-0.029153,-0.198675,0.620594,-0.636802,-0.457543,-0.478260,-0.228600,0.731026,49.226715,-8.663088,-25.325745,,,,,,,
1537207050.601351,0.953034,0.701815,-1.347398,2.232472,-0.023025,-0.353662,0.622526,-0.645605,-0.442328,-0.474882,-0.249186,0.738867,48.435501,-9.859659,-24.566772,,,,,,,
1537207050.611331,0.966321,0.707579,-1.369231,1.511508,-0.112504,-0.526184,0.625277,-0.649996,-0.431895,-0.472582,-0.257902,0.738566,48.435501,-9.859659,-24.566772,,,,,,,
1537207050.621310,0.974368,0.707577,-1.384473,0.771321,-0.209357,-0.698804,0.628732,-0.649995,-0.426850,-0.464960,-0.264953,0.757722,48.018501,-9.950113,-23.729950,,,,,,,
1537207050.631289,0.977422,0.702288,-1.392941,0.067169,-0.252922,-0.829650,0.632874,-0.645966,-0.426845,-0.454545,-0.276290,0.786678,48.018501,-9.950113,-23.729950,,,,,,,
1537207050.641268,0.976442,0.692728,-1.395112,-0.542399,-0.224246,-0.899204,0.637543,-0.638639,-0.430903,-0.448258,-0.296694,0.820094,48.451263,-8.943827,-24.794037,,,,,,,
1537207050.651248,0.973131,0.680246,-1.391929,-1.013707,-0.089355,-0.889117,0.642653,-0.628984,-0.437463,-0.442977,-0.319685,0.860956,48.451263,-8.943827,-24.794037,,,,,,,
1537207050.661227,0.969397,0.666198,-1.384486,-1.351979,0.157093,-0.810097,0.648238,-0.618001,-0.444816,-0.431395,-0.337519,0.894508,48.272499,-7.805923,-24.734436,,,,,,,
1537207050.671206,0.966687,0.651594,-1.373776,-1.583736,0.459649,-0.695323,0.654388,-0.606455,-0.451650,-0.415527,-0.345953,0.905614,48.272499,-7.805923,-24.734436,,,,,,,
1537207050.681185,0.965579,0.636943,-1.360450,-1.753690,0.766171,-0.570607,0.661124,-0.594741,-0.457381,-0.396964,-0.338823,0.895247,47.981232,-6.436142,-23.951538,,,,,,,
1537207050.691165,0.966262,0.622359,-1.344988,-1.896874,1.047957,-0.463866,0.668502,-0.582954,-0.461810,-0.371673,-0.323098,0.863239,47.981232,-6.436142,-23.951538,,,,,,,
1537207050.701144,0.968270,0.607763,-1.327569,-2.037979,1.254959,-0.373049,0.676367,-0.571032,-0.465241,-0.350897,-0.304670,0.821701,48.685173,-5.042912,-21.976349,,,,,,,
1537207050.711123,0.971118,0.593141,-1.308427,-2.164203,1.403135,-0.293833,0.684509,-0.558968,-0.467975,-0.342056,-0.290229,0.782962,48.685173,-5.042912,-21.976349,,,,,,,
1537207050.721072,0.974211,0.578304,-1.287590,-2.326683,1.485261,-0.237163,0.692738,-0.546605,-0.470464,-0.331090,-0.273357,0.740468,49.929115,-3.697933,-21.568970,,,,,,,
1537207050.731051,0.976692,0.562578,-1.264493,-2.561665,1.495104,-0.206439,0.700940,-0.533369,-0.473497,-0.321210,-0.246538,0.690401,49.929115,-3.697933,-21.568970,,,,,,,
1537207050.741030,0.977879,0.545505,-1.238826,-2.843548,1.461380,-0.193008,0.708951,-0.518850,-0.477684,-0.315656,-0.223017,0.653023,50.712433,-2.581850,-19.889160,,,,,,,
1537207050.751009,0.977665,0.526748,-1.210503,-3.155190,1.412828,-0.196804,0.716794,-0.502725,-0.483191,-0.303113,-0.213431,0.618414,50.712433,-2.581850,-19.889160,,,,,,,
1537207050.760989,0.975790,0.506024,-1.179463,-3.486054,1.319511,-0.212400,0.724360,-0.484704,-0.490269,-0.290110,-0.195472,0.578755,51.219742,-1.384441,-18.257538,,,,,,,
1537207050.770968,0.972166,0.483130,-1.145917,-3.820028,1.203751,-0.244004,0.731556,-0.464554,-0.499014,-0.274463,-0.174500,0.540839,51.219742,-1.384441,-18.257538,,,,,,,
1537207050.780947,0.966991,0.457749,-1.109818,-4.194464,1.095664,-0.282242,0.738434,-0.441930,-0.509326,-0.237503,-0.151042,0.494510,51.219742,-1.384441,-18.257538,,,,,,,
1537207050.790926,0.960541,0.429671,-1.070830,-4.604216,1.012361,-0.301485,0.745011,-0.416572,-0.520986,-0.192124,-0.111199,0.439489,51.658745,0.087931,-16.664917,,,,,,,
1537207050.800906,0.953680,0.399279,-1.029214,-4.952208,0.996066,-0.286302,0.751400,-0.388755,-0.533167,-0.153606,-0.076715,0.403605,51.658745,0.087931,-16.664917,,,,,,,
1537207050.810885,0.948175,0.367279,-0.983338,-5.192155,1.111616,-0.264251,0.758175,-0.359077,-0.544274,-0.116039,-0.039162,0.379693,52.567268,1.997089,-15.471130,,,,,,,
1537207050.820864,0.946406,0.334743,-0.938875,-5.326492,1.464866,-0.171407,0.766287,-0.328526,-0.552154,-0.055853,0.023427,0.369064,52.567268,1.997089,-15.471130,,,,,,,
1537207050.830843,0.951671,0.303645,-0.890093,-5.335377,2.153029,0.070159,0.777130,-0.299001,-0.553775,0.031845,0.100743,0.363956,52.916962,3.242756,-13.474487,,,,,,,
1537207050.840823,0.966778,0.276788,-0.843993,-5.091958,3.062219,0.437776,0.791732,-0.273267,-0.546337,0.157578,0.199765,0.299984,52.916962,3.242756,-13.474487,,,,,,,
1537207050.850802,0.992076,0.256640,-0.795900,-4.557608,3.910133,0.824131,0.809744,-0.253832,-0.529039,0.346765,0.314516,0.137178,53.690269,3.945837,-8.558075,,,,,,,
1537207050.860781,1.025210,0.244291,-0.755141,-3.814373,4.431149,1.139376,0.829442,-0.241868,-0.503512,0.574031,0.444307,-0.124463,53.690269,3.945837,-8.558075,,,,,,,
1537207050.870730,1.061158,0.239409,-0.716807,-2.974355,4.401518,1.324414,0.848023,-0.237128,-0.473947,0.783934,0.536933,-0.462714,54.115341,2.889839,-3.382385,,,,,,,
1537207050.880709,1.093743,0.240138,-0.688610,-2.199880,3.733454,1.369905,0.862860,-0.237837,-0.445988,0.946725,0.581938,-0.798107,54.115341,2.889839,-3.382385,,,,,,,
1537207050.890688,1.118085,0.244792,-0.662315,-1.633395,2.722706,1.423139,0.872455,-0.242355,-0.424365,1.022290,0.578628,-1.022183,54.605186,1.234465,0.765869,,,,,,,
1537207050.900668,1.133552,0.253210,-0.643324,-1.189524,1.799372,1.610108,0.877035,-0.250513,-0.409943,1.002909,0.534402,-1.065872,54.605186,1.234465,0.765869,,,,,,,
1537207050.910647,1.142617,0.266265,-0.626354,-0.657028,1.166156,1.874129,0.877665,-0.263130,-0.400583,0.935995,0.472405,-0.940634,54.018394,-0.725481,2.685059,,,,,,,
1537207050.920626,1.149339,0.283837,-0.615600,-0.076997,0.927595,2.075033,0.875983,-0.280042,-0.392722,0.871927,0.456525,-0.754662,54.018394,-0.725481,2.685059,,,,,,,
1537207050.930605,1.156714,0.304464,-0.609393,0.403625,0.928408,2.136379,0.873381,-0.299782,-0.383844,0.806658,0.471016,-0.600531,53.872696,-3.086477,4.897156,,,,,,,
1537207050.940585,1.165629,0.326027,-0.606743,0.684032,0.982284,2.056740,0.870623,-0.320282,-0.373409,0.736386,0.469009,-0.506016,53.872696,-3.086477,4.897156,,,,,,,
1537207050.950564,1.174829,0.346727,-0.605805,0.722641,0.930498,1.904358,0.867718,-0.339821,-0.362748,0.642978,0.430199,-0.463653,53.946609,-5.507681,5.891174,,,,,,,
1537207050.960543,1.182265,0.365303,-0.604411,0.531734,0.736785,1.724174,0.864400,-0.357232,-0.353832,0.546474,0.376336,-0.448902,53.946609,-5.507681,5.891174,,,,,,,
1537207050.970522,1.185861,0.381085,-0.600848,0.200624,0.398615,1.547638,0.860334,-0.371928,-0.348561,0.452685,0.329402,-0.437755,54.030853,-7.104883,5.888885,,,,,,,
1537207050.980502,1.184243,0.394208,-0.594456,-0.134267,-0.024869,1.409593,0.855174,-0.384077,-0.348083,0.341420,0.276517,-0.404511,54.030853,-7.104883,5.888885,,,,,,,
1537207050.990481,1.177285,0.405203,-0.585504,-0.408713,-0.449649,1.310312,0.848780,-0.394205,-0.352384,0.223043,0.228449,-0.347171,53.838936,-9.048090,5.274445,,,,,,,
1537207051.000460,1.165887,0.414541,-0.574622,-0.599905,-0.782993,1.233813,0.841288,-0.402770,-0.360570,0.116582,0.202819,-0.274440,53.838936,-9.048090,5.274445,,,,,,,
1537207051.010409,1.151569,0.422663,-0.562612,-0.701310,-0.988645,1.177958,0.833024,-0.410190,-0.371234,0.015487,0.203525,-0.191601,52.873535,-10.654217,5.910461,,,,,,,
1537207051.020388,1.136252,0.430215,-0.550442,-0.686141,-1.026173,1.141786,0.824407,-0.417066,-0.382634,-0.071523,0.206373,-0.103816,52.873535,-10.654217,5.910461,,,,,,,
1537207051.030367,1.122386,0.437888,-0.539114,-0.568261,-0.857045,1.135856,0.816115,-0.424027,-0.392629,-0.138395,0.219621,-0.020716,52.956322,-11.655216,5.120361,,,,,,,
1537207051.040347,1.112430,0.446329,-0.529366,-0.366771,-0.472637,1.151517,0.808926,-0.431657,-0.399137,-0.181577,0.246201,0.048810,52.956322,-11.655216,5.120361,,,,,,,
1537207051.050326,1.108517,0.456100,-0.522167,-0.064596,0.060720,1.168646,0.803545,-0.440450,-0.400399,-0.198946,0.279439,0.088799,53.170021,-13.042629,3.382446,,,,,,,
1537207051.060305,1.111752,0.467535,-0.518748,0.343511,0.609475,1.156454,0.800268,-0.450688,-0.395540,-0.201147,0.311527,0.077882,53.170021,-13.042629,3.382446,,,,,,,
1537207051.070284,1.121939,0.480575,-0.520195,0.807234,1.058544,1.100901,0.798893,-0.462289,-0.384784,-0.182652,0.342325,0.017428,53.173729,-14.197567,3.873657,,,,,,,
1537207051.080264,1.138165,0.494942,-0.527121,1.290046,1.369717,1.018902,0.798918,-0.474981,-0.368948,-0.138350,0.374654,-0.065073,53.173729,-14.197567,3.873657,,,,,,,
1537207051.090243,1.159231,0.510243,-0.539921,1.772641,1.521758,0.911448,0.799758,-0.488389,-0.349090,-0.074904,0.399583,-0.151811,52.278450,-14.976204,5.769928,,,,,,,
1537207051.100222,1.184345,0.526271,-0.558803,2.262320,1.594797,0.821195,0.800918,-0.502312,-0.325903,-0.015044,0.405816,-0.226877,52.278450,-14.976204,5.769928,,,,,,,
1537207051.110201,1.213336,0.543288,-0.584042,2.777947,1.619792,0.796245,0.801904,-0.516953,-0.299516,0.037406,0.386750,-0.286284,51.211838,-15.595882,8.983490,,,,,,,
1537207051.120181,1.246386,0.561374,-0.616241,3.336029,1.617911,0.786501,0.802369,-0.532350,-0.269830,0.112228,0.383073,-0.335364,51.211838,-15.595882,8.983490,,,,,,,
1537207051.130160,1.283536,0.580015,-0.656043,3.904679,1.547619,0.768344,0.802179,-0.548037,-0.236989,0.195684,0.367281,-0.386119,51.049507,-15.349533,10.395111,,,,,,,
1537207051.140139,1.324661,0.598912,-0.703551,4.446154,1.447675,0.795966,0.801056,-0.563744,-0.201249,0.261123,0.324868,-0.415985,51.049507,-15.349533,10.395111,,,,,,,
1537207051.150118,1.369665,0.618187,-0.758235,4.929082,1.352534,0.925739,0.798503,-0.579558,-0.162805,0.314061,0.275008,-0.419256,50.448074,-14.926598,12.228241,,,,,,,
1537207051.160067,1.418670,0.638119,-0.819463,5.355676,1.299559,1.160836,0.793941,-0.595686,-0.121720,0.377552,0.224012,-0.394408,50.448074,-14.926598,12.228241,,,,,,,
1537207051.170046,1.472414,0.658631,-0.887277,5.715893,1.271560,1.427569,0.787007,-0.612034,-0.077679,0.445384,0.187703,-0.354939,49.671860,-14.229408,14.159454,,,,,,,
1537207051.180026,1.530230,0.678650,-0.961032,5.984612,1.184153,1.647961,0.777780,-0.627743,-0.031569,0.494650,0.154675,-0.319063,49.671860,-14.229408,14.159454,,,,,,,
1537207051.190005,1.590577,0.696876,-1.039316,6.094801,1.022687,1.799240,0.766701,-0.641825,0.015168,0.523567,0.129435,-0.274613,48.651932,-13.418034,15.985199,,,,,,,
1537207051.199984,1.651597,0.712910,-1.119653,6.012902,0.859034,1.954802,0.753994,-0.654037,0.061056,0.523090,0.099838,-0.205450,48.651932,-13.418034,15.985199,,,,,,,
1537207051.209963,1.712542,0.727017,-1.200206,5.821237,0.763237,2.116100,0.739667,-0.664643,0.105552,0.490527,0.060075,-0.105446,48.363251,-12.726078,17.357178,,,,,,,
1537207051.219943,1.772800,0.738837,-1.279398,5.524941,0.717967,2.183906,0.724221,-0.673429,0.148318,0.479545,0.023252,-0.015582,48.363251,-12.726078,17.357178,,,,,,,
1537207051.229922,1.830558,0.748222,-1.354569,5.055385,0.677726,2.183506,0.708312,-0.680337,0.188246,0.487032,0.014764,0.044146,47.444870,-12.641537,18.716248,,,,,,,
1537207051.239901,1.883609,0.756163,-1.423175,4.423566,0.598827,2.182251,0.692171,-0.686136,0.223870,0.469908,-0.023108,0.102653,47.444870,-12.641537,18.716248,,,,,,,
1537207051.249880,1.929880,0.764076,-1.482959,3.631586,0.475930,2.180166,0.675971,-0.691870,0.253731,0.453225,-0.073862,0.138557,46.596825,-13.012066,19.711517,,,,,,,
1537207051.259860,1.967493,0.773476,-1.532412,2.734675,0.268205,2.192536,0.659924,-0.698626,0.276445,0.433017,-0.104673,0.161970,46.596825,-13.012066,19.711517,,,,,,,
1537207051.269839,1.995560,0.785287,-1.571173,1.843161,0.019836,2.186829,0.644342,-0.707028,0.291435,0.396811,-0.126270,0.198753,46.115051,-13.716778,20.047089,,,,,,,
1537207051.279818,2.014779,0.799724,-1.600621,1.099895,-0.237842,2.183016,0.629339,-0.717164,0.299348,0.347087,-0.130554,0.243941,46.115051,-13.716778,20.047089,,,,,,,
1537207051.289797,2.026621,0.816234,-1.623014,0.549948,-0.500862,2.156781,0.615034,-0.728571,0.301526,0.291400,-0.140722,0.283099,45.977303,-15.349384,19.148438,,,,,,,
1537207051.299746,2.032729,0.834345,-1.640084,0.143018,-0.687724,2.148331,0.601268,-0.740857,0.299346,0.251317,-0.144016,0.325089,45.977303,-15.349384,19.148438,,,,,,,
1537207051.309725,2.035389,0.854177,-1.653625,-0.146771,-0.757627,2.198050,0.587217,-0.754030,0.294303,0.213564,-0.157774,0.380746,45.977303,-15.349384,19.148438,,,,,,,
1537207051.319705,2.036880,0.875828,-1.665417,-0.328121,-0.741470,2.315525,0.572057,-0.768074,0.287772,0.152812,-0.187294,0.424416,45.660957,-17.685226,18.151306,,,,,,,
1537207051.329684,2.038828,0.899378,-1.676821,-0.443530,-0.670053,2.471735,0.555196,-0.782940,0.280647,0.089915,-0.193470,0.438134,45.660957,-17.685226,18.151306,,,,,,,
1537207051.339663,2.042922,0.924720,-1.688814,-0.505430,-0.491051,2.642007,0.536195,-0.798452,0.273804,0.041503,-0.167505,0.446258,44.264282,-19.933327,17.700623,,,,,,,
1537207051.349642,2.051366,0.951800,-1.702933,-0.491686,-0.224814,2.849966,0.514497,-0.814461,0.268226,-0.024858,-0.134467,0.446511,44.264282,-19.933327,17.700623,,,,,,,
1537207051.359622,2.066445,0.980332,-1.720977,-0.408367,0.109377,3.055032,0.489748,-0.830682,0.264790,-0.106401,-0.095481,0.430019,43.263245,-22.779438,17.205566,,,,,,,
1537207051.369601,2.089209,1.009567,-1.743717,-0.314814,0.451913,3.192899,0.462296,-0.846602,0.263720,-0.160752,-0.025057,0.381483,43.263245,-22.779438,17.205566,,,,,,,
1537207051.379580,2.118235,1.038857,-1.770582,-0.283843,0.647258,3.246247,0.433083,-0.861825,0.264002,-0.216027,0.071725,0.293997,41.935318,-25.734882,16.911682,,,,,,,
1537207051.389559,2.150757,1.067873,-1.799842,-0.351697,0.723367,3.222314,0.403176,-0.876177,0.264126,-0.285440,0.174334,0.187718,41.935318,-25.734882,16.911682,,,,,,,
1537207051.399529,2.183953,1.096570,-1.829287,-0.514096,0.715472,3.129628,0.373465,-0.889646,0.262780,-0.349692,0.288435,0.090491,40.029823,-28.530430,16.589233,,,,,,,
1537207051.409508,2.214928,1.124824,-1.856616,-0.737871,0.620174,2.955570,0.344905,-0.902192,0.259019,-0.403377,0.402832,-0.006563,40.029823,-28.530430,16.589233,,,,,,,
1537207051.419487,2.240801,1.152090,-1.879906,-0.942940,0.414601,2.686724,0.318685,-0.913616,0.252482,-0.442754,0.522151,-0.100672,37.785896,-31.575481,17.143829,,,,,,,
1537207051.429466,2.259257,1.177352,-1.897736,-1.065103,0.141105,2.316992,0.296049,-0.923594,0.243575,-0.476118,0.635432,-0.159133,37.785896,-31.575481,17.143829,,,,,,,
1537207051.439415,2.270159,1.199500,-1.910047,-1.058791,-0.119283,1.903119,0.277652,-0.931858,0.233561,-0.510013,0.719547,-0.182718,36.180771,-33.827454,17.079834,,,,,,,
1537207051.449394,2.275188,1.217496,-1.919103,-0.858300,-0.420222,1.477543,0.263651,-0.938236,0.224057,-0.543588,0.773884,-0.167263,36.180771,-33.827454,17.079834,,,,,,,
1537207051.459374,2.277105,1.230118,-1.927266,-0.520772,-0.618360,1.031267,0.254191,-0.942528,0.216858,-0.580348,0.807991,-0.113617,35.185799,-35.285954,16.022278,,,,,,,
1537207051.469353,2.278363,1.236994,-1.935499,-0.147660,-0.651177,0.593557,0.248987,-0.944803,0.212960,-0.615793,0.837916,-0.049768,35.185799,-35.285954,16.022278,,,,,,,
1537207051.479332,2.280439,1.238318,-1.943978,0.211663,-0.574966,0.179146,0.247596,-0.945236,0.212662,-0.649848,0.854645,0.009735,35.044472,-36.129551,15.071228,,,,,,,
1537207051.489311,2.282780,1.234439,-1.951974,0.526012,-0.509165,-0.220558,0.249871,-0.943963,0.215634,-0.679436,0.861291,0.046588,35.044472,-36.129551,15.071228,,,,,,,
1537207051.499291,2.283821,1.225768,-1.958273,0.792248,-0.487960,-0.621550,0.255828,-0.941066,0.221241,-0.705703,0.872447,0.068997,35.009361,-35.668064,14.439758,,,,,,,
1537207051.509270,2.283017,1.212188,-1.962467,1.070390,-0.462582,-1.040625,0.265655,-0.936386,0.229366,-0.721786,0.885773,0.119267,35.009361,-35.668064,14.439758,,,,,,,
1537207051.519249,2.281032,1.193624,-1.964630,1.336983,-0.375219,-1.463026,0.279243,-0.929710,0.240132,-0.731804,0.880103,0.184413,35.787445,-34.477131,15.647919,,,,,,,
1537207051.529228,2.278363,1.170520,-1.964563,1.554392,-0.217064,-1.851613,0.296130,-0.920953,0.253282,-0.731509,0.853174,0.248335,35.787445,-34.477131,15.647919,,,,,,,
1537207051.539208,2.275359,1.143992,-1.962195,1.670782,-0.042181,-2.155378,0.315397,-0.910293,0.268124,-0.727110,0.796798,0.300357,37.282463,-32.345520,16.622681,,,,,,,
1537207051.549187,2.270926,1.115519,-1.956633,1.646628,0.091962,-2.388351,0.336273,-0.898139,0.283313,-0.734375,0.717917,0.325696,37.282463,-32.345520,16.622681,,,,,,,
1537207051.559166,2.263417,1.086312,-1.946462,1.469440,0.170395,-2.587948,0.358430,-0.884915,0.297408,-0.727616,0.634702,0.338472,39.010963,-29.737499,16.361176,,,,,,,
1537207051.569145,2.251077,1.057615,-1.930670,1.152804,0.138629,-2.739096,0.381663,-0.871187,0.308813,-0.705196,0.558778,0.351297,39.010963,-29.737499,16.361176,,,,,,,
1537207051.579124,2.233151,1.030283,-1.908963,0.737544,0.063688,-2.852314,0.405766,-0.857445,0.316451,-0.682637,0.473106,0.389848,40.252441,-27.001026,17.012207,,,,,,,
1537207051.589073,2.208987,1.004620,-1.880607,0.244684,-0.025870,-3.001169,0.430830,-0.843958,0.319562,-0.644346,0.384318,0.435581,40.252441,-27.001026,17.012207,,,,,,,
1537207051.599052,2.177817,0.979686,-1.844791,-0.262411,-0.152911,-3.237592,0.457725,-0.830322,0.317887,-0.557060,0.315766,0.469711,40.926056,-24.407917,18.189636,,,,,,,
1537207051.609032,2.139415,0.954666,-1.801600,-0.784160,-0.333363,-3.519944,0.486949,-0.816121,0.311170,-0.456981,0.222142,0.482729,40.926056,-24.407917,18.189636,,,,,,,
1537207051.619011,2.093874,0.929111,-1.751449,-1.336053,-0.558464,-3.786405,0.518512,-0.801088,0.299003,-0.341342,0.109239,0.477441,43.291862,-21.692982,17.464844,,,,,,,
1537207051.628990,2.041765,0.903238,-1.695365,-1.917951,-0.836541,-3.938759,0.551671,-0.785336,0.280903,-0.222585,-0.019245,0.459865,43.291862,-21.692982,17.464844,,,,,,,
1537207051.638969,1.984162,0.877731,-1.634754,-2.508769,-1.114224,-3.934246,0.585087,-0.769291,0.256642,-0.115604,-0.167873,0.447429,45.289337,-18.867744,16.233459,,,,,,,
1537207051.648949,1.922179,0.853183,-1.570004,-3.147397,-1.317734,-3.813719,0.617408,-0.753377,0.226340,0.009332,-0.296656,0.443536,45.289337,-18.867744,16.233459,,,,,,,
1537207051.658928,1.856567,0.829736,-1.500791,-3.822633,-1.423750,-3.628377,0.647693,-0.737753,0.190301,0.153241,-0.384333,0.427696,47.287514,-16.452423,13.677338,,,,,,,
1537207051.668907,1.789125,0.807024,-1.427244,-4.462592,-1.346207,-3.396060,0.675232,-0.722232,0.149811,0.288467,-0.435712,0.414292,47.287514,-16.452423,13.677338,,,,,,,
1537207051.678886,1.723598,0.784706,-1.351535,-4.892423,-1.061422,-3.096617,0.699352,-0.706617,0.107702,0.377629,-0.456454,0.402338,47.953278,-14.884514,12.333344,,,,,,,
1537207051.688866,1.664825,0.762682,-1.277595,-4.993505,-0.579680,-2.752873,0.719792,-0.690863,0.067881,0.441875,-0.466150,0.376210,47.953278,-14.884514,12.333344,,,,,,,
1537207051.698845,1.616173,0.741315,-1.208980,-4.796946,-0.053558,-2.391531,0.736822,-0.675258,0.033457,0.516962,-0.453312,0.296239,48.871117,-13.639095,11.837494,,,,,,,
1537207051.708824,1.577058,0.721625,-1.147422,-4.448786,0.261531,-1.988579,0.750719,-0.660605,0.004701,0.573729,-0.457467,0.157821,48.871117,-13.639095,11.837494,,,,,,,
1537207051.718803,1.544296,0.704295,-1.092153,-4.133142,0.349349,-1.598382,0.761801,-0.647497,-0.020193,0.634348,-0.446223,0.009924,49.174484,-12.894432,11.566528,,,,,,,
1537207051.728752,1.514872,0.689617,-1.041620,-3.895692,0.285942,-1.219138,0.770284,-0.636241,-0.043123,0.684901,-0.403950,-0.104903,49.174484,-12.894432,11.566528,,,,,,,
1537207051.738731,1.487917,0.677762,-0.994587,-3.664487,0.287701,-0.837857,0.776304,-0.627051,-0.064487,0.692690,-0.375467,-0.150723,49.398895,-12.894188,10.784119,,,,,,,
1537207051.748711,1.464749,0.668622,-0.951415,-3.377975,0.417162,-0.515114,0.780268,-0.619905,-0.083057,0.702352,-0.334425,-0.161770,49.398895,-12.894188,10.784119,,,,,,,
1537207051.758690,1.446347,0.662020,-0.912453,-3.039670,0.612449,-0.234853,0.782652,-0.614711,-0.097906,0.719057,-0.277851,-0.192514,49.371208,-13.522495,10.814545,,,,,,,
1537207051.768669,1.432239,0.658079,-0.877851,-2.676926,0.731779,0.032811,0.783586,-0.611598,-0.109272,0.727705,-0.245915,-0.252560,49.371208,-13.522495,10.814545,,,,,,,
1537207051.778648,1.420683,0.656680,-0.846980,-2.377200,0.723251,0.270371,0.783116,-0.610491,-0.118447,0.757747,-0.218382,-0.336280,48.327599,-14.480049,12.265076,,,,,,,
1537207051.788628,1.409179,0.657395,-0.818401,-2.189651,0.536931,0.471202,0.781271,-0.611057,-0.127378,0.802698,-0.187802,-0.425555,48.327599,-14.480049,12.265076,,,,,,,
1537207051.798607,1.395095,0.660017,-0.790869,-2.081585,0.180216,0.678176,0.777819,-0.613130,-0.138088,0.818342,-0.173384,-0.507481,48.511833,-15.751774,12.188873,,,,,,,
1537207051.808586,1.376619,0.664781,-0.763602,-2.011581,-0.294718,0.928825,0.772261,-0.616886,-0.151869,0.772722,-0.163723,-0.552141,48.511833,-15.751774,12.188873,,,,,,,
1537207051.818565,1.353795,0.672159,-0.736606,-1.891799,-0.701450,1.239455,0.764128,-0.622677,-0.168470,0.688158,-0.136127,-0.539172,48.534279,-17.114765,10.287262,,,,,,,
1537207051.828545,1.329263,0.683092,-0.711004,-1.618373,-0.877155,1.617944,0.753110,-0.631194,-0.185523,0.580355,-0.095918,-0.465478,48.534279,-17.114765,10.287262,,,,,,,
1537207051.838524,1.306670,0.698201,-0.688606,-1.177736,-0.804991,1.986424,0.739436,-0.642841,-0.199976,0.477041,-0.046811,-0.380697,48.534279,-17.114765,10.287262,,,,,,,
1537207051.848503,1.288980,0.717451,-0.670960,-0.632521,-0.550943,2.291247,0.723761,-0.657466,-0.209544,0.407404,0.033305,-0.313405,48.055138,-19.497650,9.231018,,,,,,,
1537207051.858482,1.278306,0.740646,-0.659177,-0.035223,-0.186264,2.534332,0.706687,-0.674765,-0.212803,0.350960,0.097373,-0.262829,48.055138,-19.497650,9.231018,,,,,,,
1537207051.868462,1.275493,0.767301,-0.653514,0.503997,0.198874,2.718367,0.688631,-0.694195,-0.209480,0.322051,0.143978,-0.244713,47.181732,-22.238811,8.111359,,,,,,,
1537207051.878410,1.279450,0.796692,-0.653193,0.930158,0.483101,2.869857,0.669616,-0.715047,-0.200804,0.310411,0.180196,-0.260744,47.181732,-22.238811,8.111359,,,,,,,
1537207051.888390,1.288189,0.828259,-0.657128,1.218601,0.608887,2.982327,0.649337,-0.736756,-0.188554,0.298600,0.202713,-0.292784,45.243530,-24.721764,9.319489,,,,,,,
1537207051.898369,1.299637,0.861162,-0.664122,1.384322,0.614599,3.061157,0.627749,-0.758600,-0.174519,0.295667,0.230509,-0.324367,45.243530,-24.721764,9.319489,,,,,,,
1537207051.908348,1.312025,0.894655,-0.673293,1.458449,0.498958,3.087300,0.604952,-0.779993,-0.160135,0.284910,0.256357,-0.347891,43.923897,-27.108707,11.376038,,,,,,,
1537207051.918327,1.324235,0.927869,-0.683993,1.469069,0.333315,3.043760,0.581409,-0.800344,-0.146330,0.278653,0.298681,-0.361559,43.923897,-27.108707,11.376038,,,,,,,
1537207051.928307,1.335679,0.960254,-0.696088,1.463905,0.107875,2.958564,0.557538,-0.819337,-0.133557,0.263308,0.344270,-0.361072,42.600746,-29.391132,11.163696,,,,,,,
1537207051.938286,1.346572,0.991599,-0.710135,1.494113,-0.132747,2.851161,0.533650,-0.836902,-0.121704,0.225734,0.367985,-0.344025,42.600746,-29.391132,11.163696,,,,,,,
1537207051.948265,1.357728,1.021703,-0.727044,1.554492,-0.372531,2.711899,0.510112,-0.852998,-0.110364,0.187520,0.397645,-0.317813,41.063812,-31.475479,11.557678,,,,,,,
1537207051.958244,1.370030,1.050273,-0.747648,1.640800,-0.597567,2.540744,0.487344,-0.867559,-0.099178,0.152899,0.432424,-0.282200,41.063812,-31.475479,11.557678,,,,,,,
1537207051.968224,1.384450,1.076998,-0.772701,1.733845,-0.798149,2.341844,0.465768,-0.880539,-0.087813,0.124182,0.455597,-0.237901,39.729500,-33.197769,11.460693,,,,,,,
1537207051.978203,1.401516,1.101620,-0.802262,1.801497,-0.952709,2.134217,0.445689,-0.891941,-0.076176,0.094549,0.474461,-0.192944,39.729500,-33.197769,11.460693,,,,,,,
1537207051.988182,1.421239,1.124132,-0.835879,1.835983,-1.073953,1.945590,0.427138,-0.901893,-0.064362,0.049867,0.482765,-0.145370,38.028908,-34.571293,12.247345,,,,,,,
1537207051.998161,1.443903,1.144656,-0.873312,1.858689,-1.142773,1.777127,0.410036,-0.910568,-0.052312,-0.003191,0.483596,-0.093364,38.028908,-34.571293,12.247345,,,,,,,
1537207052.008141,1.469957,1.162984,-0.914514,1.873203,-1.165693,1.585089,0.394588,-0.917991,-0.039925,-0.046672,0.487845,-0.044364,37.439735,-35.264709,12.743500,,,,,,,
1537207052.018089,1.499435,1.178745,-0.959020,1.870913,-1.155467,1.373711,0.381112,-0.924127,-0.027243,-0.080011,0.500070,-0.006235,37.439735,-35.264709,12.743500,,,,,,,
1537207052.028069,1.532300,1.191752,-1.006795,1.869885,-1.139953,1.143121,0.369758,-0.929019,-0.014241,-0.113548,0.506152,0.028646,36.909752,-35.665443,12.873291,,,,,,,
1537207052.038048,1.567930,1.201875,-1.057141,1.858118,-1.119025,0.922071,0.360607,-0.932717,-0.001034,-0.153774,0.499428,0.057461,36.909752,-35.665443,12.873291,,,,,,,
1537207052.048027,1.604156,1.209189,-1.107838,1.781160,-1.115890,0.707088,0.353580,-0.935330,0.011800,-0.192111,0.495739,0.066692,36.715012,-35.835239,12.873596,,,,,,,
1537207052.058006,1.638343,1.213876,-1.156384,1.648520,-1.134849,0.506767,0.348592,-0.936977,0.023582,-0.228352,0.499706,0.061669,36.715012,-35.835239,12.873596,,,,,,,
1537207052.067986,1.667988,1.216272,-1.200295,1.456001,-1.165215,0.317870,0.345504,-0.937812,0.033686,-0.266997,0.507056,0.051625,37.012543,-35.649181,12.353973,,,,,,,
1537207052.077965,1.690824,1.216608,-1.237465,1.220788,-1.217793,0.125555,0.344332,-0.937928,0.041529,-0.302538,0.523881,0.034475,37.012543,-35.649181,12.353973,,,,,,,
1537207052.087944,1.706258,1.215014,-1.267756,1.024920,-1.334644,-0.072880,0.345130,-0.937374,0.047040,-0.332374,0.546780,0.028628,36.836861,-35.397087,12.506439,,,,,,,
1537207052.097923,1.716818,1.211308,-1.294499,0.982769,-1.487577,-0.291780,0.348049,-0.936077,0.051187,-0.358730,0.558926,0.064581,36.836861,-35.397087,12.506439,,,,,,,
1537207052.107903,1.727105,1.205111,-1.322151,1.097784,-1.576245,-0.525899,0.353228,-0.933879,0.055667,-0.389925,0.551234,0.138562,37.748901,-34.884949,11.589172,,,,,,,
1537207052.117882,1.739417,1.196165,-1.352124,1.254811,-1.554119,-0.770574,0.360738,-0.930642,0.061411,-0.428181,0.538141,0.213705,37.748901,-34.884949,11.589172,,,,,,,
1537207052.127861,1.753160,1.184556,-1.382737,1.337315,-1.437623,-1.005079,0.370459,-0.926332,0.068317,-0.461524,0.525911,0.270642,39.223953,-33.768597,10.067322,,,,,,,
1537207052.137840,1.765963,1.170574,-1.410672,1.301464,-1.257486,-1.229620,0.382224,-0.920974,0.075559,-0.489600,0.525573,0.306246,39.223953,-33.768597,10.067322,,,,,,,
