timestamp(unix),attitude_roll(radians),attitude_pitch(radians),attitude_yaw(radians),rotation_rate_x(radians/s),rotation_rate_y(radians/s),rotation_rate_z(radians/s),gravity_x(G),gravity_y(G),gravity_z(G),user_acc_x(G),user_acc_y(G),user_acc_z(G),magnetic_field_x(microteslas),magnetic_field_y(microteslas),magnetic_field_z(microteslas),latitude(degree),longitude(degree),altitude(meter),speed(m/s),course(degree),timestamp(unix),User Mark
1537037997.790221,0.184049,0.253985,1.246442,-0.227720,0.068950,0.126396,0.177140,-0.251263,-0.951571,-0.053834,0.027982,-0.030255,9.112068,-19.351402,-29.513977,,,,,,,
,,,,,,,,,,,,,,,,42.293121,-71.262840,56.929775,-1.000000,-1.000000,1537037997.632697,
1537037997.800201,0.181398,0.251123,1.248775,-0.204398,0.016512,0.126578,0.174747,-0.248491,-0.952741,-0.045459,0.010195,-0.052126,9.048326,-18.894764,-29.525879,,,,,,,
1537037997.810180,0.178249,0.248546,1.251100,-0.191711,-0.014510,0.129881,0.171858,-0.245995,-0.953914,-0.050581,0.000725,-0.068944,9.048326,-18.894764,-29.525879,,,,,,,
1537037997.820159,0.174736,0.245993,1.253305,-0.196008,-0.044394,0.124550,0.168614,-0.243519,-0.955127,-0.049718,-0.002254,-0.085324,8.943802,-19.095375,-29.567291,,,,,,,
1537037997.830138,0.170784,0.243402,1.255559,-0.206608,-0.062517,0.111701,0.164945,-0.241006,-0.956404,-0.045011,-0.003791,-0.097871,8.943802,-19.095375,-29.567291,,,,,,,
1537037997.840087,0.166318,0.240778,1.256940,-0.229983,-0.090194,0.093453,0.160777,-0.238458,-0.957752,-0.046336,0.001336,-0.098217,8.935188,-18.904686,-29.653015,,,,,,,
1537037997.850066,0.161847,0.237614,1.258897,-0.256588,-0.123190,0.076261,0.156613,-0.235384,-0.959201,-0.042966,0.004961,-0.099957,8.935188,-18.904686,-29.653015,,,,,,,
1537037997.860046,0.157805,0.234122,1.259169,-0.277875,-0.185056,0.052723,0.152864,-0.231989,-0.960632,-0.042283,0.006174,-0.098893,8.834774,-18.452381,-29.732727,,,,,,,
1537037997.870025,0.153847,0.231169,1.260257,-0.283152,-0.260896,0.023950,0.149164,-0.229116,-0.961902,-0.039118,0.006918,-0.102139,8.834774,-18.452381,-29.732727,,,,,,,
1537037997.880004,0.149659,0.228524,1.259716,-0.272421,-0.345371,-0.008995,0.145225,-0.226540,-0.963114,-0.040168,0.003640,-0.108800,8.420364,-18.338753,-29.960358,,,,,,,
1537037997.889983,0.144864,0.226141,1.259988,-0.250983,-0.409610,-0.038701,0.140682,-0.224218,-0.964331,-0.050441,0.005453,-0.102609,8.420364,-18.338753,-29.960358,,,,,,,
1537037997.899963,0.139771,0.223783,1.258793,-0.239076,-0.459926,-0.071676,0.135843,-0.221920,-0.965556,-0.058710,0.017925,-0.094533,8.210455,-18.443497,-30.324371,,,,,,,
1537037997.909942,0.135073,0.221407,1.257928,-0.237990,-0.427071,-0.179516,0.131375,-0.219603,-0.966703,-0.072812,0.013808,-0.084414,8.210455,-18.443497,-30.324371,,,,,,,
1537037997.919921,0.130704,0.218864,1.254354,-0.218259,-0.515974,-0.262579,0.127223,-0.217121,-0.967819,-0.028071,0.021412,-0.056626,8.147423,-18.199024,-30.527771,,,,,,,
1537037997.929870,0.125440,0.216420,1.252461,-0.222245,-0.583074,-0.197419,0.122192,-0.214735,-0.968998,-0.097473,0.012556,-0.037898,8.147423,-18.199024,-30.527771,,,,,,,
1537037997.939849,0.119729,0.213980,1.249944,-0.227025,-0.606430,-0.148320,0.116719,-0.212350,-0.970198,-0.138142,0.008188,-0.012590,7.843349,-18.124912,-30.796204,,,,,,,
1537037997.949828,0.116953,0.214660,1.247891,-0.144069,-0.485262,-0.199225,0.114008,-0.213016,-0.970374,-0.137842,0.051272,0.039146,7.843349,-18.124912,-30.796204,,,,,,,
1537037997.959808,0.112047,0.213435,1.245659,-0.066941,-0.523136,-0.244663,0.109276,-0.211818,-0.971181,-0.125557,0.086651,0.109883,7.843349,-18.124912,-30.796204,,,,,,,
1537037997.969787,0.105421,0.212789,1.242414,-0.015585,-0.689853,-0.194042,0.102852,-0.211187,-0.972019,-0.137429,0.069051,0.076679,7.688723,-18.027447,-30.709747,,,,,,,
1537037997.979766,0.096743,0.212477,1.241253,0.024724,-0.860695,-0.103981,0.094420,-0.210882,-0.972941,-0.145079,0.065512,0.057718,7.688723,-18.027447,-30.709747,,,,,,,
1537037997.989745,0.085617,0.212362,1.240566,0.021134,-1.024859,0.005045,0.083591,-0.210770,-0.973955,-0.133548,0.045654,0.064028,7.055729,-18.110126,-31.070953,,,,,,,
1537037997.999725,0.074966,0.211877,1.241204,0.012590,-1.121781,0.092628,0.073221,-0.210295,-0.974892,-0.121347,0.049666,0.074135,7.055729,-18.110126,-31.070953,,,,,,,
1537037998.009704,0.061217,0.211853,1.241564,0.004451,-1.208117,0.139638,0.059811,-0.210272,-0.975812,-0.108120,0.065618,0.087994,6.475554,-17.802292,-31.189178,,,,,,,
1537037998.019653,0.045991,0.212212,1.243559,0.025670,-1.246660,0.141928,0.044943,-0.210622,-0.976534,-0.091300,0.087179,0.104387,6.475554,-17.802292,-31.189178,,,,,,,
1537037998.029632,0.031842,0.212201,1.244009,0.057964,-1.216983,0.119658,0.031123,-0.210612,-0.977074,-0.080668,0.108500,0.132683,5.502062,-17.899487,-31.191559,,,,,,,
1537037998.039611,0.019200,0.212396,1.245029,0.108728,-1.153292,0.072903,0.018767,-0.210802,-0.977349,-0.089599,0.121218,0.150017,5.502062,-17.899487,-31.191559,,,,,,,
1537037998.049590,0.008414,0.213980,1.244190,0.175731,-1.045942,0.012317,0.008222,-0.212351,-0.977159,-0.097807,0.118952,0.136949,4.611197,-17.998085,-31.644073,,,,,,,
1537037998.059570,-0.001219,0.216159,1.243895,0.226587,-0.952363,-0.037668,-0.001191,-0.214480,-0.976728,-0.106597,0.110461,0.117032,4.611197,-17.998085,-31.644073,,,,,,,
1537037998.069549,-0.009649,0.219906,1.242309,0.206002,-0.984231,-0.013197,-0.009416,-0.218137,-0.975873,-0.098799,0.083234,0.089368,4.025986,-17.883324,-31.640991,,,,,,,
1537037998.079528,-0.020957,0.221294,1.242433,0.115567,-1.173735,0.017457,-0.020444,-0.219492,-0.975400,-0.077471,0.060160,0.028180,4.025986,-17.883324,-31.640991,,,,,,,
1537037998.089507,-0.033064,0.221943,1.242019,0.055640,-1.196882,0.029961,-0.032247,-0.220125,-0.974939,-0.055903,0.076051,0.014993,3.005705,-17.811844,-31.739166,,,,,,,
1537037998.099487,-0.043890,0.222652,1.242273,0.083926,-1.034769,0.018211,-0.042792,-0.220817,-0.974376,-0.053643,0.086174,0.080623,3.005705,-17.811844,-31.739166,,,,,,,
1537037998.109435,-0.051949,0.225630,1.241188,0.184117,-0.860313,-0.034789,-0.050610,-0.223720,-0.973339,-0.070042,0.092006,0.123027,2.371704,-17.928280,-31.786316,,,,,,,
1537037998.119415,-0.059585,0.228380,1.240437,0.300297,-0.759652,-0.106842,-0.058004,-0.226399,-0.972306,-0.080271,0.116918,0.121888,2.371704,-17.928280,-31.786316,,,,,,,
1537037998.129394,-0.065086,0.232308,1.238039,0.410010,-0.530993,-0.250577,-0.063292,-0.230224,-0.971077,-0.083329,0.134292,0.114586,1.976255,-18.297562,-31.931061,,,,,,,
1537037998.139373,-0.068707,0.237776,1.234386,0.565644,-0.429723,-0.436630,-0.066721,-0.235542,-0.969571,-0.052954,0.125602,0.118283,1.976255,-18.297562,-31.931061,,,,,,,
1537037998.149352,-0.069638,0.246097,1.228577,0.704268,-0.223677,-0.598331,-0.067485,-0.243620,-0.967520,-0.095311,0.093947,0.110495,1.776096,-18.649326,-31.730988,,,,,,,
1537037998.159331,-0.067804,0.253629,1.221988,0.694447,0.088951,-0.713985,-0.065585,-0.250919,-0.965784,-0.181013,0.042667,0.052789,1.776096,-18.649326,-31.730988,,,,,,,
1537037998.169311,-0.065563,0.259812,1.214179,0.520389,-0.014799,-0.728711,-0.063317,-0.256899,-0.964362,-0.254813,-0.024031,-0.052072,2.158539,-19.031315,-31.304596,,,,,,,
1537037998.179290,-0.066823,0.263322,1.207974,0.236300,-0.375971,-0.570858,-0.064471,-0.260289,-0.963376,-0.236707,-0.086116,-0.128085,2.158539,-19.031315,-31.304596,,,,,,,
1537037998.189239,-0.072350,0.262818,1.204185,-0.062587,-0.623603,-0.281901,-0.069805,-0.259803,-0.963135,-0.199894,-0.126107,-0.130950,1.959457,-18.816360,-31.375031,,,,,,,
1537037998.199218,-0.079590,0.259446,1.202417,-0.291160,-0.695809,-0.162457,-0.076845,-0.256545,-0.963473,-0.162337,-0.091569,-0.075239,1.959457,-18.816360,-31.375031,,,,,,,
1537037998.209186,-0.087372,0.254463,1.200019,-0.405279,-0.743296,-0.181182,-0.084451,-0.251725,-0.964107,-0.106391,-0.003569,-0.015507,1.644403,-18.790901,-31.610413,,,,,,,
1537037998.219165,-0.094703,0.249371,1.197748,-0.407245,-0.739053,-0.198276,-0.091637,-0.246794,-0.964726,-0.085289,0.044905,0.028370,1.644403,-18.790901,-31.610413,,,,,,,
1537037998.229145,-0.102352,0.245324,1.195178,-0.343199,-0.694525,-0.188362,-0.099114,-0.242871,-0.964982,-0.066444,0.044628,0.057984,1.136200,-18.512665,-31.749329,,,,,,,
1537037998.239124,-0.111081,0.242638,1.193047,-0.281934,-0.752644,-0.253084,-0.107606,-0.240264,-0.964725,-0.033706,0.034362,0.065631,1.136200,-18.512665,-31.749329,,,,,,,
1537037998.249103,-0.122869,0.241038,1.189912,-0.234714,-1.068942,-0.261044,-0.119017,-0.238711,-0.963770,0.034621,0.023486,0.051965,0.520239,-18.060715,-31.909576,,,,,,,
1537037998.259082,-0.138048,0.239949,1.188055,-0.220523,-1.457477,-0.181578,-0.133668,-0.237653,-0.962109,0.071076,-0.003833,0.069851,0.520239,-18.060715,-31.909576,,,,,,,
1537037998.269062,-0.159287,0.238877,1.185858,-0.237095,-2.198198,-0.108332,-0.154110,-0.236612,-0.959305,0.088665,0.001886,0.064651,-0.464163,-17.862598,-31.966461,,,,,,,
1537037998.279010,-0.183584,0.237035,1.184810,-0.184097,-2.563521,-0.061773,-0.177450,-0.234821,-0.955704,0.124640,0.007984,0.031464,-0.464163,-17.862598,-31.966461,,,,,,,
1537037998.288990,-0.212155,0.236208,1.182947,-0.068436,-2.950730,-0.107714,-0.204720,-0.234017,-0.950434,0.133752,-0.005302,0.060023,-2.474438,-17.569534,-32.143799,,,,,,,
1537037998.298969,-0.244175,0.237132,1.180975,0.088431,-3.412030,-0.247290,-0.234990,-0.234915,-0.943183,0.129292,0.002951,0.029914,-2.474438,-17.569534,-32.143799,,,,,,,
1537037998.308948,-0.278656,0.241476,1.177522,0.317077,-3.566340,-0.443358,-0.267083,-0.239136,-0.933531,0.111016,0.028916,-0.045503,-4.834791,-17.882160,-32.022247,,,,,,,
1537037998.318927,-0.313209,0.248931,1.172893,0.685616,-3.559282,-0.723147,-0.298616,-0.246368,-0.922026,0.085787,0.050460,-0.011766,-4.834791,-17.882160,-32.022247,,,,,,,
1537037998.328907,-0.343521,0.261424,1.167237,1.119110,-3.022870,-0.945476,-0.325361,-0.258457,-0.909582,0.009260,0.091770,-0.042917,-6.779135,-18.306126,-31.394379,,,,,,,
1537037998.338886,-0.372183,0.277217,1.162335,1.360434,-3.149184,-1.003802,-0.349766,-0.273680,-0.895970,-0.024792,0.086394,-0.041499,-6.779135,-18.306126,-31.394379,,,,,,,
1537037998.348865,-0.405683,0.294607,1.158826,1.409712,-3.533598,-0.908140,-0.377644,-0.290364,-0.879246,-0.132640,0.125706,-0.268978,-8.804570,-19.344364,-30.593475,,,,,,,
1537037998.358844,-0.443689,0.309603,1.156944,1.228621,-4.067205,-0.749544,-0.408865,-0.304680,-0.860232,-0.040247,-0.023109,-0.265927,-8.804570,-19.344364,-30.593475,,,,,,,
1537037998.368793,-0.492293,0.319776,1.153991,0.594999,-5.152886,-0.739111,-0.448687,-0.314354,-0.836577,-0.012601,-0.031410,-0.387651,-11.441625,-20.141251,-29.492035,,,,,,,
1537037998.378772,-0.542111,0.324491,1.148432,-0.010511,-5.192306,-0.691155,-0.489020,-0.318826,-0.811917,0.015113,-0.006262,-0.393848,-11.441625,-20.141251,-29.492035,,,,,,,
1537037998.388752,-0.588442,0.323862,1.139656,-0.755057,-4.870057,-0.614439,-0.526210,-0.318231,-0.788563,-0.035573,0.087777,-0.214809,-14.557656,-20.059982,-28.741760,,,,,,,
1537037998.398731,-0.630784,0.316488,1.129546,-1.270624,-4.465077,-0.239797,-0.560486,-0.311231,-0.767457,-0.019882,0.124662,-0.095672,-14.557656,-20.059982,-28.741760,,,,,,,
1537037998.408710,-0.671615,0.303229,1.121681,-1.624006,-4.288004,0.299282,-0.593862,-0.298603,-0.747104,-0.200450,0.007603,-0.021390,-17.337265,-19.233700,-28.059845,,,,,,,
1537037998.418689,-0.710964,0.285255,1.113976,-1.933026,-4.122243,0.656077,-0.626194,-0.281402,-0.727113,-0.205334,0.016555,0.007448,-17.337265,-19.233700,-28.059845,,,,,,,
1537037998.428669,-0.743613,0.264136,1.106008,-2.127857,-3.143756,0.900599,-0.653474,-0.261075,-0.710501,-0.130935,0.149228,0.133795,-17.337265,-19.233700,-28.059845,,,,,,,
1537037998.438648,-0.759356,0.241678,1.098258,-2.085158,-1.394750,1.069853,-0.668446,-0.239332,-0.704202,-0.075481,0.095609,0.570107,-19.699360,-17.764153,-27.975677,,,,,,,
1537037998.448627,-0.768509,0.221131,1.092334,-1.806735,-0.995002,0.962096,-0.678139,-0.219333,-0.701441,0.050835,-0.168393,0.626338,-19.699360,-17.764153,-27.975677,,,,,,,
1537037998.458576,-0.776092,0.204876,1.086065,-1.517251,-0.868098,0.614501,-0.685846,-0.203446,-0.698731,0.182840,-0.190017,0.225129,-20.741192,-16.166870,-27.894043,,,,,,,
1537037998.468555,-0.781306,0.193554,1.079511,-1.166337,-0.560036,0.255316,-0.691058,-0.192348,-0.696736,0.244158,-0.044682,0.213841,-20.741192,-16.166870,-27.894043,,,,,,,
1537037998.478534,-0.783704,0.186961,1.074087,-0.743244,-0.302226,0.036414,-0.693607,-0.185874,-0.695960,0.216403,0.026893,0.314902,-21.545769,-15.325001,-27.980103,,,,,,,
1537037998.488514,-0.785887,0.183948,1.071175,-0.310845,-0.267176,0.015267,-0.695517,-0.182913,-0.694837,0.195670,0.011618,0.338239,-21.545769,-15.325001,-27.980103,,,,,,,
1537037998.498493,-0.787825,0.183330,1.070895,-0.018075,-0.183344,-0.004563,-0.696942,-0.182305,-0.693568,0.096250,0.062126,0.396906,-21.871548,-14.896793,-27.983704,,,,,,,
1537037998.508472,-0.790546,0.184053,1.070374,-0.013457,-0.350118,-0.091900,-0.698733,-0.183015,-0.691576,0.001284,0.196825,0.379976,-21.871548,-14.896793,-27.983704,,,,,,,
1537037998.518451,-0.796784,0.183163,1.068697,-0.286662,-0.774693,-0.095103,-0.703150,-0.182141,-0.687317,-0.050406,0.199856,0.210480,-22.211874,-14.916092,-27.739197,,,,,,,
1537037998.528431,-0.806407,0.180407,1.064361,-0.557943,-1.144740,-0.058856,-0.710091,-0.179430,-0.680864,-0.152351,0.172060,0.089265,-22.211874,-14.916092,-27.739197,,,,,,,
1537037998.538410,-0.820688,0.174390,1.061221,-0.693765,-1.608745,0.300600,-0.720518,-0.173507,-0.671378,-0.215135,0.213378,0.081077,-22.775633,-14.466095,-27.400970,,,,,,,
1537037998.548359,-0.839886,0.164800,1.060014,-0.769828,-2.079223,0.772473,-0.734479,-0.164055,-0.658503,-0.260943,0.112542,0.069972,-22.775633,-14.466095,-27.400970,,,,,,,
1537037998.558338,-0.864434,0.151178,1.061985,-0.782935,-2.528670,1.247875,-0.752051,-0.150603,-0.641668,-0.278329,0.076888,0.061712,-24.192385,-13.741001,-26.723267,,,,,,,
1537037998.568317,-0.892803,0.133958,1.065657,-0.837835,-2.886223,1.656770,-0.771855,-0.133558,-0.621612,-0.262980,0.066602,0.054016,-24.192385,-13.741001,-26.723267,,,,,,,
1537037998.578296,-0.925104,0.113703,1.070083,-0.951104,-3.284392,1.906332,-0.793526,-0.113458,-0.597866,-0.210029,0.064706,0.024730,-26.107052,-12.825375,-25.847931,,,,,,,
1537037998.588276,-0.960445,0.091917,1.073220,-1.076386,-3.584653,1.981738,-0.815987,-0.091788,-0.570736,-0.124229,0.108008,0.001904,-26.107052,-12.825375,-25.847931,,,,,,,
1537037998.598255,-0.997723,0.069322,1.074848,-1.113098,-3.772391,1.973187,-0.838220,-0.069267,-0.540915,-0.065237,0.149848,0.045630,-28.399035,-11.013935,-24.473419,,,,,,,
1537037998.608234,-1.035065,0.047958,1.076084,-0.985774,-3.688998,1.843572,-0.858907,-0.047940,-0.509883,-0.012004,0.197064,0.126445,-28.399035,-11.013935,-24.473419,,,,,,,
1537037998.618213,-1.070125,0.028625,1.076696,-0.889743,-3.470998,1.675223,-0.876901,-0.028621,-0.479818,0.018976,0.185558,0.160833,-30.751671,-9.613628,-22.649719,,,,,,,
1537037998.628193,-1.103175,0.010480,1.076286,-0.888133,-3.257715,1.564000,-0.892594,-0.010480,-0.450739,0.028703,0.140912,0.098063,-30.751671,-9.613628,-22.649719,,,,,,,
1537037998.638141,-1.133607,-0.006639,1.074588,-0.908578,-2.978158,1.435510,-0.905925,0.006639,-0.423386,0.043102,0.121642,0.043091,-32.396839,-8.200924,-20.704956,,,,,,,
1537037998.648121,-1.161461,-0.022794,1.071844,-0.921988,-2.698537,1.352959,-0.917147,0.022792,-0.397896,0.072573,0.134236,0.029594,-32.396839,-8.200924,-20.704956,,,,,,,
1537037998.658100,-1.185644,-0.037968,1.067562,-0.985787,-2.348335,1.201744,-0.926073,0.037959,-0.375430,0.072588,0.094472,0.031543,-33.755333,-7.062492,-19.228424,,,,,,,
1537037998.668079,-1.207359,-0.051893,1.062301,-1.008354,-2.064499,1.072171,-0.933422,0.051870,-0.355010,0.072353,0.139292,0.015563,-33.755333,-7.062492,-19.228424,,,,,,,
1537037998.678058,-1.225563,-0.064636,1.055640,-1.056285,-1.694050,0.941305,-0.939032,0.064591,-0.337709,0.038748,0.127151,0.010774,-34.538876,-5.961433,-17.981354,,,,,,,
1537037998.688038,-1.240356,-0.076246,1.047951,-1.131998,-1.338400,0.811368,-0.943151,0.076172,-0.323517,-0.012384,0.097305,0.011368,-34.538876,-5.961433,-17.981354,,,,,,,
1537037998.698017,-1.252542,-0.087381,1.038246,-1.266308,-1.084772,0.758069,-0.946159,0.087270,-0.311715,-0.060829,0.054759,-0.017707,-35.237999,-5.084545,-17.214203,,,,,,,
1537037998.707996,-1.262973,-0.098689,1.027257,-1.434157,-0.894960,0.735606,-0.948358,0.098529,-0.301511,-0.121970,-0.000476,-0.045565,-35.237999,-5.084545,-17.214203,,,,,,,
1537037998.717975,-1.272986,-0.110143,1.014375,-1.572639,-0.891076,0.714559,-0.950189,0.109921,-0.291649,-0.158027,0.011478,-0.083167,-35.600975,-4.149185,-16.500702,,,,,,,
1537037998.727924,-1.283606,-0.121388,1.001156,-1.585359,-0.914533,0.698501,-0.951987,0.121091,-0.281174,-0.161173,0.022342,-0.092834,-35.600975,-4.149185,-16.500702,,,,,,,
1537037998.737903,-1.294274,-0.132280,0.987840,-1.536098,-0.897746,0.681678,-0.953606,0.131894,-0.270627,-0.173820,0.015322,-0.053424,-35.983189,-3.032219,-16.096558,,,,,,,
1537037998.747883,-1.304890,-0.142561,0.974912,-1.505737,-0.885201,0.632729,-0.955067,0.142079,-0.260118,-0.184109,-0.002720,-0.069441,-35.983189,-3.032219,-16.096558,,,,,,,
1537037998.757862,-1.315819,-0.151855,0.961557,-1.478324,-0.912231,0.544309,-0.956533,0.151272,-0.249321,-0.175211,-0.025296,-0.115562,-36.060051,-2.238686,-15.529236,,,,,,,
1537037998.767841,-1.326731,-0.159822,0.948810,-1.394008,-0.885157,0.433729,-0.957997,0.159143,-0.238570,-0.151241,-0.050118,-0.140672,-36.060051,-2.238686,-15.529236,,,,,,,
1537037998.777820,-1.336840,-0.166113,0.936562,-1.251716,-0.805053,0.300996,-0.959367,0.165350,-0.228636,-0.127776,-0.061224,-0.121721,-36.326832,-1.317421,-14.885620,,,,,,,
1537037998.787800,-1.346407,-0.171081,0.926415,-1.036620,-0.764670,0.243425,-0.960697,0.170248,-0.219263,-0.108257,-0.083853,-0.124075,-36.326832,-1.317421,-14.885620,,,,,,,
1537037998.797779,-1.354844,-0.174995,0.917793,-0.831054,-0.676180,0.191092,-0.961855,0.174103,-0.211005,-0.097395,-0.137696,-0.125359,-36.677757,-0.975492,-14.471008,,,,,,,
1537037998.807758,-1.362068,-0.177939,0.911461,-0.619162,-0.597318,0.145207,-0.962848,0.177002,-0.203944,-0.094433,-0.127075,-0.121007,-36.677757,-0.975492,-14.471008,,,,,,,
1537037998.817707,-1.368521,-0.179956,0.906870,-0.410617,-0.566482,0.100420,-0.963793,0.178986,-0.197655,-0.081099,-0.114320,-0.140419,-36.790176,-0.834028,-13.930817,,,,,,,
1537037998.827686,-1.374573,-0.181311,0.904392,-0.218376,-0.564333,0.080124,-0.964733,0.180320,-0.191770,-0.087208,-0.104346,-0.147173,-36.790176,-0.834028,-13.930817,,,,,,,
1537037998.837665,-1.380725,-0.182127,0.903308,-0.053986,-0.615426,0.058657,-0.965749,0.181122,-0.185804,-0.095423,-0.092117,-0.162875,-36.860657,-0.715921,-13.541443,,,,,,,
1537037998.847644,-1.387308,-0.182349,0.903994,0.100810,-0.691047,0.026492,-0.966912,0.181340,-0.179435,-0.096717,-0.080189,-0.178337,-36.860657,-0.715921,-13.541443,,,,,,,
1537037998.857624,-1.394366,-0.181945,0.906066,0.269467,-0.766746,-0.007727,-0.968226,0.180943,-0.172619,-0.096395,-0.070835,-0.180911,-37.172340,-0.921488,-13.174896,,,,,,,
1537037998.867603,-1.401672,-0.181119,0.909962,0.432649,-0.810325,-0.014260,-0.969608,0.180131,-0.165566,-0.091381,-0.063920,-0.175025,-37.172340,-0.921488,-13.174896,,,,,,,
1537037998.877582,-1.408768,-0.180434,0.915258,0.553870,-0.803383,0.033364,-0.970881,0.179456,-0.158702,-0.078146,-0.045240,-0.168187,-37.172340,-0.921488,-13.174896,,,,,,,
1537037998.887561,-1.415355,-0.180440,0.921091,0.611864,-0.761858,0.120103,-0.971904,0.179462,-0.152302,-0.062474,-0.025043,-0.172649,-37.365616,-0.993032,-12.486877,,,,,,,
1537037998.897541,-1.421555,-0.181516,0.927554,0.608763,-0.734903,0.232143,-0.972638,0.180521,-0.146246,-0.056949,-0.008279,-0.183970,-37.365616,-0.993032,-12.486877,,,,,,,
1537037998.907489,-1.427677,-0.183820,0.933220,0.552235,-0.725810,0.348175,-0.973101,0.182787,-0.140228,-0.052366,-0.005983,-0.195923,-37.549591,-0.815313,-12.107941,,,,,,,
1537037998.917469,-1.433795,-0.187464,0.938841,0.478621,-0.709142,0.469442,-0.973274,0.186368,-0.134181,-0.045601,-0.007627,-0.188070,-37.549591,-0.815313,-12.107941,,,,,,,
1537037998.927448,-1.439906,-0.192345,0.943489,0.413618,-0.710702,0.575832,-0.973162,0.191161,-0.128110,-0.035627,-0.002486,-0.167560,-37.725105,-0.664644,-11.248383,,,,,,,
1537037998.937427,-1.446234,-0.198135,0.948100,0.364884,-0.727368,0.649236,-0.972839,0.196841,-0.121810,-0.015106,-0.005511,-0.150667,-37.725105,-0.664644,-11.248383,,,,,,,
1537037998.947406,-1.452785,-0.204518,0.952055,0.319628,-0.743049,0.692769,-0.972349,0.203095,-0.115284,0.009321,-0.017075,-0.131771,-37.961319,-0.515003,-10.917419,,,,,,,
1537037998.957386,-1.459357,-0.211180,0.955770,0.273643,-0.732101,0.706384,-0.971719,0.209613,-0.108738,0.039438,-0.019336,-0.118542,-37.961319,-0.515003,-10.917419,,,,,,,
1537037998.967365,-1.465737,-0.217768,0.958565,0.228086,-0.698818,0.681549,-0.970999,0.216051,-0.102389,0.070837,-0.016482,-0.110807,-38.064724,-0.020987,-10.579987,,,,,,,
1537037998.977344,-1.471613,-0.224053,0.961288,0.192342,-0.630381,0.643923,-0.970213,0.222183,-0.096546,0.099882,-0.016845,-0.096936,-38.064724,-0.020987,-10.579987,,,,,,,
1537037998.987323,-1.474573,-0.229975,0.963756,0.175903,-0.551386,0.598920,-0.969168,0.227953,-0.093546,0.123679,-0.017824,-0.080069,-38.241493,0.431862,-10.150574,,,,,,,
1537037998.997272,-1.476803,-0.235402,0.966626,0.184026,-0.460768,0.557239,-0.968128,0.233234,-0.091266,0.141316,-0.014499,-0.071347,-38.241493,0.431862,-10.150574,,,,,,,
1537037999.007251,-1.478316,-0.240569,0.969268,0.211150,-0.368069,0.535944,-0.967052,0.238255,-0.089689,0.147930,-0.017964,-0.064257,-38.470509,1.103271,-9.627502,,,,,,,
1537037999.017231,-1.479008,-0.245560,0.972731,0.265837,-0.287230,0.527627,-0.965918,0.243100,-0.088909,0.146948,-0.023953,-0.055210,-38.470509,1.103271,-9.627502,,,,,,,
1537037999.027210,-1.479017,-0.250443,0.976591,0.332105,-0.221368,0.534328,-0.964725,0.247834,-0.088791,0.143634,-0.020722,-0.048019,-38.343369,1.394444,-9.361023,,,,,,,
1537037999.037189,-1.478357,-0.255394,0.981325,0.394039,-0.167215,0.546353,-0.963433,0.252627,-0.089314,0.136910,-0.013460,-0.039821,-38.343369,1.394444,-9.361023,,,,,,,
1537037999.047168,-1.476940,-0.260489,0.986422,0.436768,-0.104418,0.559333,-0.962011,0.257553,-0.090557,0.129934,0.001999,-0.030124,-38.425171,1.540636,-9.330475,,,,,,,
1537037999.057148,-1.475052,-0.265725,0.992012,0.469879,-0.042634,0.574396,-0.960483,0.262609,-0.092243,0.122714,0.024760,-0.017239,-38.425171,1.540636,-9.330475,,,,,,,
1537037999.067127,-1.473763,-0.271101,0.997713,0.491118,-0.013876,0.593697,-0.958944,0.267792,-0.093342,0.119055,0.042129,-0.013164,-38.339745,1.582880,-9.281921,,,,,,,
1537037999.077106,-1.472196,-0.276796,1.003507,0.503582,0.002163,0.634314,-0.957264,0.273275,-0.094694,0.110660,0.052592,-0.009677,-38.339745,1.582880,-9.281921,,,,,,,
1537037999.087055,-1.470549,-0.282963,1.009513,0.519075,-0.004207,0.687778,-0.955411,0.279202,-0.096099,0.099790,0.061633,-0.000260,-38.539948,2.206863,-9.341248,,,,,,,
1537037999.097034,-1.468831,-0.289660,1.015823,0.542000,-0.007405,0.744484,-0.953364,0.285626,-0.097548,0.090586,0.069675,0.009169,-38.539948,2.206863,-9.341248,,,,,,,
1537037999.107013,-1.466954,-0.296865,1.022494,0.571417,-0.001041,0.795877,-0.951107,0.292524,-0.099122,0.079204,0.076540,0.022019,-38.495300,2.801149,-9.249146,,,,,,,
1537037999.116993,-1.464702,-0.304308,1.029670,0.617178,0.020117,0.816386,-0.948690,0.299633,-0.101030,0.067052,0.087970,0.039705,-38.495300,2.801149,-9.249146,,,,,,,
1537037999.126972,-1.462047,-0.311622,1.037662,0.664295,0.036922,0.802750,-0.946215,0.306603,-0.103308,0.054995,0.099952,0.063131,-38.369164,3.109394,-9.109375,,,,,,,
1537037999.136951,-1.459067,-0.318621,1.045770,0.696582,0.051640,0.775161,-0.943747,0.313258,-0.105886,0.040335,0.109365,0.080403,-38.369164,3.109394,-9.109375,,,,,,,
1537037999.146930,-1.455888,-0.325284,1.054197,0.705414,0.055796,0.744249,-0.941311,0.319578,-0.108643,0.023373,0.121813,0.089509,-38.320877,3.349333,-9.494446,,,,,,,
1537037999.156910,-1.452722,-0.331687,1.062349,0.688569,0.053699,0.721739,-0.938911,0.325639,-0.111379,0.001182,0.128447,0.088751,-38.320877,3.349333,-9.494446,,,,,,,
1537037999.166889,-1.449516,-0.337824,1.070345,0.649435,0.069849,0.689484,-0.936548,0.331435,-0.114145,-0.025946,0.130373,0.085992,-38.164181,4.119287,-9.450043,,,,,,,
1537037999.176838,-1.446296,-0.343829,1.077512,0.591403,0.095638,0.625095,-0.934184,0.337094,-0.116911,-0.054037,0.135379,0.082823,-38.164181,4.119287,-9.450043,,,,,,,
1537037999.186817,-1.443428,-0.348921,1.083940,0.508160,0.101168,0.513618,-0.932130,0.341884,-0.119370,-0.072234,0.134312,0.068116,-37.952263,4.174212,-9.691772,,,,,,,
1537037999.196796,-1.441146,-0.352767,1.088981,0.418797,0.091707,0.366897,-0.930544,0.345496,-0.121326,-0.083936,0.126504,0.047534,-37.952263,4.174212,-9.691772,,,,,,,
1537037999.206775,-1.439690,-0.355068,1.093027,0.332892,0.070414,0.189250,-0.929576,0.347654,-0.122576,-0.088872,0.112505,0.032320,-38.050274,4.323801,-9.617950,,,,,,,
1537037999.216733,-1.439107,-0.355742,1.095764,0.266112,0.030878,0.014929,-0.929272,0.348286,-0.123087,-0.086933,0.089443,0.024195,-38.050274,4.323801,-9.617950,,,,,,,
1537037999.226712,-1.439349,-0.355127,1.097799,0.223500,-0.017244,-0.121890,-0.929514,0.347709,-0.122890,-0.081030,0.051629,0.013058,-38.019997,4.466766,-9.832855,,,,,,,
1537037999.236691,-1.440149,-0.353725,1.099528,0.226174,-0.056917,-0.192287,-0.930094,0.346395,-0.122210,-0.074347,0.008891,0.003405,-38.019997,4.466766,-9.832855,,,,,,,
1537037999.246670,-1.440874,-0.352062,1.101659,0.275125,-0.077443,-0.184525,-0.930752,0.344834,-0.121610,-0.066974,-0.028733,0.003217,-38.002125,4.026257,-9.984741,,,,,,,
1537037999.256650,-1.440644,-0.350179,1.104953,0.352477,-0.095882,-0.130712,-0.931366,0.343066,-0.121908,-0.060501,-0.056063,0.007681,-38.002125,4.026257,-9.984741,,,,,,,
1537037999.266598,-1.440232,-0.348936,1.109167,0.432784,-0.108940,-0.050199,-0.931738,0.341898,-0.122348,-0.057169,-0.074518,0.002307,-38.046486,4.059803,-9.927490,,,,,,,
1537037999.276578,-1.439791,-0.348389,1.114249,0.498126,-0.134737,0.027046,-0.931869,0.341384,-0.122783,-0.057328,-0.081558,-0.011907,-38.046486,4.059803,-9.927490,,,,,,,
1537037999.286557,-1.439409,-0.348361,1.119920,0.541316,-0.163678,0.078550,-0.931832,0.341357,-0.123141,-0.058311,-0.076434,-0.020338,-38.218697,3.985218,-9.616821,,,,,,,
1537037999.296536,-1.439133,-0.348676,1.126044,0.576121,-0.188333,0.117191,-0.931691,0.341654,-0.123384,-0.057124,-0.064127,-0.027282,-38.218697,3.985218,-9.616821,,,,,,,
1537037999.306515,-1.438757,-0.349315,1.132525,0.607815,-0.179878,0.153650,-0.931428,0.342254,-0.123705,-0.057448,-0.054076,-0.031614,-38.109749,4.056145,-9.721436,,,,,,,
1537037999.316495,-1.437969,-0.350350,1.139457,0.643722,-0.146862,0.201851,-0.930978,0.343227,-0.124391,-0.059881,-0.041591,-0.031477,-38.109749,4.056145,-9.721436,,,,,,,
1537037999.326474,-1.436570,-0.351784,1.146928,0.678635,-0.103172,0.246831,-0.930315,0.344573,-0.125629,-0.062834,-0.024291,-0.027326,-38.315414,4.115053,-9.430481,,,,,,,
1537037999.336453,-1.434613,-0.353609,1.154679,0.702902,-0.062634,0.289619,-0.929443,0.346286,-0.127362,-0.067353,-0.008380,-0.024951,-38.315414,4.115053,-9.430481,,,,,,,
1537037999.346402,-1.432254,-0.355838,1.162608,0.710028,-0.032676,0.335528,-0.928373,0.348376,-0.129448,-0.078158,0.010907,-0.023354,-38.315414,4.115053,-9.430481,,,,,,,
1537037999.356381,-1.429625,-0.358464,1.170642,0.693733,-0.004746,0.373841,-0.927120,0.350836,-0.131760,-0.091480,0.030237,-0.021286,-38.362724,4.242556,-9.474731,,,,,,,
1537037999.366360,-1.426744,-0.361481,1.178255,0.650815,0.028657,0.409865,-0.925685,0.353660,-0.134277,-0.101872,0.048744,-0.020661,-38.362724,4.242556,-9.474731,,,,,,,
1537037999.376340,-1.423786,-0.364861,1.185406,0.582391,0.052558,0.434014,-0.924096,0.356819,-0.136839,-0.106833,0.068382,-0.022371,-38.267147,4.298826,-9.570007,,,,,,,
1537037999.386319,-1.420917,-0.368415,1.191596,0.498114,0.069024,0.437805,-0.922440,0.360137,-0.139300,-0.106353,0.082993,-0.018049,-38.267147,4.298826,-9.570007,,,,,,,
1537037999.396298,-1.418397,-0.371993,1.196885,0.399000,0.064175,0.423390,-0.920807,0.363472,-0.141427,-0.102158,0.089683,-0.007667,-38.198551,4.625526,-9.697449,,,,,,,
1537037999.406277,-1.416404,-0.375483,1.200962,0.295708,0.045440,0.396156,-0.919264,0.366722,-0.143066,-0.091600,0.091988,0.001892,-38.198551,4.625526,-9.697449,,,,,,,
1537037999.416257,-1.415045,-0.378767,1.204085,0.190376,0.022419,0.357174,-0.917874,0.369775,-0.144127,-0.074664,0.084891,0.015557,-38.231056,4.805195,-9.744720,,,,,,,
1537037999.426236,-1.414341,-0.381821,1.205858,0.091448,-0.000636,0.318226,-0.916653,0.372611,-0.144597,-0.052723,0.073007,0.030492,-38.231056,4.805195,-9.744720,,,,,,,
1537037999.436184,-1.414166,-0.384588,1.206683,0.001124,-0.015204,0.275046,-0.915605,0.375177,-0.144596,-0.024809,0.059378,0.045978,-38.249588,5.210253,-9.775604,,,,,,,
1537037999.446164,-1.414411,-0.387030,1.206500,-0.073139,-0.017051,0.228740,-0.914733,0.377440,-0.144228,0.007720,0.043306,0.061068,-38.249588,5.210253,-9.775604,,,,,,,
1537037999.456143,-1.414907,-0.389129,1.205626,-0.140963,-0.009323,0.182458,-0.914020,0.379383,-0.143651,0.039813,0.029064,0.076741,-38.327461,5.281515,-9.792969,,,,,,,
1537037999.466122,-1.415341,-0.390875,1.204014,-0.185272,0.029252,0.139478,-0.913426,0.380998,-0.143152,0.070576,0.015807,0.093409,-38.327461,5.281515,-9.792969,,,,,,,
1537037999.476101,-1.415581,-0.392416,1.201981,-0.204083,0.068782,0.106247,-0.912879,0.382422,-0.142842,0.098777,0.007440,0.105214,-38.058147,5.378891,-9.854767,,,,,,,
1537037999.486081,-1.415463,-0.393789,1.199844,-0.210135,0.116808,0.082682,-0.912342,0.383690,-0.142868,0.117848,0.002159,0.113968,-38.058147,5.378891,-9.854767,,,,,,,
1537037999.496060,-1.414985,-0.395006,1.197630,-0.202343,0.170109,0.063456,-0.911812,0.384814,-0.143232,0.129051,-0.002826,0.122007,-37.921295,5.463776,-10.004822,,,,,,,
1537037999.506039,-1.413965,-0.396005,1.195437,-0.197714,0.237306,0.044199,-0.911285,0.385736,-0.144102,0.135712,-0.002847,0.129697,-37.921295,5.463776,-10.004822,,,,,,,
1537037999.516018,-1.412396,-0.396735,1.193178,-0.198353,0.301311,0.017444,-0.910780,0.386409,-0.145487,0.139067,-0.001460,0.137751,-38.148048,5.524748,-10.177368,,,,,,,
1537037999.525967,-1.409921,-0.397020,1.190987,-0.206504,0.343998,-0.011465,-0.910308,0.386672,-0.147722,0.139388,-0.000060,0.142245,-38.148048,5.524748,-10.177368,,,,,,,
1537037999.535946,-1.407974,-0.397200,1.188383,-0.211508,0.372790,-0.039275,-0.909950,0.386838,-0.149484,0.134315,-0.001874,0.143731,-38.059090,5.437750,-10.268555,,,,,,,
1537037999.545926,-1.405958,-0.397040,1.185726,-0.195115,0.396116,-0.074434,-0.909708,0.386690,-0.151328,0.126932,-0.003557,0.148337,-38.059090,5.437750,-10.268555,,,,,,,
1537037999.555905,-1.403589,-0.396517,1.183417,-0.156440,0.399055,-0.101980,-0.909547,0.386208,-0.153516,0.119065,-0.003014,0.158826,-37.922058,5.454428,-10.612976,,,,,,,
1537037999.565884,-1.400197,-0.395595,1.182115,-0.083830,0.385839,-0.112242,-0.909371,0.385357,-0.156660,0.107278,-0.001461,0.170393,-37.922058,5.454428,-10.612976,,,,,,,
1537037999.575863,-1.396635,-0.394657,1.181609,0.000226,0.368356,-0.093615,-0.909163,0.384491,-0.159961,0.089873,-0.000763,0.175846,-37.857460,5.486799,-10.893219,,,,,,,
1537037999.585843,-1.393022,-0.393918,1.182062,0.072338,0.339235,-0.054761,-0.908859,0.383809,-0.163296,0.070907,0.006587,0.174267,-37.857460,5.486799,-10.893219,,,,,,,
1537037999.595822,-1.389432,-0.393542,1.183181,0.119832,0.311332,-0.006438,-0.908408,0.383462,-0.166583,0.055350,0.021353,0.164783,-37.905891,5.382416,-11.054718,,,,,,,
1537037999.605801,-1.385831,-0.393652,1.184691,0.138477,0.301751,0.051316,-0.907761,0.383564,-0.169846,0.039673,0.040402,0.153488,-37.905891,5.382416,-11.054718,,,,,,,
1537037999.615750,-1.382194,-0.394322,1.186257,0.131594,0.305110,0.105713,-0.906885,0.384182,-0.173098,0.023797,0.061069,0.142642,-37.764336,5.428280,-11.435120,,,,,,,
1537037999.625729,-1.378424,-0.395420,1.187792,0.114239,0.323431,0.141893,-0.905811,0.385196,-0.176434,0.005359,0.083005,0.133679,-37.764336,5.428280,-11.435120,,,,,,,
1537037999.635708,-1.374506,-0.396744,1.189076,0.082173,0.349252,0.154502,-0.904612,0.386417,-0.179883,-0.014684,0.102551,0.129086,-37.438942,5.616177,-11.602264,,,,,,,
1537037999.645688,-1.370541,-0.398011,1.189926,0.040813,0.367572,0.132908,-0.903411,0.387585,-0.183371,-0.035493,0.116077,0.124823,-37.438942,5.616177,-11.602264,,,,,,,
1537037999.655667,-1.366791,-0.398880,1.190173,-0.013057,0.363453,0.072839,-0.902387,0.388387,-0.186689,-0.053882,0.127772,0.123091,-37.558327,5.730936,-11.614441,,,,,,,
1537037999.665646,-1.365343,-0.399110,1.188804,-0.074176,0.371071,-0.007563,-0.902028,0.388599,-0.187977,-0.067469,0.134244,0.116764,-37.558327,5.730936,-11.614441,,,,,,,
1537037999.675625,-1.364723,-0.398836,1.186362,-0.148187,0.376640,-0.079493,-0.902016,0.388346,-0.188558,-0.083794,0.136114,0.109456,-37.376587,5.526325,-12.016144,,,,,,,
1537037999.685605,-1.365172,-0.398261,1.182567,-0.235055,0.374812,-0.147217,-0.902319,0.387816,-0.188198,-0.093226,0.130006,0.096997,-37.376587,5.526325,-12.016144,,,,,,,
1537037999.695584,-1.365786,-0.397459,1.177738,-0.319901,0.355910,-0.206375,-0.902738,0.387077,-0.187708,-0.095263,0.115273,0.079599,-37.200985,5.494764,-12.232513,,,,,,,
1537037999.705533,-1.366470,-0.396428,1.172387,-0.387794,0.328396,-0.256890,-0.903257,0.386126,-0.187171,-0.097964,0.095869,0.067115,-37.200985,5.494764,-12.232513,,,,,,,
1537037999.715512,-1.366876,-0.394988,1.166562,-0.434424,0.296520,-0.297681,-0.903876,0.384797,-0.186917,-0.100976,0.072035,0.060941,-37.171448,5.384926,-12.266296,,,,,,,
1537037999.725491,-1.367448,-0.393212,1.160652,-0.457760,0.248534,-0.326582,-0.904651,0.383157,-0.186538,-0.099194,0.043280,0.053619,-37.171448,5.384926,-12.266296,,,,,,,
1537037999.735470,-1.368397,-0.391211,1.154624,-0.457829,0.184444,-0.340391,-0.905576,0.381308,-0.185833,-0.094652,0.016458,0.045345,-37.330025,5.261650,-12.407837,,,,,,,
1537037999.745450,-1.369170,-0.388755,1.149206,-0.434566,0.108517,-0.340186,-0.906635,0.379037,-0.185319,-0.089764,-0.004769,0.039552,-37.330025,5.261650,-12.407837,,,,,,,
1537037999.755429,-1.370635,-0.386397,1.144054,-0.399807,0.020834,-0.317490,-0.907779,0.376854,-0.184168,-0.079724,-0.022407,0.036081,-37.365967,5.266842,-12.365479,,,,,,,
1537037999.765408,-1.372947,-0.384401,1.139490,-0.368637,-0.100925,-0.262756,-0.908938,0.375004,-0.182217,-0.065320,-0.032505,0.034191,-37.365967,5.266842,-12.365479,,,,,,,
1537037999.775387,-1.375587,-0.382964,1.135256,-0.339310,-0.103085,-0.203883,-0.909944,0.373672,-0.179920,-0.049438,-0.032927,0.028782,-37.192497,5.213030,-12.117493,,,,,,,
1537037999.785367,-1.378403,-0.382021,1.131494,-0.320853,-0.159628,-0.139678,-0.910792,0.372797,-0.177425,-0.041555,-0.046488,0.011059,-37.192497,5.213030,-12.117493,,,,,,,
1537037999.795315,-1.381389,-0.381941,1.128030,-0.290868,-0.181995,-0.043419,-0.911347,0.372722,-0.174710,-0.029831,-0.054256,-0.013370,-37.239548,5.224049,-12.135620,,,,,,,
1537037999.805295,-1.384311,-0.382575,1.125538,-0.219155,-0.205677,0.040260,-0.911621,0.373311,-0.172003,-0.031952,-0.055333,-0.012995,-37.239548,5.224049,-12.135620,,,,,,,
1537037999.815274,-1.386993,-0.383818,1.124189,-0.120707,-0.220969,0.118741,-0.911622,0.374464,-0.169472,-0.027511,-0.064710,-0.019706,-37.239548,5.224049,-12.135620,,,,,,,
1537037999.825253,-1.389091,-0.385505,1.123943,-0.014507,-0.201111,0.178013,-0.911353,0.376027,-0.167445,-0.026300,-0.055516,-0.024175,-37.365814,5.133024,-11.961639,,,,,,,
1537037999.835232,-1.390903,-0.387214,1.124788,0.070545,-0.183320,0.217955,-0.911022,0.377610,-0.165678,-0.028767,-0.039933,-0.032671,-37.365814,5.133024,-11.961639,,,,,,,
1537037999.845212,-1.392110,-0.389013,1.126199,0.132314,-0.144088,0.241738,-0.910551,0.379275,-0.164457,-0.028093,-0.021670,-0.049960,-37.345451,5.178598,-11.809235,,,,,,,
1537037999.855191,-1.392704,-0.390822,1.128273,0.166510,-0.105819,0.247224,-0.909972,0.380948,-0.163794,-0.030458,0.000476,-0.065286,-37.345451,5.178598,-11.809235,,,,,,,
1537037999.865170,-1.392606,-0.392355,1.130340,0.166921,-0.046090,0.220479,-0.909380,0.382366,-0.163780,-0.033980,0.024571,-0.080376,-37.451195,5.351130,-11.787903,,,,,,,
1537037999.875149,-1.392005,-0.393462,1.132155,0.123779,-0.001136,0.167893,-0.908864,0.383388,-0.164251,-0.037226,0.052647,-0.090372,-37.451195,5.351130,-11.787903,,,,,,,
1537037999.885098,-1.391424,-0.393968,1.132984,0.046674,0.026861,0.091653,-0.908578,0.383856,-0.164744,-0.033179,0.072825,-0.101003,-37.382957,5.395428,-11.693878,,,,,,,
1537037999.895077,-1.390990,-0.393825,1.132897,-0.037923,0.048489,0.014313,-0.908560,0.383724,-0.165148,-0.030405,0.081181,-0.110029,-37.382957,5.395428,-11.693878,,,,,,,
1537037999.905057,-1.390770,-0.393156,1.131712,-0.112974,0.058332,-0.058696,-0.908776,0.383105,-0.165395,-0.021506,0.080182,-0.108516,-37.446392,5.467962,-11.677765,,,,,,,
1537037999.915036,-1.390701,-0.392105,1.129930,-0.167902,0.058493,-0.116642,-0.909161,0.382134,-0.165530,-0.006962,0.073035,-0.103117,-37.446392,5.467962,-11.677765,,,,,,,
1537037999.925015,-1.390730,-0.390897,1.127538,-0.209251,0.049033,-0.147816,-0.909619,0.381018,-0.165585,0.007199,0.057672,-0.097248,-37.505203,5.519669,-11.676025,,,,,,,
1537037999.934994,-1.390930,-0.389807,1.124982,-0.237004,0.026748,-0.152216,-0.910060,0.380010,-0.165477,0.023189,0.036524,-0.087528,-37.505203,5.519669,-11.676025,,,,,,,
1537037999.944974,-1.391187,-0.389017,1.122234,-0.256376,0.011932,-0.138431,-0.910398,0.379279,-0.165297,0.044065,0.016779,-0.076738,-37.517784,5.478064,-11.684143,,,,,,,
1537037999.954953,-1.391363,-0.388674,1.119564,-0.263034,0.005620,-0.111776,-0.910555,0.378962,-0.165160,0.068132,-0.001032,-0.061402,-37.517784,5.478064,-11.684143,,,,,,,
1537037999.964932,-1.391118,-0.388846,1.117094,-0.257919,0.022739,-0.082944,-0.910450,0.379121,-0.165371,0.088200,-0.015305,-0.041721,-37.372944,5.328503,-11.471558,,,,,,,
1537037999.974881,-1.390195,-0.389444,1.114964,-0.239964,0.051531,-0.056186,-0.910074,0.379674,-0.166171,0.106348,-0.027196,-0.023358,-37.372944,5.328503,-11.471558,,,,,,,
1537037999.984860,-1.388494,-0.390366,1.113317,-0.221845,0.092038,-0.042251,-0.909446,0.380527,-0.167655,0.120459,-0.036197,-0.005486,-37.491333,5.401360,-11.599213,,,,,,,
1537037999.994839,-1.386156,-0.391324,1.111774,-0.197200,0.153851,-0.034707,-0.908692,0.381412,-0.169715,0.128419,-0.042301,0.010977,-37.491333,5.401360,-11.599213,,,,,,,
1537038000.004819,-1.383099,-0.392148,1.110630,-0.162910,0.226285,-0.029255,-0.907860,0.382174,-0.172433,0.130715,-0.047289,0.025948,-37.302017,5.330648,-11.740356,,,,,,,
1537038000.014798,-1.379668,-0.392545,1.109626,-0.117846,0.302909,-0.034422,-0.907114,0.382541,-0.175518,0.127512,-0.044666,0.038967,-37.302017,5.330648,-11.740356,,,,,,,
1537038000.024777,-1.375618,-0.392554,1.109091,-0.073739,0.385924,-0.049208,-0.906392,0.382549,-0.179189,0.121206,-0.038677,0.052144,-37.080040,5.409409,-11.950470,,,,,,,
1537038000.034756,-1.370882,-0.392057,1.108640,-0.037949,0.471066,-0.087525,-0.905720,0.382090,-0.183517,0.113926,-0.028163,0.060715,-37.080040,5.409409,-11.950470,,,,,,,
1537038000.044736,-1.365557,-0.390960,1.108374,-0.014856,0.542362,-0.140843,-0.905139,0.381076,-0.188424,0.104450,-0.010959,0.062111,-37.077534,5.393513,-12.381226,,,,,,,
1537038000.054715,-1.359890,-0.389122,1.107926,-0.000230,0.595526,-0.205933,-0.904741,0.379376,-0.193696,0.090120,0.005863,0.063065,-37.077534,5.393513,-12.381226,,,,,,,
1537038000.064663,-1.353894,-0.386614,1.107609,0.011143,0.629487,-0.272087,-0.904489,0.377055,-0.199322,0.072503,0.020452,0.062465,-37.016327,5.186163,-12.785736,,,,,,,
1537038000.074643,-1.347794,-0.383515,1.107012,0.015936,0.632541,-0.328638,-0.904392,0.374182,-0.205092,0.054004,0.029077,0.063262,-37.016327,5.186163,-12.785736,,,,,,,
1537038000.084622,-1.341757,-0.379960,1.106611,0.030146,0.623838,-0.368047,-0.904427,0.370883,-0.210850,0.036446,0.036786,0.063511,-36.888893,5.001669,-13.195251,,,,,,,
1537038000.094601,-1.335950,-0.376181,1.106113,0.047229,0.592760,-0.379662,-0.904544,0.367371,-0.216422,0.018161,0.040511,0.063727,-36.888893,5.001669,-13.195251,,,,,,,
1537038000.104580,-1.330395,-0.372453,1.106101,0.072554,0.555301,-0.360271,-0.904651,0.363901,-0.221768,0.000660,0.043768,0.064481,-36.595085,4.765188,-13.552063,,,,,,,
1537038000.114560,-1.325067,-0.369021,1.106232,0.100895,0.518940,-0.319517,-0.904663,0.360703,-0.226888,-0.015839,0.045746,0.064366,-36.595085,4.765188,-13.552063,,,,,,,
1537038000.124539,-1.319952,-0.365997,1.107047,0.130198,0.483666,-0.268083,-0.904543,0.357880,-0.231781,-0.029264,0.047485,0.065262,-36.471836,4.600639,-13.758575,,,,,,,
1537038000.134518,-1.315031,-0.363387,1.108032,0.163810,0.451567,-0.218765,-0.904292,0.355442,-0.236466,-0.041356,0.054165,0.066635,-36.471836,4.600639,-13.758575,,,,,,,
1537038000.144497,-1.310778,-0.361335,1.109532,0.180471,0.414184,-0.185545,-0.903982,0.353523,-0.240496,-0.053996,0.062263,0.065768,-36.408245,4.373716,-14.091309,,,,,,,
1537038000.154446,-1.307098,-0.359457,1.110652,0.172814,0.366188,-0.181266,-0.903730,0.351766,-0.243994,-0.062670,0.073283,0.057470,-36.408245,4.373716,-14.091309,,,,,,,
1537038000.164425,-1.304321,-0.357570,1.111680,0.139756,0.303324,-0.201665,-0.903687,0.349999,-0.246677,-0.068847,0.083046,0.042454,-36.318886,4.049194,-14.396759,,,,,,,
1537038000.174405,-1.302801,-0.355610,1.111716,0.090805,0.227698,-0.237084,-0.903971,0.348162,-0.248231,-0.072454,0.084623,0.031328,-36.318886,4.049194,-14.396759,,,,,,,
1537038000.184384,-1.302559,-0.353398,1.111347,0.040739,0.126447,-0.275684,-0.904651,0.346087,-0.248654,-0.070126,0.079602,0.019498,-36.296314,3.824127,-14.499634,,,,,,,
1537038000.194363,-1.303414,-0.350916,1.110326,0.009719,0.017655,-0.299229,-0.905689,0.343758,-0.248106,-0.063076,0.066489,0.010893,-36.296314,3.824127,-14.499634,,,,,,,
1537038000.204342,-1.305075,-0.348338,1.109399,0.000834,-0.084779,-0.291701,-0.906952,0.341336,-0.246834,-0.053711,0.048602,0.008354,-36.225628,3.798706,-14.645935,,,,,,,
1537038000.214325,-1.307514,-0.346028,1.108526,0.010840,-0.181898,-0.249916,-0.908310,0.339164,-0.244825,-0.040497,0.026345,0.010710,-36.225628,3.798706,-14.645935,,,,,,,
1537038000.224304,-1.310464,-0.344316,1.108229,0.030246,-0.249102,-0.176087,-0.909588,0.337553,-0.242293,-0.022953,0.007341,0.015273,-36.326965,3.596775,-14.368561,,,,,,,
1537038000.234283,-1.313659,-0.343421,1.108279,0.050610,-0.298120,-0.084126,-0.910650,0.336710,-0.239463,-0.006465,-0.006922,0.013740,-36.326965,3.596775,-14.368561,,,,,,,
1537038000.244232,-1.316949,-0.343405,1.109004,0.067802,-0.333242,0.007805,-0.911438,0.336695,-0.236467,0.009872,-0.017420,0.006853,-36.434486,3.450081,-14.155701,,,,,,,
1537038000.254211,-1.320219,-0.344133,1.109986,0.089438,-0.351337,0.084800,-0.911968,0.337381,-0.233425,0.019542,-0.026559,0.000774,-36.434486,3.450081,-14.155701,,,,,,,
1537038000.264190,-1.323337,-0.345381,1.111621,0.116666,-0.354563,0.139392,-0.912283,0.338555,-0.230477,0.026586,-0.035348,-0.003136,-36.619228,3.406622,-13.786194,,,,,,,
1537038000.274170,-1.326140,-0.346909,1.113511,0.149446,-0.341843,0.175851,-0.912422,0.339992,-0.227793,0.033745,-0.040310,-0.004614,-36.619228,3.406622,-13.786194,,,,,,,
1537038000.284149,-1.328491,-0.348586,1.115830,0.183410,-0.308860,0.204825,-0.912400,0.341570,-0.225510,0.036439,-0.042360,-0.002059,-36.619228,3.406622,-13.786194,,,,,,,
1537038000.294128,-1.330180,-0.350331,1.118750,0.220675,-0.251345,0.230590,-0.912199,0.343208,-0.223827,0.033675,-0.042183,0.001918,-36.680054,3.556524,-13.685944,,,,,,,
1537038000.304107,-1.331168,-0.352071,1.121917,0.255884,-0.189564,0.248867,-0.911838,0.344843,-0.222783,0.025898,-0.040628,0.007313,-36.680054,3.556524,-13.685944,,,,,,,
1537038000.314087,-1.331386,-0.353744,1.125543,0.282673,-0.123492,0.256419,-0.911326,0.346412,-0.222447,0.011942,-0.032478,0.012608,-36.777077,3.653004,-13.723267,,,,,,,
1537038000.324066,-1.330855,-0.355316,1.129208,0.289263,-0.069085,0.252130,-0.910677,0.347887,-0.222801,-0.003706,-0.018663,0.013496,-36.777077,3.653004,-13.723267,,,,,,,
1537038000.334015,-1.329748,-0.356748,1.132894,0.275653,-0.007111,0.241320,-0.909945,0.349229,-0.223690,-0.016904,-0.003755,0.013576,-36.784950,3.867237,-13.548187,,,,,,,
1537038000.343994,-1.328206,-0.358096,1.136117,0.236397,0.040051,0.231449,-0.909141,0.350492,-0.224980,-0.031792,0.017367,0.009647,-36.784950,3.867237,-13.548187,,,,,,,
1537038000.353973,-1.326506,-0.359421,1.138900,0.175824,0.075569,0.216136,-0.908306,0.351732,-0.226413,-0.043827,0.034178,0.000781,-36.747307,3.984236,-13.633026,,,,,,,
1537038000.363952,-1.324871,-0.360761,1.140718,0.104524,0.098336,0.202912,-0.907477,0.352986,-0.227782,-0.056375,0.045207,-0.005083,-36.747307,3.984236,-13.633026,,,,,,,
1537038000.373932,-1.323581,-0.362143,1.141912,0.038451,0.095456,0.191881,-0.906709,0.354279,-0.228833,-0.070083,0.050827,-0.007907,-36.736546,4.162287,-13.737823,,,,,,,
1537038000.383911,-1.322775,-0.363540,1.142295,-0.018037,0.076508,0.179848,-0.906043,0.355585,-0.229442,-0.077294,0.048712,-0.004063,-36.736546,4.162287,-13.737823,,,,,,,
1537038000.393890,-1.322600,-0.364975,1.142132,-0.067061,0.040431,0.164669,-0.905508,0.356926,-0.229476,-0.078669,0.045891,0.004378,-36.536823,4.284006,-13.791260,,,,,,,
1537038000.403869,-1.322986,-0.366435,1.141337,-0.117110,0.006483,0.144148,-0.905090,0.358289,-0.228998,-0.070252,0.042284,0.014261,-36.536823,4.284006,-13.791260,,,,,,,
1537038000.413818,-1.323931,-0.367925,1.140034,-0.175722,-0.030622,0.123585,-0.904787,0.359680,-0.228011,-0.056715,0.038330,0.024657,-36.512718,4.293539,-13.634613,,,,,,,
1537038000.423797,-1.325412,-0.369496,1.137951,-0.238629,-0.066626,0.108332,-0.904575,0.361145,-0.226534,-0.037533,0.034729,0.033998,-36.512718,4.293539,-13.634613,,,,,,,
1537038000.433777,-1.327338,-0.371244,1.135430,-0.289935,-0.095180,0.110214,-0.904395,0.362775,-0.224639,-0.022042,0.028293,0.038161,-36.664276,4.133682,-13.745911,,,,,,,
1537038000.443756,-1.329627,-0.373194,1.132358,-0.331679,-0.119501,0.117482,-0.904219,0.364592,-0.222398,-0.004702,0.017763,0.042375,-36.664276,4.133682,-13.745911,,,,,,,
1537038000.453735,-1.332208,-0.375225,1.129118,-0.358386,-0.137512,0.117351,-0.904068,0.366482,-0.219889,0.016281,0.010151,0.048609,-36.707119,4.426857,-13.483887,,,,,,,
1537038000.463714,-1.334942,-0.377203,1.125566,-0.369008,-0.138536,0.111957,-0.903959,0.368321,-0.217246,0.037947,0.002513,0.051306,-36.707119,4.426857,-13.483887,,,,,,,
1537038000.473694,-1.337675,-0.379091,1.122131,-0.364671,-0.135370,0.105573,-0.903871,0.370076,-0.214614,0.055650,-0.007100,0.051757,-36.695297,4.526716,-13.347229,,,,,,,
1537038000.483673,-1.340362,-0.380887,1.118701,-0.339045,-0.131236,0.104642,-0.903796,0.371744,-0.212032,0.066684,-0.012583,0.051556,-36.695297,4.526716,-13.347229,,,,,,,
1537038000.493652,-1.342980,-0.382675,1.115859,-0.299696,-0.135687,0.116605,-0.903699,0.373403,-0.209515,0.069608,-0.016332,0.049862,-36.809135,4.772348,-13.211395,,,,,,,
1537038000.503601,-1.345545,-0.384631,1.113309,-0.256244,-0.144393,0.145673,-0.903520,0.375217,-0.207032,0.066469,-0.019138,0.044282,-36.809135,4.772348,-13.211395,,,,,,,
1537038000.513580,-1.348114,-0.386860,1.111442,-0.210808,-0.165895,0.186508,-0.903231,0.377282,-0.204525,0.058077,-0.018975,0.033398,-36.642197,4.891712,-13.245819,,,,,,,
1537038000.523559,-1.350907,-0.389382,1.109940,-0.170778,-0.208718,0.229469,-0.902867,0.379617,-0.201794,0.050435,-0.017923,0.018841,-36.642197,4.891712,-13.245819,,,,,,,
1537038000.533540,-1.354013,-0.392308,1.109105,-0.124481,-0.265428,0.284219,-0.902401,0.382322,-0.198748,0.039776,-0.015089,0.007067,-36.774387,5.061752,-13.124512,,,,,,,
1537038000.543518,-1.357490,-0.395698,1.108854,-0.074003,-0.338168,0.342212,-0.901815,0.385452,-0.195334,0.031377,-0.017349,0.000815,-36.774387,5.061752,-13.124512,,,,,,,
1537038000.553497,-1.361304,-0.399556,1.109407,-0.010773,-0.406690,0.406675,-0.901092,0.389009,-0.191582,0.025818,-0.016695,0.000008,-36.815765,5.618971,-12.841492,,,,,,,
1537038000.563476,-1.365390,-0.403896,1.110779,0.054630,-0.465617,0.470074,-0.900206,0.393004,-0.187553,0.022872,-0.010023,-0.005715,-36.815765,5.618971,-12.841492,,,,,,,
1537038000.573457,-1.369689,-0.408663,1.112937,0.114794,-0.518129,0.524897,-0.899158,0.397382,-0.183305,0.022068,-0.007886,-0.013121,-36.573837,5.747534,-12.496399,,,,,,,
1537038000.583436,-1.374125,-0.413754,1.115625,0.151681,-0.557744,0.562500,-0.897967,0.402049,-0.178917,0.024554,-0.003215,-0.021080,-36.573837,5.747534,-12.496399,,,,,,,
1537038000.593385,-1.378582,-0.418990,1.118643,0.177076,-0.573851,0.581868,-0.896677,0.406838,-0.174508,0.028528,0.007149,-0.028769,-36.768852,6.063660,-12.151520,,,,,,,
1537038000.603364,-1.383034,-0.424246,1.121793,0.179226,-0.582413,0.577619,-0.895331,0.411634,-0.170114,0.031089,0.019274,-0.035758,-36.768852,6.063660,-12.151520,,,,,,,
1537038000.613343,-1.387422,-0.429376,1.124790,0.168732,-0.573856,0.559409,-0.893981,0.416304,-0.165795,0.034301,0.027346,-0.039634,-36.799957,6.387638,-11.898865,,,,,,,
1537038000.623322,-1.391515,-0.434243,1.127682,0.161644,-0.532243,0.530506,-0.892648,0.420724,-0.161772,0.038110,0.030905,-0.040117,-36.799957,6.387638,-11.898865,,,,,,,
1537038000.633301,-1.394967,-0.438726,1.130517,0.167575,-0.459763,0.488833,-0.891335,0.424787,-0.158358,0.038460,0.035983,-0.039930,-36.901817,6.627195,-11.409210,,,,,,,
1537038000.643281,-1.397542,-0.442697,1.133328,0.172603,-0.376638,0.431134,-0.890071,0.428378,-0.155771,0.033793,0.039883,-0.044058,-36.901817,6.627195,-11.409210,,,,,,,
1537038000.653260,-1.399106,-0.445926,1.136148,0.183201,-0.276505,0.352101,-0.888946,0.431293,-0.154141,0.027298,0.044033,-0.047794,-37.025276,6.914616,-11.213959,,,,,,,
1537038000.663239,-1.399730,-0.448238,1.138910,0.193956,-0.190298,0.252799,-0.888057,0.433378,-0.153416,0.017330,0.050783,-0.049191,-37.025276,6.914616,-11.213959,,,,,,,
1537038000.673218,-1.399550,-0.449553,1.141569,0.197292,-0.123293,0.142802,-0.887467,0.434563,-0.153478,0.006074,0.058647,-0.048227,-37.211716,7.229210,-11.325836,,,,,,,
1537038000.683167,-1.398971,-0.449943,1.143957,0.179170,-0.084994,0.036986,-0.887211,0.434914,-0.153964,0.001148,0.061912,-0.046918,-37.211716,7.229210,-11.325836,,,,,,,
1537038000.693146,-1.398267,-0.449545,1.145890,0.150188,-0.056211,-0.052866,-0.887273,0.434556,-0.154618,-0.001628,0.062820,-0.039733,-37.073132,7.108608,-11.175323,,,,,,,
1537038000.703125,-1.397605,-0.448612,1.147207,0.101727,-0.036873,-0.113996,-0.887569,0.433715,-0.155275,-0.002278,0.063767,-0.033583,-37.073132,7.108608,-11.175323,,,,,,,
1537038000.713104,-1.397212,-0.447402,1.147915,0.050860,-0.034548,-0.149505,-0.888024,0.432625,-0.155714,0.000619,0.056786,-0.024767,-37.084927,7.006611,-11.064514,,,,,,,
1537038000.723083,-1.397125,-0.446199,1.148111,0.014579,-0.051450,-0.153957,-0.888522,0.431540,-0.155881,0.001849,0.046747,-0.012866,-37.084927,7.006611,-11.064514,,,,,,,
1537038000.733063,-1.397411,-0.445285,1.148184,-0.002868,-0.083321,-0.123063,-0.888955,0.430715,-0.155695,0.001076,0.030543,0.001001,-37.085922,7.029413,-11.108917,,,,,,,
1537038000.743042,-1.397930,-0.444962,1.148263,0.000736,-0.105618,-0.057907,-0.889172,0.430423,-0.155257,-0.000202,0.011868,0.012435,-37.085922,7.029413,-11.108917,,,,,,,
1537038000.753021,-1.398457,-0.445308,1.148602,0.016096,-0.110887,0.010500,-0.889107,0.430736,-0.154763,-0.003716,0.001103,0.026483,-37.085922,7.029413,-11.108917,,,,,,,
1537038000.763000,-1.398818,-0.446268,1.149287,0.032591,-0.101221,0.075695,-0.888755,0.431602,-0.154371,-0.002770,-0.005088,0.039137,-37.277344,6.786026,-11.029968,,,,,,,
1537038000.772949,-1.398973,-0.447795,1.150064,0.034251,-0.075473,0.136520,-0.888128,0.432979,-0.154121,-0.006999,-0.006053,0.042915,-37.277344,6.786026,-11.029968,,,,,,,
1537038000.782928,-1.398852,-0.449838,1.151005,0.029618,-0.043310,0.185565,-0.887236,0.434819,-0.154077,-0.016634,-0.006505,0.045557,-37.185516,6.796656,-10.947021,,,,,,,
1537038000.792907,-1.398453,-0.452121,1.151866,0.033719,-0.012312,0.211177,-0.886194,0.436874,-0.154260,-0.026983,-0.006790,0.055444,-37.185516,6.796656,-10.947021,,,,,,,
1537038000.802887,-1.397924,-0.454357,1.152786,0.027421,0.014405,0.207913,-0.885148,0.438885,-0.154561,-0.039016,-0.001507,0.064549,-37.300766,7.019615,-10.938232,,,,,,,
1537038000.812866,-1.397280,-0.456338,1.153373,0.014878,0.044324,0.188600,-0.884190,0.440664,-0.154980,-0.051250,0.004038,0.068294,-37.300766,7.019615,-10.938232,,,,,,,
1537038000.822845,-1.396650,-0.457961,1.153765,-0.013562,0.070027,0.156394,-0.883387,0.442120,-0.155413,-0.062505,0.010013,0.065798,-37.133965,7.206408,-10.943939,,,,,,,
1537038000.832824,-1.396021,-0.459233,1.153530,-0.044114,0.096804,0.122041,-0.882734,0.443261,-0.155870,-0.071230,0.014381,0.060305,-37.133965,7.206408,-10.943939,,,,,,,
1537038000.842804,-1.395446,-0.460166,1.152963,-0.079970,0.116123,0.082329,-0.882237,0.444097,-0.156306,-0.079433,0.016581,0.053568,-37.166328,7.267572,-11.043457,,,,,,,
1537038000.852783,-1.394945,-0.460789,1.151797,-0.110537,0.129016,0.045855,-0.881886,0.444655,-0.156699,-0.084651,0.012438,0.046653,-37.166328,7.267572,-11.043457,,,,,,,
1537038000.862732,-1.394554,-0.461074,1.150494,-0.131529,0.129044,0.008379,-0.881700,0.444910,-0.157022,-0.085311,0.006460,0.045785,-37.061592,7.241776,-10.975067,,,,,,,
1537038000.872711,-1.394382,-0.461038,1.148798,-0.139814,0.115137,-0.023675,-0.881688,0.444878,-0.157176,-0.083018,-0.000787,0.047435,-37.061592,7.241776,-10.975067,,,,,,,
1537038000.882690,-1.394480,-0.460815,1.147082,-0.146117,0.096985,-0.039703,-0.881801,0.444678,-0.157108,-0.079609,-0.010306,0.047839,-36.854294,7.354567,-11.091187,,,,,,,
1537038000.892669,-1.394929,-0.460599,1.145180,-0.153670,0.059655,-0.039709,-0.881966,0.444485,-0.156729,-0.075019,-0.020092,0.046041,-36.854294,7.354567,-11.091187,,,,,,,
1537038000.902649,-1.395783,-0.460460,1.143336,-0.156006,0.014844,-0.031137,-0.882160,0.444360,-0.155986,-0.067730,-0.027994,0.042537,-36.937050,7.471191,-11.168488,,,,,,,
1537038000.912628,-1.397098,-0.460468,1.141441,-0.157369,-0.037432,-0.016145,-0.882361,0.444368,-0.154825,-0.057809,-0.035737,0.040552,-36.937050,7.471191,-11.168488,,,,,,,
1537038000.922607,-1.398839,-0.460610,1.139737,-0.150165,-0.083347,-0.001115,-0.882567,0.444495,-0.153277,-0.043321,-0.043601,0.041690,-37.005112,7.365166,-10.999481,,,,,,,
1537038000.932586,-1.400841,-0.460921,1.138095,-0.139783,-0.115383,0.021390,-0.882736,0.444773,-0.151487,-0.027481,-0.047907,0.044676,-37.005112,7.365166,-10.999481,,,,,,,
1537038000.942566,-1.402952,-0.461444,1.136692,-0.131523,-0.129249,0.047068,-0.882825,0.445241,-0.149585,-0.011264,-0.049611,0.045764,-37.094872,7.280640,-11.170563,,,,,,,
1537038000.952514,-1.405085,-0.462118,1.135289,-0.128480,-0.131368,0.062034,-0.882845,0.445845,-0.147652,0.002138,-0.045317,0.044502,-37.094872,7.280640,-11.170563,,,,,,,
1537038000.962494,-1.407171,-0.462788,1.133907,-0.130564,-0.120685,0.059876,-0.882857,0.446444,-0.145761,0.012007,-0.040240,0.033639,-37.117500,7.671618,-10.950897,,,,,,,
1537038000.972473,-1.409052,-0.463201,1.132514,-0.120674,-0.100505,0.035358,-0.882947,0.446815,-0.144070,0.015347,-0.034156,0.013149,-37.117500,7.671618,-10.950897,,,,,,,
1537038000.982452,-1.410691,-0.463167,1.131360,-0.097814,-0.081503,-0.008301,-0.883197,0.446784,-0.142626,0.014743,-0.032462,-0.010588,-37.111305,7.534508,-10.743164,,,,,,,
1537038000.992431,-1.412020,-0.462440,1.130436,-0.050233,-0.065880,-0.073170,-0.883706,0.446133,-0.141503,0.012170,-0.033017,-0.030692,-37.111305,7.534508,-10.743164,,,,,,,
1537038001.002411,-1.412988,-0.460888,1.130103,0.021894,-0.056796,-0.140033,-0.884525,0.444744,-0.140756,0.007328,-0.030193,-0.052863,-36.904156,7.638311,-10.863251,,,,,,,
1537038001.012390,-1.413706,-0.458597,1.130491,0.098183,-0.062666,-0.199386,-0.885630,0.442690,-0.140280,-0.002370,-0.019930,-0.087702,-36.904156,7.638311,-10.863251,,,,,,,
1537038001.022369,-1.414362,-0.455799,1.131498,0.166738,-0.091937,-0.237409,-0.886942,0.440180,-0.139891,-0.017752,-0.006800,-0.134889,-36.994553,7.324961,-10.929474,,,,,,,
1537038001.032318,-1.415064,-0.452743,1.133297,0.232964,-0.135041,-0.259417,-0.888365,0.437434,-0.139477,-0.036608,0.002248,-0.184696,-36.994553,7.324961,-10.929474,,,,,,,
1537038001.042297,-1.415829,-0.449527,1.135881,0.302314,-0.195234,-0.277122,-0.889856,0.434539,-0.139013,-0.048300,0.012360,-0.233591,-37.147274,7.008110,-10.646423,,,,,,,
1537038001.052276,-1.416710,-0.446070,1.139250,0.372850,-0.245839,-0.301241,-0.891457,0.431423,-0.138459,-0.050742,0.020801,-0.275710,-37.147274,7.008110,-10.646423,,,,,,,
1537038001.062256,-1.417837,-0.442255,1.143393,0.452944,-0.307175,-0.327425,-0.893233,0.427979,-0.137704,-0.046967,0.026993,-0.302207,-37.121212,6.990025,-10.500885,,,,,,,
1537038001.072235,-1.419235,-0.438068,1.148415,0.532990,-0.369573,-0.351470,-0.895189,0.424190,-0.136725,-0.033019,0.024876,-0.321604,-37.121212,6.990025,-10.500885,,,,,,,
1537038001.082214,-1.420839,-0.433595,1.154141,0.604504,-0.414828,-0.368111,-0.897274,0.420136,-0.135571,-0.014607,0.022430,-0.339680,-37.448227,6.605606,-10.438721,,,,,,,
1537038001.092193,-1.422459,-0.428892,1.160659,0.674981,-0.439785,-0.381577,-0.899437,0.415864,-0.134407,0.009926,0.019134,-0.351341,-37.448227,6.605606,-10.438721,,,,,,,
1537038001.102173,-1.423923,-0.423961,1.167887,0.751874,-0.450890,-0.392886,-0.901650,0.411374,-0.133389,0.039941,0.020114,-0.360568,-37.665855,6.083733,-10.177551,,,,,,,
1537038001.112152,-1.424999,-0.418921,1.176120,0.843580,-0.441748,-0.385985,-0.903833,0.406775,-0.132718,0.066629,0.018213,-0.363849,-37.665855,6.083733,-10.177551,,,,,,,
1537038001.122101,-1.425362,-0.413968,1.185400,0.960786,-0.410276,-0.359755,-0.905864,0.402245,-0.132680,0.082362,0.014625,-0.355189,-37.790581,5.513454,-10.268433,,,,,,,
1537038001.132080,-1.424796,-0.409060,1.196229,1.088765,-0.364990,-0.337754,-0.907731,0.397747,-0.133479,0.091416,0.017200,-0.333608,-37.790581,5.513454,-10.268433,,,,,,,
1537038001.142059,-1.423265,-0.404038,1.208177,1.206261,-0.314358,-0.337161,-0.909490,0.393134,-0.135161,0.100591,0.024408,-0.306459,-37.846298,5.092072,-10.248596,,,,,,,
1537038001.152038,-1.420957,-0.398571,1.221185,1.283548,-0.265734,-0.375212,-0.911287,0.388102,-0.137578,0.110536,0.042517,-0.280253,-37.846298,5.092072,-10.248596,,,,,,,
1537038001.162019,-1.418197,-0.392382,1.234290,1.318434,-0.230838,-0.445507,-0.913260,0.382390,-0.140455,0.121085,0.062357,-0.257799,-37.911659,4.667376,-10.173706,,,,,,,
1537038001.171997,-1.415171,-0.385406,1.247591,1.327778,-0.191547,-0.520219,-0.915444,0.375936,-0.143628,0.134820,0.076823,-0.234470,-37.911659,4.667376,-10.173706,,,,,,,
1537038001.181976,-1.411755,-0.377689,1.260483,1.332830,-0.131932,-0.587501,-0.917786,0.368774,-0.147209,0.145477,0.087754,-0.197777,-38.200233,3.997335,-10.280518,,,,,,,
1537038001.191955,-1.407726,-0.369451,1.273615,1.346180,-0.056281,-0.625930,-0.920152,0.361104,-0.151393,0.154099,0.095699,-0.154316,-38.200233,3.997335,-10.280518,,,,,,,
1537038001.201936,-1.402926,-0.360957,1.286636,1.373159,0.026838,-0.634406,-0.922406,0.353169,-0.156316,0.156369,0.102916,-0.111445,-38.384254,3.292295,-10.294952,,,,,,,
1537038001.211843,-1.397382,-0.352500,1.300155,1.409450,0.099292,-0.615066,-0.924434,0.345245,-0.161936,0.151088,0.105225,-0.070516,-38.384254,3.292295,-10.294952,,,,,,,
1537038001.221823,-1.391025,-0.344314,1.314105,1.448654,0.180347,-0.561560,-0.926135,0.337551,-0.168310,0.141086,0.108448,-0.033274,-38.384254,3.292295,-10.294952,,,,,,,
1537038001.231802,-1.383848,-0.336646,1.328173,1.482361,0.259338,-0.488872,-0.927420,0.330323,-0.175428,0.129080,0.114547,0.002302,-38.283867,2.585007,-10.669769,,,,,,,
1537038001.241781,-1.375814,-0.329576,1.342792,1.495790,0.346978,-0.415233,-0.928248,0.323642,-0.183321,0.118785,0.121076,0.040667,-38.283867,2.585007,-10.669769,,,,,,,
