timestamp(unix),attitude_roll(radians),attitude_pitch(radians),attitude_yaw(radians),rotation_rate_x(radians/s),rotation_rate_y(radians/s),rotation_rate_z(radians/s),gravity_x(G),gravity_y(G),gravity_z(G),user_acc_x(G),user_acc_y(G),user_acc_z(G),magnetic_field_x(microteslas),magnetic_field_y(microteslas),magnetic_field_z(microteslas),latitude(degree),longitude(degree),altitude(meter),speed(m/s),course(degree),timestamp(unix),User Mark
1537671332.671983,0.140994,0.000030,-1.610671,-0.201354,0.342159,0.209784,0.140527,-0.000030,-0.990077,0.013236,0.028198,0.011576,12.862282,12.182442,-36.604370,,,,,,,
,,,,,,,,,,,,,,,,42.293155,-71.262641,57.485887,0.177617,171.863351,1537671220.163094,
1537671332.682024,0.142302,-0.000881,-1.607515,-0.101707,0.042480,0.244632,0.141822,0.000881,-0.989892,0.011834,0.023960,0.040078,13.207077,12.134171,-37.023315,,,,,,,
1537671332.692064,0.140362,-0.000526,-1.605173,0.032275,-0.274549,0.228428,0.139901,0.000526,-0.990165,0.025031,0.017510,0.060447,13.207077,12.134171,-37.023315,,,,,,,
1537671332.702104,0.135654,0.000885,-1.602937,0.136436,-0.526768,0.161578,0.135238,-0.000885,-0.990813,0.031525,0.006790,0.070906,12.816872,11.675987,-37.526123,,,,,,,
1537671332.712114,0.129211,0.002740,-1.602293,0.183962,-0.670321,0.063003,0.128851,-0.002740,-0.991660,0.031427,-0.004218,0.070060,12.816872,11.675987,-37.526123,,,,,,,
1537671332.722154,0.122167,0.004553,-1.601982,0.178991,-0.706053,-0.024520,0.121862,-0.004553,-0.992537,0.026133,-0.014765,0.064116,11.923141,11.221054,-37.949585,,,,,,,
,,,,,,,,,,,,,,,,42.293155,-71.262641,57.485887,0.177617,171.863351,1537671228.163094,
1537671332.732195,0.115350,0.005903,-1.602888,0.132186,-0.662678,-0.086927,0.115093,-0.005902,-0.993337,0.020711,-0.016116,0.050588,11.923141,11.221054,-37.949585,,,,,,,
1537671332.742235,0.109615,0.006543,-1.603564,0.062755,-0.542327,-0.123040,0.109393,-0.006543,-0.993977,0.013700,-0.013598,0.039448,10.923790,11.081093,-37.874512,,,,,,,
1537671332.752275,0.105421,0.006306,-1.604889,-0.027090,-0.389816,-0.133738,0.105224,-0.006306,-0.994429,0.012040,-0.011302,0.027006,10.923790,11.081093,-37.874512,,,,,,,
1537671332.762285,0.102881,0.005205,-1.605391,-0.112816,-0.229601,-0.107037,0.102698,-0.005205,-0.994699,0.011193,-0.007598,0.013650,10.434502,10.684509,-37.846558,,,,,,,
1537671332.772325,0.101886,0.003558,-1.605944,-0.164456,-0.082052,-0.057663,0.101709,-0.003558,-0.994808,0.007269,-0.001066,0.010570,10.434502,10.684509,-37.846558,,,,,,,
1537671332.782365,0.102482,0.001725,-1.605959,-0.180938,0.084739,-0.007113,0.102302,-0.001725,-0.994752,0.000008,0.009767,0.015641,10.037506,10.934517,-37.657715,,,,,,,
,,,,,,,,,,,,,,,,42.292058,-71.261535,57.485886,-1.000000,-1.000000,1537671332.773715,
,,,,,,,,,,,,,,,,42.291298,-71.260756,57.485886,-1.000000,-1.000000,1537671332.775746,
1537671332.792406,0.104926,-0.000111,-1.605576,-0.187818,0.272821,0.025234,0.104734,0.000111,-0.994500,-0.014554,0.018153,0.028512,10.037506,10.934517,-37.657715,,,,,,,
1537671332.802416,0.108870,-0.001956,-1.605083,-0.192376,0.415894,0.026778,0.108655,0.001956,-0.994078,-0.016049,0.018750,0.033491,10.063774,10.541428,-37.698975,,,,,,,
1537671332.812456,0.113549,-0.003738,-1.604687,-0.177517,0.462849,0.019187,0.113304,0.003738,-0.993553,-0.009987,0.015122,0.033745,10.063774,10.541428,-37.698975,,,,,,,
1537671332.822496,0.117971,-0.005161,-1.604450,-0.130460,0.428629,-0.006079,0.117696,0.005161,-0.993036,-0.028386,0.000745,0.040171,10.297783,10.626167,-37.311401,,,,,,,
1537671332.832536,0.122285,-0.006102,-1.605149,-0.075756,0.430282,-0.106263,0.121979,0.006102,-0.992514,0.000260,0.010363,0.068320,10.297783,10.626167,-37.311401,,,,,,,
1537671332.842577,0.126426,-0.006790,-1.606761,-0.040245,0.402112,-0.186122,0.126086,0.006790,-0.991996,0.034177,0.023545,0.091727,10.765625,10.282524,-37.337708,,,,,,,
1537671332.852586,0.129812,-0.006988,-1.608963,0.025115,0.320793,-0.232481,0.129444,0.006988,-0.991562,0.016323,0.007371,0.098816,10.765625,10.282524,-37.337708,,,,,,,
1537671332.862627,0.132304,-0.006591,-1.611618,0.089383,0.231005,-0.264918,0.131916,0.006591,-0.991239,0.005780,-0.006713,0.105039,10.982727,10.363121,-36.604187,,,,,,,
1537671332.872667,0.133932,-0.005830,-1.614494,0.122629,0.149858,-0.272971,0.133530,0.005830,-0.991028,0.014786,0.002577,0.103836,10.982727,10.363121,-36.604187,,,,,,,
1537671332.882707,0.134850,-0.004690,-1.617293,0.161090,0.081684,-0.255397,0.134441,0.004690,-0.990911,0.013249,0.006891,0.116002,11.373260,10.847000,-35.922424,,,,,,,
1537671332.892748,0.135216,-0.003216,-1.620058,0.191054,0.028338,-0.255027,0.134803,0.003216,-0.990867,0.010705,0.003971,0.130180,11.373260,10.847000,-35.922424,,,,,,,
1537671332.902757,0.134920,-0.001523,-1.623156,0.216978,-0.056255,-0.303718,0.134511,0.001523,-0.990911,0.013026,-0.006711,0.137090,11.616226,10.995720,-34.602966,,,,,,,
1537671332.912798,0.133558,0.000252,-1.627327,0.233568,-0.162583,-0.421841,0.133161,-0.000252,-0.991094,0.007205,-0.052940,0.142751,11.616226,10.995720,-34.602966,,,,,,,
1537671332.922838,0.131503,0.001549,-1.632660,0.180760,-0.226288,-0.541566,0.131124,-0.001549,-0.991365,0.020442,-0.054451,0.127656,11.157043,10.915131,-32.940552,,,,,,,
1537671332.932878,0.128732,0.001786,-1.639269,0.085376,-0.282729,-0.688264,0.128376,-0.001786,-0.991724,0.040874,-0.057724,0.083277,11.157043,10.915131,-32.940552,,,,,,,
1537671332.942918,0.126716,0.000817,-1.647308,-0.023119,-0.165213,-0.846410,0.126377,-0.000817,-0.991982,0.025723,-0.103538,0.089104,10.451691,11.121658,-31.362976,,,,,,,
1537671332.952928,0.125853,-0.001496,-1.656564,-0.141260,-0.066777,-0.976743,0.125521,0.001496,-0.992090,0.017027,-0.146180,0.092828,10.451691,11.121658,-31.362976,,,,,,,
1537671332.962969,0.125376,-0.004827,-1.666728,-0.215683,-0.035318,-1.068104,0.125046,0.004827,-0.992139,0.031265,-0.155553,0.084089,9.464165,11.234787,-30.121521,,,,,,,
1537671332.973009,0.126146,-0.007682,-1.678328,-0.087524,0.134753,-1.234836,0.125808,0.007682,-0.992025,0.046387,-0.170340,0.131750,9.464165,11.234787,-30.121521,,,,,,,
1537671332.983049,0.124164,-0.009541,-1.692680,0.010365,-0.359978,-1.513439,0.123840,0.009540,-0.992256,0.108307,-0.182804,0.156075,8.448273,11.555069,-28.768005,,,,,,,
1537671332.993089,0.115827,-0.010919,-1.709817,0.097652,-0.923982,-1.775791,0.115561,0.010919,-0.993240,0.128259,-0.148843,-0.025726,8.448273,11.555069,-28.768005,,,,,,,
1537671333.003099,0.104513,-0.010851,-1.729848,0.271809,-1.168753,-2.063538,0.104317,0.010850,-0.994485,0.115486,-0.151735,0.052255,7.187637,11.400307,-27.828979,,,,,,,
1537671333.013139,0.090088,-0.009435,-1.753164,0.391853,-1.501309,-2.376870,0.089962,0.009435,-0.995901,0.099781,-0.123143,0.105398,7.187637,11.400307,-27.828979,,,,,,,
1537671333.023180,0.072264,-0.007384,-1.779363,0.415779,-1.831605,-2.645828,0.072200,0.007384,-0.997363,0.070257,-0.070708,0.060168,5.288803,11.541344,-27.057251,,,,,,,
1537671333.033220,0.051582,-0.005400,-1.807590,0.349774,-2.113521,-2.834225,0.051559,0.005400,-0.998655,0.066895,-0.037963,0.055601,5.288803,11.541344,-27.057251,,,,,,,
1537671333.043260,0.028045,-0.004011,-1.836965,0.218475,-2.402554,-2.938503,0.028041,0.004011,-0.999599,0.096684,-0.025556,0.026225,2.979362,12.017990,-26.694275,,,,,,,
1537671333.053270,0.001922,-0.003317,-1.866670,0.079401,-2.657014,-2.971352,0.001922,0.003317,-0.999993,0.122590,-0.027395,-0.014305,2.979362,12.017990,-26.694275,,,,,,,
1537671333.063310,-0.025558,-0.003205,-1.896316,-0.059196,-2.726390,-2.940809,-0.025555,0.003205,-0.999668,0.122937,-0.026124,-0.036831,0.325249,11.708786,-26.192505,,,,,,,
1537671333.073351,-0.051345,-0.003920,-1.924987,-0.227529,-2.480310,-2.810145,-0.051322,0.003920,-0.998674,0.078208,-0.003737,-0.054975,0.325249,11.708786,-26.192505,,,,,,,
1537671333.083391,-0.072600,-0.006227,-1.951429,-0.450213,-1.951635,-2.535539,-0.072535,0.006226,-0.997346,0.006480,0.037917,-0.091170,-2.117966,11.651100,-26.053772,,,,,,,
1537671333.093431,-0.086234,-0.010749,-1.974265,-0.691037,-1.113645,-2.119044,-0.086122,0.010749,-0.996227,-0.058943,0.055490,-0.114598,-2.117966,11.651100,-26.053772,,,,,,,
1537671333.103441,-0.090827,-0.018123,-1.992279,-0.965419,-0.212073,-1.583277,-0.090688,0.018122,-0.995714,-0.122081,0.048619,-0.120573,-3.472160,11.602867,-26.023682,,,,,,,
1537671333.113481,-0.087655,-0.028905,-2.004669,-1.250340,0.512648,-0.979528,-0.087506,0.028901,-0.995745,-0.188342,0.041915,-0.149290,-3.472160,11.602867,-26.023682,,,,,,,
1537671333.123521,-0.079111,-0.042656,-2.011738,-1.476842,0.979590,-0.477049,-0.078957,0.042643,-0.995966,-0.216606,0.033712,-0.150656,-3.910820,11.620537,-26.081604,,,,,,,
1537671333.133562,-0.067708,-0.058197,-2.016202,-1.602585,1.194972,-0.307563,-0.067542,0.058164,-0.996020,-0.137979,0.044101,-0.117719,-3.910820,11.620537,-26.081604,,,,,,,
1537671333.143602,-0.056023,-0.074389,-2.020421,-1.641926,1.172384,-0.326918,-0.055838,0.074320,-0.995670,-0.031900,0.062872,-0.092724,-3.610695,11.753204,-26.768311,,,,,,,
1537671333.153612,-0.046285,-0.090476,-2.024789,-1.615765,0.942681,-0.360067,-0.046079,0.090353,-0.994843,-0.027819,0.046519,-0.083953,-3.610695,11.753204,-26.768311,,,,,,,
1537671333.163652,-0.038942,-0.105825,-2.029409,-1.516017,0.730078,-0.407860,-0.038715,0.105628,-0.993652,-0.054013,0.025583,-0.075120,-3.239708,12.125259,-26.983093,,,,,,,
1537671333.173692,-0.033174,-0.119560,-2.034781,-1.336291,0.608014,-0.511170,-0.032931,0.119275,-0.992315,-0.061414,0.026401,-0.039606,-3.239708,12.125259,-26.983093,,,,,,,
1537671333.183733,-0.028639,-0.131094,-2.041310,-1.110661,0.502946,-0.642094,-0.028390,0.130719,-0.991013,-0.071586,0.035007,-0.018432,-3.191978,12.629791,-27.304138,,,,,,,
1537671333.193742,-0.025871,-0.140185,-2.049036,-0.866784,0.338109,-0.771616,-0.025614,0.139726,-0.989859,-0.063680,0.026716,-0.028391,-3.191978,12.629791,-27.304138,,,,,,,
1537671333.203783,-0.025077,-0.146780,-2.057854,-0.615489,0.160590,-0.878605,-0.024804,0.146254,-0.988936,-0.057303,0.012270,-0.039430,-3.406799,13.175209,-27.387329,,,,,,,
1537671333.213823,-0.026108,-0.150953,-2.067476,-0.380328,0.002441,-0.954761,-0.025808,0.150380,-0.988291,-0.055918,0.013377,-0.042058,-3.406799,13.175209,-27.387329,,,,,,,
1537671333.223863,-0.028317,-0.152921,-2.077556,-0.172066,-0.088304,-0.994989,-0.027983,0.152326,-0.987934,-0.057634,0.019503,-0.033199,-4.277428,13.836464,-27.226562,,,,,,,
1537671333.233904,-0.031481,-0.153123,-2.088030,-0.016032,-0.180210,-1.045105,-0.031108,0.152526,-0.987810,-0.052327,0.015855,-0.021284,-4.277428,13.836464,-27.226562,,,,,,,
1537671333.243913,-0.035653,-0.152243,-2.099226,0.066502,-0.261695,-1.128779,-0.035233,0.151656,-0.987805,-0.023483,0.009416,-0.036517,-4.768623,13.933533,-27.211975,,,,,,,
1537671333.253954,-0.039566,-0.151009,-2.111212,0.075089,-0.175590,-1.199616,-0.039105,0.150436,-0.987846,-0.000522,-0.000198,-0.040444,-4.768623,13.933533,-27.211975,,,,,,,
1537671333.263994,-0.042774,-0.150250,-2.123621,0.001507,-0.133110,-1.226890,-0.042279,0.149686,-0.987829,0.013150,-0.006497,-0.038645,-5.569313,14.535500,-26.890564,,,,,,,
1537671333.274034,-0.045911,-0.150646,-2.135752,-0.122375,-0.128689,-1.171982,-0.045375,0.150077,-0.987632,-0.025380,0.008782,-0.065880,-5.569313,14.535500,-26.890564,,,,,,,
1537671333.284074,-0.048527,-0.152259,-2.146997,-0.241188,-0.069546,-1.074514,-0.047946,0.151671,-0.987267,-0.067120,0.007768,-0.055793,-6.197006,15.179253,-26.974121,,,,,,,
1537671333.294084,-0.050076,-0.155042,-2.157371,-0.357890,0.024744,-0.987863,-0.049455,0.154422,-0.986766,-0.063430,0.015485,-0.042988,-6.197006,15.179253,-26.974121,,,,,,,
,,,,,,,,,,,,,,,,42.293080,-71.262828,52.264217,-1.000000,-1.000000,1537671333.289493,
1537671333.304125,-0.050548,-0.158830,-2.166954,-0.439407,0.131846,-0.901079,-0.049890,0.158163,-0.986152,-0.043448,0.025492,-0.048257,-6.978348,16.753284,-26.401672,,,,,,,
1537671333.314165,-0.049611,-0.162957,-2.175694,-0.453822,0.268964,-0.815130,-0.048934,0.162237,-0.985538,-0.027238,0.027063,-0.031323,-6.978348,16.753284,-26.401672,,,,,,,
1537671333.324205,-0.047275,-0.167171,-2.183385,-0.455479,0.385944,-0.705521,-0.046599,0.166394,-0.984958,-0.022340,0.033405,-0.025998,-7.635681,18.318012,-26.037964,,,,,,,
1537671333.334245,-0.043827,-0.171285,-2.189737,-0.430490,0.468930,-0.569987,-0.043172,0.170449,-0.984420,-0.034511,0.036933,-0.033173,-7.635681,18.318012,-26.037964,,,,,,,
1537671333.344255,-0.039783,-0.175098,-2.194719,-0.391486,0.491021,-0.443756,-0.039164,0.174204,-0.983930,-0.042242,0.040761,-0.024935,-7.975525,20.112976,-25.966248,,,,,,,
1537671333.354295,-0.035888,-0.178676,-2.198687,-0.366084,0.442427,-0.354721,-0.035309,0.177727,-0.983446,-0.038329,0.040352,-0.026304,-7.975525,20.112976,-25.966248,,,,,,,
1537671333.364336,-0.032447,-0.182079,-2.202019,-0.348045,0.400040,-0.302088,-0.031905,0.181074,-0.982952,-0.029557,0.025698,-0.039509,-8.596275,22.814354,-25.367554,,,,,,,
1537671333.374376,-0.029147,-0.185103,-2.204935,-0.298007,0.384275,-0.267562,-0.028645,0.184047,-0.982500,-0.036678,0.009190,-0.030928,-8.596275,22.814354,-25.367554,,,,,,,
1537671333.384416,-0.026107,-0.187536,-2.207616,-0.237194,0.349182,-0.253209,-0.025647,0.186438,-0.982132,-0.051151,-0.003607,-0.025360,-9.219704,26.347115,-25.027893,,,,,,,
1537671333.394426,-0.023453,-0.189328,-2.210351,-0.170956,0.311809,-0.268744,-0.023032,0.188199,-0.981861,-0.057870,-0.016125,-0.024151,-9.219704,26.347115,-25.027893,,,,,,,
1537671333.404466,-0.021240,-0.190427,-2.213419,-0.096123,0.274341,-0.305609,-0.020855,0.189278,-0.981702,-0.058491,-0.024727,-0.021609,-10.243683,30.887409,-24.977722,,,,,,,
1537671333.414507,-0.019511,-0.190719,-2.216893,-0.019126,0.234693,-0.348866,-0.019156,0.189565,-0.981681,-0.057138,-0.028966,-0.014763,-10.243683,30.887409,-24.977722,,,,,,,
1537671333.424547,-0.018434,-0.190371,-2.220886,0.040896,0.173596,-0.404953,-0.018100,0.189223,-0.981767,-0.044706,-0.033935,-0.008849,-12.077385,36.508289,-25.807556,,,,,,,
1537671333.434587,-0.018283,-0.189532,-2.225508,0.088187,0.088963,-0.467425,-0.017954,0.188399,-0.981928,-0.028432,-0.035124,-0.005529,-12.077385,36.508289,-25.807556,,,,,,,
1537671333.444597,-0.018949,-0.188275,-2.230689,0.123675,0.026786,-0.522567,-0.018613,0.187165,-0.982152,-0.023943,-0.029542,0.002782,-14.765083,42.892937,-28.318176,,,,,,,
1537671333.454637,-0.019872,-0.186769,-2.236170,0.139744,0.016041,-0.538471,-0.019525,0.185685,-0.982415,-0.019843,-0.022889,0.014947,-14.765083,42.892937,-28.318176,,,,,,,
1537671333.464678,-0.021137,-0.185377,-2.241439,0.116264,-0.025451,-0.506366,-0.020773,0.184317,-0.982647,-0.020716,-0.014350,0.012478,-19.536224,49.388138,-33.478638,,,,,,,
1537671333.474718,-0.022383,-0.184263,-2.246367,0.087336,-0.012488,-0.472369,-0.022003,0.183222,-0.982825,-0.012101,-0.000253,0.006553,-19.536224,49.388138,-33.478638,,,,,,,
1537671333.484758,-0.023080,-0.183459,-2.250755,0.052903,0.042265,-0.411848,-0.022691,0.182432,-0.982957,0.002244,0.015063,0.028107,-26.031593,51.359909,-44.071899,,,,,,,
1537671333.494768,-0.023042,-0.182904,-2.254493,0.032332,0.095968,-0.349113,-0.022656,0.181886,-0.983059,0.003903,0.022581,0.045208,-26.031593,51.359909,-44.071899,,,,,,,
1537671333.504808,-0.022885,-0.182412,-2.257605,0.033241,0.078146,-0.288117,-0.022503,0.181402,-0.983152,0.006436,0.027857,0.050305,-31.781235,40.784260,-61.037781,,,,,,,
1537671333.514848,-0.022968,-0.181701,-2.260295,0.063085,0.037770,-0.258943,-0.022588,0.180703,-0.983278,0.008626,0.024726,0.051943,-31.781235,40.784260,-61.037781,,,,,,,
1537671333.524889,-0.030148,-0.184332,-2.262979,-0.642212,-1.346780,-0.249653,-0.029633,0.183290,-0.982612,0.027024,0.035842,0.039497,-36.795853,15.367142,-86.631836,,,,,,,
1537671333.534929,-0.032277,-0.187826,-2.265844,-0.242137,0.178268,-0.267518,-0.031704,0.186724,-0.981901,0.123028,0.018843,0.125547,-36.795853,15.367142,-86.631836,,,,,,,
1537671333.544939,-0.029766,-0.188574,-2.267690,-0.164272,-0.018521,-0.155173,-0.029234,0.187458,-0.981838,0.021650,0.011608,0.393169,-45.213577,11.881241,-123.530273,,,,,,,
1537671333.554979,-0.029708,-0.188609,-2.269142,0.063689,0.085374,-0.145840,-0.029177,0.187493,-0.981833,-0.073438,0.105293,0.030432,-45.213577,11.881241,-123.530273,,,,,,,
1537671333.565019,-0.030518,-0.187658,-2.270779,0.115223,-0.051355,-0.167469,-0.029978,0.186558,-0.981986,0.036890,0.062663,0.110633,-58.797379,25.036301,-153.950256,,,,,,,
1537671333.575060,-0.031552,-0.185415,-2.272481,0.242260,-0.111027,-0.174046,-0.031006,0.184355,-0.982371,0.042435,0.060946,0.116205,-58.797379,25.036301,-153.950256,,,,,,,
1537671333.585100,-0.033615,-0.182057,-2.273928,0.358598,-0.199389,-0.146365,-0.033053,0.181053,-0.982918,0.021060,0.055885,0.073463,-73.490402,45.071281,-164.797729,,,,,,,
1537671333.595110,-0.036437,-0.177857,-2.275155,0.434408,-0.273949,-0.130708,-0.035855,0.176921,-0.983572,0.010266,0.045811,0.074423,-73.490402,45.071281,-164.797729,,,,,,,
1537671333.605150,-0.037871,-0.175410,-2.276115,0.099936,-0.016712,-0.082186,-0.037281,0.174511,-0.983949,-0.006313,0.047031,0.024309,-83.222107,63.972000,-156.542725,,,,,,,
1537671333.615201,-0.035522,-0.176860,-2.276099,-0.206087,0.297520,0.046415,-0.034961,0.175939,-0.983780,-0.049024,0.041117,-0.125580,-83.222107,63.972000,-156.542725,,,,,,,
1537671333.625241,-0.030593,-0.181405,-2.274881,-0.538488,0.529308,0.143143,-0.030086,0.180412,-0.983131,-0.097599,0.014947,-0.063424,-82.857620,84.378311,-133.595215,,,,,,,
1537671333.635282,-0.023829,-0.188792,-2.274392,-0.775190,0.688581,0.035458,-0.023403,0.187672,-0.981953,-0.052234,0.039821,-0.083355,-82.857620,84.378311,-133.595215,,,,,,,
1537671333.645292,-0.017778,-0.196558,-2.275062,-0.761819,0.576963,-0.073042,-0.017435,0.195295,-0.980590,-0.004782,0.031497,-0.038530,-72.711380,101.079674,-106.167603,,,,,,,
1537671333.655332,-0.013386,-0.203141,-2.276243,-0.612113,0.430663,-0.111218,-0.013111,0.201747,-0.979350,-0.010434,0.019750,-0.006963,-72.711380,101.079674,-106.167603,,,,,,,
1537671333.665372,-0.010158,-0.207767,-2.277549,-0.413509,0.320866,-0.126838,-0.009939,0.206276,-0.978443,0.012487,0.015617,0.015812,-61.505310,110.420692,-86.788452,,,,,,,
1537671333.675412,-0.008091,-0.209628,-2.279899,-0.063043,0.245617,-0.297839,-0.007914,0.208096,-0.978076,0.042277,0.017383,0.026798,-61.505310,110.420692,-86.788452,,,,,,,
1537671333.685422,-0.010313,-0.207083,-2.284040,0.307357,-0.307559,-0.399501,-0.010092,0.205606,-0.978583,0.094718,-0.023767,0.115851,-54.227997,117.211372,-76.310669,,,,,,,
1537671333.695462,-0.015829,-0.202399,-2.288058,0.506052,-0.470716,-0.407427,-0.015505,0.201020,-0.979464,-0.012464,-0.042420,0.011783,-54.227997,117.211372,-76.310669,,,,,,,
1537671333.705503,-0.023333,-0.197445,-2.293266,0.411119,-0.738604,-0.562899,-0.022877,0.196165,-0.980304,0.029439,-0.046339,0.052249,-51.753784,128.867126,-70.203308,,,,,,,
1537671333.715543,-0.029662,-0.192532,-2.298875,0.472496,-0.501512,-0.564590,-0.029110,0.191345,-0.981091,0.020641,-0.069900,0.077160,-51.753784,128.867126,-70.203308,,,,,,,
1537671333.725583,-0.035921,-0.187583,-2.304837,0.490816,-0.519903,-0.612515,-0.035283,0.186484,-0.981824,0.007161,-0.062110,0.072675,-52.150543,148.849213,-62.666626,,,,,,,
1537671333.735593,-0.043048,-0.182130,-2.311160,0.545536,-0.630003,-0.648127,-0.042323,0.181125,-0.982549,0.044779,-0.025439,0.068853,-52.150543,148.849213,-62.666626,,,,,,,
1537671333.745633,-0.051525,-0.175900,-2.317247,0.622533,-0.788827,-0.617166,-0.050707,0.174995,-0.983263,0.062319,-0.013755,0.091921,-56.077484,175.139526,-56.998291,,,,,,,
1537671333.755674,-0.061342,-0.169001,-2.322609,0.681262,-0.939987,-0.547854,-0.060430,0.168198,-0.983899,0.065954,0.002365,0.096753,-56.077484,175.139526,-56.998291,,,,,,,
1537671333.765714,-0.072007,-0.162111,-2.327006,0.652357,-1.027087,-0.454677,-0.071001,0.161402,-0.984331,0.068728,0.032309,0.068499,-59.060852,211.143600,-46.821167,,,,,,,
1537671333.775754,-0.082406,-0.156432,-2.330300,0.492956,-0.961502,-0.336073,-0.081308,0.155794,-0.984437,0.059564,0.046857,0.034349,-59.060852,211.143600,-46.821167,,,,,,,
1537671333.785764,-0.090556,-0.153181,-2.332494,0.237216,-0.718774,-0.215473,-0.089373,0.152583,-0.984241,0.044222,0.046712,0.010639,-51.338867,257.865936,-29.988037,,,,,,,
1537671333.795804,-0.095140,-0.153103,-2.333726,-0.091312,-0.341602,-0.091516,-0.093885,0.152506,-0.983833,0.013197,0.053686,-0.005745,-51.338867,257.865936,-29.988037,,,,,,,
1537671333.805845,-0.095367,-0.156656,-2.334118,-0.443342,0.082434,0.017169,-0.094056,0.156016,-0.983266,-0.016158,0.057179,-0.016963,-30.053925,301.590454,-9.096985,,,,,,,
1537671333.815885,-0.091773,-0.163335,-2.334092,-0.719346,0.426224,0.077409,-0.090424,0.162610,-0.982538,-0.024032,0.058063,-0.017996,-30.053925,301.590454,-9.096985,,,,,,,
1537671333.825925,-0.085885,-0.171733,-2.333887,-0.849840,0.596995,0.092076,-0.084518,0.170890,-0.981658,-0.023575,0.064034,0.005966,-1.857498,328.061127,9.321136,,,,,,,
1537671333.835935,-0.086602,-0.180529,-2.334144,-0.812131,-0.022572,0.027408,-0.085088,0.179550,-0.980062,-0.012141,0.064072,0.016393,-1.857498,328.061127,9.321136,,,,,,,
1537671333.845975,-0.086091,-0.187021,-2.334305,-0.577865,0.096382,0.057021,-0.084485,0.185932,-0.978924,0.090696,0.033016,0.141445,22.798248,333.319885,35.359985,,,,,,,
1537671333.856015,-0.086293,-0.191365,-2.334349,-0.373757,-0.050947,0.013790,-0.084612,0.190199,-0.978093,-0.004545,0.095659,0.050984,22.798248,333.319885,35.359985,,,,,,,
1537671333.866056,-0.087301,-0.193451,-2.334886,-0.151638,-0.111863,-0.048927,-0.085564,0.192247,-0.977609,0.048760,0.079177,0.007501,49.553917,339.204437,59.683594,,,,,,,
1537671333.876096,-0.088942,-0.193063,-2.335550,0.092718,-0.150147,-0.075280,-0.087175,0.191866,-0.977542,0.039049,0.052183,0.026034,49.553917,339.204437,59.683594,,,,,,,
1537671333.886106,-0.090550,-0.190327,-2.336520,0.316837,-0.148062,-0.132894,-0.088793,0.189180,-0.977920,0.026232,0.052870,0.049773,85.848579,357.839508,79.987000,,,,,,,
1537671333.896146,-0.092671,-0.185724,-2.337964,0.481375,-0.197350,-0.201304,-0.090947,0.184658,-0.978586,0.030888,0.038624,0.052820,85.848579,357.839508,79.987000,,,,,,,
1537671333.906186,-0.095801,-0.179775,-2.339827,0.601173,-0.301044,-0.246220,-0.094113,0.178808,-0.979373,0.019177,0.016092,0.040911,134.172760,393.623108,97.654724,,,,,,,
1537671333.916227,-0.099479,-0.172851,-2.341646,0.688692,-0.347888,-0.241299,-0.097835,0.171992,-0.980228,0.001186,-0.010493,0.054065,134.172760,393.623108,97.654724,,,,,,,
1537671333.926267,-0.107091,-0.169294,-2.344289,0.295640,-0.493805,-0.287669,-0.105358,0.168487,-0.980057,-0.005985,-0.023879,0.045853,193.388245,429.098816,117.813660,,,,,,,
1537671333.936277,-0.110524,-0.167753,-2.346554,0.123372,-0.288723,-0.233814,-0.108751,0.166967,-0.979946,-0.013670,-0.094412,0.163601,193.388245,429.098816,117.813660,,,,,,,
1537671333.946317,-0.114978,-0.165454,-2.349248,0.199684,-0.429037,-0.335456,-0.113158,0.164700,-0.979831,-0.050676,-0.045300,0.151004,245.177994,418.816345,143.142334,,,,,,,
1537671333.956357,-0.120410,-0.163143,-2.352916,0.193683,-0.513777,-0.405689,-0.118525,0.162420,-0.979577,0.019022,-0.062353,0.126504,245.177994,418.816345,143.142334,,,,,,,
1537671333.966397,-0.126586,-0.161049,-2.357628,0.131168,-0.532625,-0.512820,-0.124615,0.160354,-0.979162,-0.018009,-0.086517,0.109228,297.853455,391.079041,157.966522,,,,,,,
1537671333.976438,-0.132365,-0.159755,-2.363315,0.032108,-0.468025,-0.587342,-0.130298,0.159076,-0.978630,-0.007581,-0.074039,0.127159,297.853455,391.079041,157.966522,,,,,,,
1537671333.986448,-0.137580,-0.159120,-2.369597,-0.031879,-0.404238,-0.632819,-0.135413,0.158450,-0.978037,-0.015664,-0.066439,0.133143,348.423920,364.339935,168.641296,,,,,,,
1537671333.996488,-0.142275,-0.158551,-2.376027,-0.024527,-0.360414,-0.625473,-0.140017,0.157887,-0.977480,-0.009275,-0.038441,0.137392,348.423920,364.339935,168.641296,,,,,,,
1537671334.006528,-0.146775,-0.157360,-2.382209,0.055416,-0.352815,-0.617603,-0.144441,0.156712,-0.977025,-0.015715,0.001247,0.141790,403.030914,354.252228,178.323029,,,,,,,
1537671334.016568,-0.151658,-0.155077,-2.388219,0.165383,-0.413558,-0.621059,-0.149265,0.154456,-0.976659,-0.000195,0.044060,0.123052,403.030914,354.252228,178.323029,,,,,,,
1537671334.026609,-0.157724,-0.151396,-2.393887,0.315991,-0.558517,-0.606866,-0.155274,0.150818,-0.976291,0.005799,0.083526,0.090152,462.153503,358.467255,168.398132,,,,,,,
1537671334.036618,-0.162910,-0.151720,-2.400532,-0.322029,-0.344836,-0.633510,-0.160328,0.151138,-0.975424,0.053913,0.185471,-0.011377,462.153503,358.467255,168.398132,,,,,,,
1537671334.046659,-0.155889,-0.159454,-2.406540,-1.022356,1.306120,-0.424661,-0.153289,0.158779,-0.975342,-0.065064,0.075718,-0.064575,491.808014,343.776886,138.749542,,,,,,,
1537671334.056699,-0.144233,-0.171946,-2.412162,-1.369040,1.251635,-0.353588,-0.141614,0.171100,-0.975023,-0.213916,-0.120456,-0.039717,491.808014,343.776886,138.749542,,,,,,,
1537671334.066739,-0.133803,-0.185199,-2.418146,-1.371747,1.099699,-0.407505,-0.131123,0.184142,-0.974114,-0.092082,-0.065993,-0.176139,509.331421,307.943756,132.684448,,,,,,,
1537671334.076780,-0.125005,-0.196775,-2.423661,-1.148669,0.940004,-0.373635,-0.122273,0.195508,-0.973050,-0.067729,0.028613,-0.040943,509.331421,307.943756,132.684448,,,,,,,
1537671334.086789,-0.117801,-0.206056,-2.428354,-0.937224,0.765237,-0.361141,-0.115042,0.204601,-0.972062,-0.108713,0.081562,-0.025879,518.544128,290.300201,134.494171,,,,,,,
1537671334.096830,-0.113137,-0.214572,-2.434089,-0.904354,0.521182,-0.481837,-0.110306,0.212930,-0.970821,0.022172,-0.008950,-0.122792,518.544128,290.300201,134.494171,,,,,,,
1537671334.106870,-0.110749,-0.222741,-2.440622,-0.863219,0.342493,-0.558930,-0.107793,0.220904,-0.969321,0.017369,-0.039141,-0.158426,517.420166,288.007080,136.739899,,,,,,,
1537671334.116910,-0.109565,-0.229483,-2.447614,-0.693326,0.253802,-0.610055,-0.106480,0.227474,-0.967945,0.015583,-0.040554,-0.060925,517.420166,288.007080,136.739899,,,,,,,
1537671334.126950,-0.109415,-0.234074,-2.454512,-0.471285,0.141937,-0.613788,-0.106219,0.231942,-0.966913,0.030169,-0.036309,-0.001898,506.843781,283.805908,144.464752,,,,,,,
1537671334.136960,-0.110168,-0.236515,-2.460963,-0.258989,0.055851,-0.588818,-0.106884,0.234316,-0.966267,0.017910,-0.002016,-0.004162,506.843781,283.805908,144.464752,,,,,,,
1537671334.147001,-0.111305,-0.237129,-2.467066,-0.080885,0.025171,-0.578142,-0.107967,0.234913,-0.966002,0.026912,0.064297,-0.003481,487.327057,276.322998,156.005829,,,,,,,
1537671334.157041,-0.112900,-0.235991,-2.472878,0.095185,-0.046113,-0.571590,-0.109538,0.233807,-0.966093,0.062113,0.063938,-0.004015,487.327057,276.322998,156.005829,,,,,,,
1537671334.167081,-0.115278,-0.233297,-2.478225,0.238130,-0.134344,-0.535218,-0.111907,0.231187,-0.966452,0.049880,0.000899,-0.023462,456.825378,269.164795,167.277374,,,,,,,
1537671334.177091,-0.117902,-0.229676,-2.483062,0.324431,-0.152205,-0.501562,-0.114540,0.227662,-0.966980,0.040489,-0.017884,-0.044693,456.825378,269.164795,167.277374,,,,,,,
1537671334.187131,-0.120554,-0.225374,-2.487625,0.386265,-0.170190,-0.488341,-0.117220,0.223471,-0.967636,0.070895,-0.013586,-0.064041,427.099243,261.538940,176.098206,,,,,,,
1537671334.197171,-0.123859,-0.220403,-2.492583,0.455931,-0.227100,-0.562562,-0.120554,0.218623,-0.968334,0.085458,0.019307,-0.125019,427.099243,261.538940,176.098206,,,,,,,
1537671334.207212,-0.126936,-0.214645,-2.498228,0.509433,-0.173083,-0.650136,-0.123691,0.213001,-0.969191,0.081744,0.083661,-0.144075,410.448090,255.211395,181.680237,,,,,,,
1537671334.217252,-0.130282,-0.208386,-2.506122,0.518780,-0.169134,-0.905538,-0.127103,0.206881,-0.970075,0.132261,0.128049,-0.111178,410.448090,255.211395,181.680237,,,,,,,
1537671334.227262,-0.133408,-0.202144,-2.515610,0.488083,-0.092947,-1.021430,-0.130304,0.200770,-0.970934,0.113932,0.076589,-0.078200,383.163116,254.708084,182.997742,,,,,,,
1537671334.237302,-0.135625,-0.196153,-2.525686,0.452871,-0.006762,-1.067914,-0.132617,0.194898,-0.971817,0.035632,-0.000165,-0.072708,383.163116,254.708084,182.997742,,,,,,,
1537671334.247342,-0.137969,-0.190165,-2.536231,0.453082,-0.051803,-1.110484,-0.135052,0.189021,-0.972642,0.074979,0.041585,-0.111434,347.071838,260.019592,180.045990,,,,,,,
1537671334.257383,-0.141637,-0.183624,-2.547056,0.518575,-0.212088,-1.149047,-0.138791,0.182594,-0.973343,0.104901,0.072686,-0.147140,347.071838,260.019592,180.045990,,,,,,,
1537671334.267423,-0.147508,-0.175921,-2.558117,0.632239,-0.449240,-1.194532,-0.144705,0.175015,-0.973874,0.117071,0.064273,-0.160999,320.697784,267.767212,174.119385,,,,,,,
1537671334.277433,-0.155887,-0.167071,-2.569234,0.729873,-0.710825,-1.216491,-0.153094,0.166295,-0.974119,0.111224,0.071453,-0.162142,320.697784,267.767212,174.119385,,,,,,,
1537671334.287473,-0.166414,-0.157524,-2.580264,0.772968,-0.922198,-1.225042,-0.163596,0.156873,-0.973975,0.089149,0.071139,-0.155008,303.184143,277.831177,166.332642,,,,,,,
1537671334.297513,-0.178700,-0.147644,-2.591549,0.776681,-1.087992,-1.281007,-0.175817,0.147108,-0.973369,0.020650,0.057695,-0.140721,303.184143,277.831177,166.332642,,,,,,,
1537671334.307553,-0.191902,-0.137381,-2.603527,0.793130,-1.158977,-1.371484,-0.188929,0.136949,-0.972394,0.002223,0.057326,-0.112231,290.932190,294.548401,154.823822,,,,,,,
1537671334.317594,-0.205171,-0.125966,-2.616048,0.903226,-1.152902,-1.456432,-0.202120,0.125633,-0.971269,0.007754,0.054237,-0.054076,290.932190,294.548401,154.823822,,,,,,,
1537671334.327604,-0.218229,-0.112733,-2.628816,1.068771,-1.158459,-1.535698,-0.215127,0.112495,-0.970085,0.010445,0.047250,0.007057,283.478760,313.979919,140.120087,,,,,,,
1537671334.337644,-0.231960,-0.097838,-2.641615,1.183211,-1.261046,-1.577440,-0.228786,0.097682,-0.968563,0.023525,0.037831,0.008648,283.478760,313.979919,140.120087,,,,,,,
1537671334.347684,-0.247219,-0.082017,-2.654201,1.240158,-1.460682,-1.588103,-0.243886,0.081925,-0.966337,0.037053,0.026885,-0.036363,281.818481,336.851746,119.370941,,,,,,,
1537671334.357724,-0.264367,-0.066234,-2.666407,1.202101,-1.669845,-1.560751,-0.260726,0.066186,-0.963142,0.047484,0.025031,-0.074929,281.818481,336.851746,119.370941,,,,,,,
1537671334.367765,-0.282655,-0.051255,-2.678361,1.083887,-1.772394,-1.542794,-0.278540,0.051233,-0.959057,0.051489,0.019903,-0.087909,287.958984,365.410126,88.640198,,,,,,,
1537671334.377774,-0.298495,-0.037953,-2.691148,0.862617,-1.350392,-1.639687,-0.293870,0.037944,-0.955092,0.097321,0.024785,0.017882,287.958984,365.410126,88.640198,,,,,,,
1537671334.387815,-0.293336,-0.028818,-2.706344,0.437845,0.547017,-1.714665,-0.289028,0.028814,-0.956887,0.104320,0.089289,0.486886,287.435028,377.811279,66.525299,,,,,,,
1537671334.397855,-0.285861,-0.021004,-2.722342,0.278596,0.808132,-1.764635,-0.281922,0.021002,-0.959208,0.063523,0.045602,0.118280,287.435028,377.811279,66.525299,,,,,,,
1537671334.407895,-0.279508,-0.013199,-2.739565,0.262446,0.582052,-1.905966,-0.275859,0.013198,-0.961108,0.072352,-0.043731,-0.082975,274.831390,372.943268,59.876099,,,,,,,
1537671334.417936,-0.277084,-0.005094,-2.757743,0.289089,0.153618,-1.965040,-0.273548,0.005094,-0.961845,0.089039,-0.006986,-0.027688,274.831390,372.943268,59.876099,,,,,,,
1537671334.427945,-0.274842,0.002374,-2.775761,0.233340,0.212583,-1.912129,-0.271394,-0.002374,-0.962465,0.081056,0.053033,0.019960,265.257141,370.419464,51.760559,,,,,,,
1537671334.437986,-0.274970,0.010156,-2.792751,0.267656,-0.029241,-1.821209,-0.271504,-0.010155,-0.962384,0.027623,0.016732,-0.052646,265.257141,370.419464,51.760559,,,,,,,
1537671334.448026,-0.276192,0.017317,-2.809081,0.247523,-0.222080,-1.738253,-0.272653,-0.017316,-0.961957,0.002176,0.008817,-0.063327,254.192352,366.380249,46.016937,,,,,,,
1537671334.458066,-0.279458,0.024084,-2.824919,0.207178,-0.389484,-1.688635,-0.275754,-0.024082,-0.960926,0.004163,0.028171,-0.048763,254.192352,366.380249,46.016937,,,,,,,
1537671334.468106,-0.284051,0.030901,-2.840150,0.242450,-0.525779,-1.630194,-0.280112,-0.030896,-0.959470,0.005393,0.045422,-0.009356,245.067673,362.635376,41.847504,,,,,,,
1537671334.478116,-0.288859,0.037916,-2.854322,0.292258,-0.540089,-1.525136,-0.284654,-0.037907,-0.957880,-0.032530,0.046131,0.048853,245.067673,362.635376,41.847504,,,,,,,
1537671334.488157,-0.294370,0.044833,-2.866982,0.299384,-0.642717,-1.359031,-0.289846,-0.044818,-0.956023,-0.079661,0.039294,0.070663,237.284271,359.471619,38.311218,,,,,,,
1537671334.498197,-0.301834,0.050913,-2.877927,0.242661,-0.843545,-1.170426,-0.296887,-0.050891,-0.953556,-0.130786,0.026202,0.013767,237.284271,359.471619,38.311218,,,,,,,
1537671334.508237,-0.311096,0.055647,-2.887250,0.142145,-1.010253,-0.977912,-0.305628,-0.055618,-0.950525,-0.179647,0.012024,-0.032843,231.801743,356.955750,36.386993,,,,,,,
1537671334.518247,-0.321246,0.058992,-2.895255,0.055478,-1.073706,-0.847725,-0.315199,-0.058958,-0.947192,-0.192735,0.001219,-0.044034,231.801743,356.955750,36.386993,,,,,,,
1537671334.528287,-0.330500,0.062274,-2.903393,0.052039,-0.909443,-0.872978,-0.323887,-0.062234,-0.944047,-0.050167,0.027948,0.025483,229.960648,356.255981,36.033142,,,,,,,
1537671334.538327,-0.335789,0.065748,-2.911053,0.090373,-0.449953,-0.811549,-0.328803,-0.065701,-0.942111,-0.002756,0.030301,0.150393,229.960648,356.255981,36.033142,,,,,,,
1537671334.548368,-0.336522,0.069551,-2.917632,0.162783,-0.014812,-0.724193,-0.329408,-0.069495,-0.941627,-0.071242,0.006964,0.234748,229.319611,355.806885,36.255981,,,,,,,
1537671334.558408,-0.333954,0.073882,-2.923452,0.224959,0.271681,-0.673706,-0.326887,-0.073815,-0.942176,-0.128604,0.032586,0.212410,229.319611,355.806885,36.255981,,,,,,,
1537671334.568418,-0.330290,0.077628,-2.928556,0.173307,0.352215,-0.580246,-0.323341,-0.077550,-0.943100,-0.191918,0.042592,0.072815,229.179886,355.348511,36.056946,,,,,,,
1537671334.578458,-0.326798,0.080632,-2.933380,0.105071,0.290399,-0.545089,-0.319969,-0.080545,-0.943998,-0.213188,0.062769,-0.003207,229.179886,355.348511,36.056946,,,,,,,
1537671334.588498,-0.323718,0.082543,-2.938831,-0.030121,0.256850,-0.594828,-0.317011,-0.082450,-0.944831,-0.156500,0.113074,-0.024804,229.302368,354.714417,36.082336,,,,,,,
1537671334.598539,-0.320251,0.083608,-2.945950,-0.143854,0.309294,-0.740987,-0.313705,-0.083510,-0.945841,-0.086731,0.170882,-0.000006,229.302368,354.714417,36.082336,,,,,,,
1537671334.608579,-0.315178,0.084818,-2.954724,-0.153255,0.478136,-0.908436,-0.308871,-0.084716,-0.947323,-0.030774,0.196502,0.048169,229.431747,354.280853,35.936279,,,,,,,
1537671334.618589,-0.307928,0.086890,-2.964876,-0.091345,0.688790,-1.058577,-0.301941,-0.086780,-0.949369,-0.011413,0.179279,0.088040,229.431747,354.280853,35.936279,,,,,,,
1537671334.628629,-0.298527,0.090238,-2.976188,0.010057,0.887720,-1.209533,-0.292916,-0.090116,-0.951882,-0.014930,0.158567,0.118599,229.555283,353.871002,36.243591,,,,,,,
1537671334.638669,-0.287135,0.095154,-2.988477,0.156214,1.059099,-1.336631,-0.281924,-0.095011,-0.954721,-0.016171,0.158457,0.172006,229.555283,353.871002,36.243591,,,,,,,
1537671334.648709,-0.274655,0.101667,-3.001131,0.318340,1.129457,-1.395911,-0.269814,-0.101492,-0.957549,-0.026099,0.135641,0.195159,229.239288,351.493958,37.763580,,,,,,,
1537671334.658750,-0.262374,0.109965,-3.013586,0.525389,1.066629,-1.411674,-0.257807,-0.109744,-0.959944,-0.046224,0.109362,0.176496,229.239288,351.493958,37.763580,,,,,,,
1537671334.668760,-0.251608,0.120365,-3.025541,0.763505,0.895068,-1.406535,-0.247160,-0.120074,-0.961506,-0.063646,0.068256,0.146366,229.493866,349.572845,38.179626,,,,,,,
1537671334.678800,-0.241447,0.132867,-3.036745,0.992656,0.888092,-1.366828,-0.237001,-0.132476,-0.962435,-0.077391,0.035277,0.162386,229.493866,349.572845,38.179626,,,,,,,
1537671334.688840,-0.228804,0.147237,-3.046900,1.222038,1.227283,-1.282542,-0.224358,-0.146706,-0.963401,-0.076758,0.048195,0.269950,231.267487,350.456604,35.426849,,,,,,,
1537671334.698880,-0.211261,0.162468,-3.056213,1.322218,1.671955,-1.211110,-0.206932,-0.161754,-0.964891,-0.077385,0.056407,0.359956,231.267487,350.456604,35.426849,,,,,,,
1537671334.708921,-0.189419,0.178280,-3.065908,1.357739,2.138230,-1.269424,-0.185304,-0.177337,-0.966547,-0.024321,0.065445,0.285914,232.729279,349.966125,34.277557,,,,,,,
1537671334.718930,-0.164655,0.194450,-3.077299,1.391087,2.263335,-1.437544,-0.160822,-0.193227,-0.967884,0.017909,0.071950,0.293827,232.729279,349.966125,34.277557,,,,,,,
1537671334.728971,-0.137719,0.209587,-3.091310,1.253635,2.469421,-1.603675,-0.134280,-0.208056,-0.968856,0.090777,0.063174,0.150176,234.535324,348.317261,33.679474,,,,,,,
1537671334.739011,-0.111276,0.222906,-3.105904,1.065333,2.135394,-1.532796,-0.108299,-0.221064,-0.969227,0.105370,0.083552,0.105916,234.535324,348.317261,33.679474,,,,,,,
1537671334.749051,-0.105885,0.226849,-3.117934,-0.048959,-0.311339,-1.011623,-0.102980,-0.224908,-0.968923,0.047239,-0.169364,-0.540065,238.575211,347.550140,33.025421,,,,,,,
1537671334.759092,-0.113738,0.222048,-3.121650,-0.587147,-0.881383,-0.095176,-0.110707,-0.220228,-0.969146,0.220188,-0.884218,-1.049317,238.575211,347.550140,33.025421,,,,,,,
1537671334.769101,-0.119240,0.216590,-3.118897,-0.453240,-0.446958,0.431769,-0.116178,-0.214901,-0.969701,0.212843,-0.722492,-0.098872,287.285278,316.973083,28.505035,,,,,,,
1537671334.779142,-0.127805,0.212833,-3.116039,-0.291701,-0.902736,0.223884,-0.124582,-0.211229,-0.969464,0.345194,-0.408308,0.062574,287.285278,316.973083,28.505035,,,,,,,
1537671334.789182,-0.138305,0.213303,-3.117461,0.142144,-1.113050,-0.249672,-0.134740,-0.211689,-0.968005,0.360463,-0.032466,-0.034284,338.003815,239.094437,11.547546,,,,,,,
1537671334.799222,-0.150452,0.218357,-3.121278,0.530487,-1.354120,-0.489284,-0.146326,-0.216626,-0.965226,0.172724,0.216352,0.157517,338.003815,239.094437,11.547546,,,,,,,
1537671334.809262,-0.165095,0.226388,-3.126011,0.770267,-1.613942,-0.616312,-0.160153,-0.224459,-0.961233,0.084897,0.140307,0.120596,344.627136,162.857681,-6.356689,,,,,,,
1537671334.819272,-0.180075,0.236241,-3.132481,0.884109,-1.641775,-0.849663,-0.174128,-0.234050,-0.956504,0.074427,0.095835,0.070792,344.627136,162.857681,-6.356689,,,,,,,
1537671334.829313,-0.192945,0.246651,-3.140540,0.861652,-1.406536,-0.978970,-0.185947,-0.244158,-0.951741,0.100192,0.124102,0.066365,322.376190,110.794617,-21.152832,,,,,,,
1537671334.839353,-0.201915,0.255905,3.134060,0.666671,-0.933862,-0.992562,-0.194015,-0.253121,-0.947781,0.044234,0.136467,0.079586,322.376190,110.794617,-21.152832,,,,,,,
1537671334.849393,-0.204072,0.262739,3.125633,0.460391,-0.309035,-0.901012,-0.195704,-0.259727,-0.945644,-0.021398,0.054450,0.102443,302.726562,84.525131,-29.185913,,,,,,,
1537671334.859403,-0.199524,0.268181,3.117257,0.360946,0.420929,-0.939709,-0.191118,-0.264978,-0.945125,-0.051802,0.024179,0.123073,302.726562,84.525131,-29.185913,,,,,,,
1537671334.869443,-0.187500,0.273993,3.106630,0.369944,1.058260,-1.150609,-0.179450,-0.270578,-0.945825,0.068518,0.142328,0.245416,293.973022,73.843155,-31.853455,,,,,,,
1537671334.879483,-0.171603,0.278743,3.095905,0.243214,1.347990,-1.051963,-0.164171,-0.275148,-0.947281,0.033556,0.097551,0.197846,293.973022,73.843155,-31.853455,,,,,,,
1537671334.889524,-0.155075,0.281404,3.087306,0.091864,1.411207,-0.784748,-0.148379,-0.277705,-0.949138,-0.121457,-0.075643,0.079799,290.150574,72.826599,-33.156494,,,,,,,
1537671334.899564,-0.140682,0.282120,3.081281,-0.054659,1.198952,-0.518550,-0.134675,-0.278393,-0.950978,-0.174132,-0.059650,0.066182,290.150574,72.826599,-33.156494,,,,,,,
1537671334.909574,-0.130198,0.280774,3.077208,-0.231559,0.841020,-0.329950,-0.124746,-0.277100,-0.952709,-0.165140,-0.014481,0.020671,287.965179,73.133194,-34.157288,,,,,,,
1537671334.919614,-0.124191,0.277163,3.073425,-0.464150,0.369896,-0.328227,-0.119145,-0.273628,-0.954428,-0.075375,0.025612,0.017446,287.965179,73.133194,-34.157288,,,,,,,
1537671334.929654,-0.122191,0.271254,3.068079,-0.711298,-0.040160,-0.478589,-0.117431,-0.267939,-0.956252,0.054580,0.100886,0.016692,285.183228,74.447708,-34.987793,,,,,,,
1537671334.939695,-0.122407,0.262807,3.061088,-0.981481,-0.212937,-0.578715,-0.117909,-0.259792,-0.958439,0.098027,0.150967,0.012852,285.183228,74.447708,-34.987793,,,,,,,
1537671334.949735,-0.122726,0.252739,3.053177,-1.103794,-0.241287,-0.660470,-0.118529,-0.250057,-0.960949,0.065733,0.128506,0.051738,280.999939,76.281761,-35.897461,,,,,,,
1537671334.959745,-0.122430,0.243638,3.044357,-0.952241,-0.154071,-0.755142,-0.118518,-0.241234,-0.963203,0.078922,0.088418,0.166175,276.604980,78.241776,-36.705322,,,,,,,
1537671334.969785,-0.120830,0.237512,3.035590,-0.613379,-0.018122,-0.766730,-0.117152,-0.235285,-0.964840,0.042384,0.043253,0.316372,276.604980,78.241776,-36.705322,,,,,,,
1537671334.979825,-0.117545,0.235420,3.027456,-0.191592,0.205605,-0.754718,-0.114039,-0.233251,-0.965706,-0.016683,0.001028,0.382119,274.248169,79.278786,-37.279968,,,,,,,
1537671334.989866,-0.110797,0.237634,3.020120,0.242548,0.609923,-0.718779,-0.107463,-0.235404,-0.965938,-0.019597,0.000953,0.411708,274.248169,79.278786,-37.279968,,,,,,,
1537671334.999906,-0.099995,0.242896,3.014097,0.512054,1.070076,-0.587738,-0.096898,-0.240515,-0.965797,-0.040629,0.011480,0.407874,274.328522,78.773430,-37.713745,,,,,,,
1537671335.009916,-0.082715,0.248273,3.012427,0.479920,1.885445,-0.059974,-0.080087,-0.245730,-0.966024,-0.134894,-0.072675,0.397543,274.328522,78.773430,-37.713745,,,,,,,
1537671335.019956,-0.066178,0.250192,3.015107,0.091248,1.563445,0.301579,-0.064071,-0.247590,-0.966744,-0.348435,-0.165176,0.155434,277.097473,78.446396,-37.881531,,,,,,,
1537671335.029996,-0.058525,0.247263,3.018628,-0.389110,0.615214,0.386196,-0.056713,-0.244751,-0.967926,-0.181080,0.014130,-0.330918,277.097473,78.446396,-37.881531,,,,,,,
1537671335.040036,-0.059033,0.239830,3.023736,-0.804218,-0.089934,0.586683,-0.057310,-0.237538,-0.969686,-0.081667,0.106831,-0.460429,277.461548,78.956741,-38.229248,,,,,,,
1537671335.050077,-0.065640,0.229336,3.030819,-1.051245,-0.623946,0.805541,-0.063875,-0.227331,-0.971720,-0.143583,0.060950,-0.335409,277.461548,78.956741,-38.229248,,,,,,,
1537671335.060086,-0.076582,0.217441,3.039478,-1.137404,-0.968106,0.952880,-0.074706,-0.215731,-0.973591,-0.112886,0.005801,-0.242840,276.654816,79.897858,-38.164490,,,,,,,
1537671335.070127,-0.089045,0.205887,3.048611,-1.033909,-1.037247,0.981486,-0.087050,-0.204435,-0.975002,-0.063524,-0.008929,-0.139866,276.654816,79.897858,-38.164490,,,,,,,
1537671335.080167,-0.098379,0.196276,3.056742,-0.824123,-0.652386,0.830359,-0.096334,-0.195018,-0.976057,-0.036936,-0.000996,0.005064,275.702454,80.974083,-37.491394,,,,,,,
1537671335.090207,-0.102088,0.189331,3.062273,-0.543620,-0.185012,0.522166,-0.100090,-0.188202,-0.977017,-0.020165,0.007141,0.106823,275.702454,80.974083,-37.491394,,,,,,,
1537671335.100248,-0.099654,0.185274,3.064525,-0.325117,0.420868,0.175689,-0.097787,-0.184216,-0.978009,0.002282,0.027309,0.117261,275.550720,81.351662,-37.672485,,,,,,,
1537671335.110257,-0.092447,0.183552,3.064325,-0.118289,0.800003,-0.050244,-0.090765,-0.182523,-0.979003,0.012533,0.044279,0.050139,275.550720,81.351662,-37.672485,,,,,,,
1537671335.120298,-0.082087,0.184197,3.062889,0.107619,1.076136,-0.173065,-0.080608,-0.183157,-0.979773,-0.011280,0.039144,-0.027658,276.550323,81.639038,-38.033142,,,,,,,
1537671335.130338,-0.069216,0.186739,3.060704,0.280220,1.268128,-0.247737,-0.067958,-0.185656,-0.980262,-0.009847,0.021959,-0.097848,276.550323,81.639038,-38.033142,,,,,,,
1537671335.140378,-0.055673,0.191028,3.058067,0.450905,1.315037,-0.298329,-0.054632,-0.189868,-0.980288,-0.012766,-0.009534,-0.143003,277.430969,81.129585,-38.267151,,,,,,,
1537671335.150418,-0.040655,0.196631,3.054433,0.564013,1.472523,-0.414858,-0.039861,-0.195367,-0.979920,-0.009730,-0.015952,-0.122696,277.430969,81.129585,-38.267151,,,,,,,
1537671335.160428,-0.023647,0.202570,3.049290,0.573745,1.632978,-0.556523,-0.023161,-0.201188,-0.979279,0.006575,0.003922,-0.105743,278.579407,80.763588,-38.521362,,,,,,,
1537671335.170469,-0.005092,0.207943,3.042852,0.503469,1.739129,-0.657778,-0.004982,-0.206448,-0.978445,0.001701,0.009685,-0.140879,278.579407,80.763588,-38.521362,,,,,,,
1537671335.180509,0.013869,0.212257,3.035808,0.410798,1.730331,-0.683880,0.013557,-0.210667,-0.977464,-0.012642,0.013172,-0.191497,279.853394,80.102722,-39.070435,,,,,,,
1537671335.190549,0.031413,0.215657,3.029109,0.334197,1.551175,-0.624787,0.030680,-0.213990,-0.976354,-0.046488,0.003510,-0.218714,279.853394,80.102722,-39.070435,,,,,,,
1537671335.200559,0.046167,0.218225,3.023375,0.256562,1.284713,-0.523670,0.045056,-0.216497,-0.975243,-0.066434,-0.021830,-0.229682,280.926941,79.862228,-39.356384,,,,,,,
1537671335.210599,0.058548,0.219876,3.018588,0.164970,1.086494,-0.435723,0.057106,-0.218109,-0.974252,-0.042045,-0.039673,-0.197363,280.926941,79.862228,-39.356384,,,,,,,
1537671335.220639,0.069359,0.220465,3.014787,0.050792,0.966251,-0.336448,0.067626,-0.218683,-0.973450,-0.003005,-0.063437,-0.137009,281.578735,79.554367,-39.329468,,,,,,,
1537671335.230680,0.078580,0.219692,3.012629,-0.101995,0.833570,-0.166787,0.076613,-0.217929,-0.972953,0.013490,-0.111050,-0.085443,281.578735,79.554367,-39.329468,,,,,,,
1537671335.240720,0.085687,0.217479,3.012857,-0.261300,0.676606,0.060649,0.083566,-0.215769,-0.972862,0.020239,-0.168646,-0.049706,281.994812,78.956131,-39.332092,,,,,,,
1537671335.250730,0.090313,0.213504,3.015573,-0.479110,0.466117,0.281578,0.088143,-0.211886,-0.973311,0.082389,-0.312895,-0.009614,281.994812,78.956131,-39.332092,,,,,,,
1537671335.260770,0.093090,0.207270,3.019741,-0.723265,0.349771,0.341679,0.090966,-0.205789,-0.974359,0.120902,-0.325965,-0.006109,281.264709,68.522774,-39.956726,,,,,,,
1537671335.270810,0.094649,0.198559,3.022723,-0.949460,0.167021,0.162735,0.092651,-0.197257,-0.975964,0.084427,-0.107522,0.044430,281.264709,68.522774,-39.956726,,,,,,,
1537671335.280851,0.096056,0.187554,3.024240,-1.159098,0.212851,0.000068,0.094227,-0.186456,-0.977934,0.098919,0.063654,0.057143,279.380737,54.933167,-41.279968,,,,,,,
1537671335.290891,0.100554,0.174297,3.023968,-1.358447,0.526408,-0.213843,0.098864,-0.173416,-0.979874,0.119978,0.088409,0.109818,279.380737,54.933167,-41.279968,,,,,,,
1537671335.300901,0.107441,0.159224,3.021682,-1.508367,0.660623,-0.432124,0.105878,-0.158552,-0.981657,0.101596,0.053602,0.155684,275.840790,45.400162,-42.932434,,,,,,,
1537671335.310941,0.113409,0.142619,3.017581,-1.621402,0.461827,-0.634992,0.112017,-0.142136,-0.983488,0.065763,0.053269,0.176649,275.840790,45.400162,-42.932434,,,,,,,
1537671335.320981,0.115266,0.125421,3.012073,-1.639246,-0.017177,-0.755019,0.114107,-0.125092,-0.985561,0.065702,0.092194,0.164852,274.899353,43.026936,-43.510986,,,,,,,
1537671335.331022,0.112430,0.109363,3.006778,-1.472319,-0.448887,-0.670128,0.111523,-0.109145,-0.987750,0.103900,-0.073426,0.153689,274.899353,43.026936,-43.510986,,,,,,,
1537671335.341062,0.107344,0.096271,3.002215,-1.166251,-0.603909,-0.581334,0.106642,-0.096122,-0.989640,0.062807,-0.192544,0.210420,274.354614,43.728725,-43.443298,,,,,,,
1537671335.351072,0.096395,0.087288,2.998254,-0.728208,-1.288984,-0.417061,0.095880,-0.087178,-0.991568,-0.052163,-0.100841,0.250967,274.354614,43.728725,-43.443298,,,,,,,
1537671335.361112,0.081084,0.083347,2.997190,-0.284103,-1.600323,-0.049041,0.080714,-0.083250,-0.993255,-0.211832,-0.038911,0.288024,273.599976,44.080708,-43.502747,,,,,,,
1537671335.371152,0.064959,0.081606,2.998586,-0.178238,-1.556330,0.164025,0.064698,-0.081516,-0.994570,-0.268555,-0.031231,0.313173,273.599976,44.080708,-43.502747,,,,,,,
1537671335.381192,0.053299,0.078767,3.000809,-0.352329,-0.963719,0.210984,0.053109,-0.078686,-0.995484,-0.171837,0.002178,0.170426,273.004333,44.183376,-43.290833,,,,,,,
1537671335.391233,0.049709,0.073043,3.003111,-0.662112,-0.125024,0.187850,0.049556,-0.072978,-0.996102,-0.100993,0.030956,0.039437,273.004333,44.183376,-43.290833,,,,,,,
1537671335.401242,0.053902,0.064628,3.004903,-0.901120,0.592846,0.116406,0.053764,-0.064583,-0.996463,-0.043037,0.058662,-0.036938,273.626526,44.677765,-43.112000,,,,,,,
1537671335.411283,0.062139,0.055101,3.006219,-0.958017,0.867947,0.064780,0.062004,-0.055073,-0.996555,0.001228,0.051289,-0.012859,273.626526,44.677765,-43.112000,,,,,,,
1537671335.421323,0.070072,0.046061,3.007150,-0.881911,0.741811,0.020793,0.069940,-0.046045,-0.996488,0.000677,0.030008,0.032850,275.707825,44.772869,-42.988098,,,,,,,
1537671335.431363,0.074461,0.038029,3.007535,-0.775306,0.313498,-0.032519,0.074339,-0.038019,-0.996508,0.020632,0.009150,0.029055,275.707825,44.772869,-42.988098,,,,,,,
1537671335.441404,0.073667,0.030630,3.007336,-0.726090,-0.201400,-0.093268,0.073566,-0.030625,-0.996820,0.021908,-0.022414,-0.014197,290.287109,44.564037,-40.409729,,,,,,,
1537671335.451413,0.069486,0.023252,3.006104,-0.724084,-0.465811,-0.219388,0.069411,-0.023250,-0.997317,-0.009062,-0.046040,-0.055234,290.287109,44.564037,-40.409729,,,,,,,
1537671335.461454,0.064023,0.016163,3.002634,-0.660181,-0.586582,-0.450495,0.063971,-0.016162,-0.997821,-0.000479,-0.054654,-0.089597,337.502197,42.130905,-28.327454,,,,,,,
1537671335.471494,0.057184,0.009970,2.996721,-0.542892,-0.734006,-0.685490,0.057150,-0.009970,-0.998316,0.030711,-0.018610,-0.071783,337.502197,42.130905,-28.327454,,,,,,,
1537671335.481534,0.049529,0.004090,2.989495,-0.526540,-0.798433,-0.755686,0.049509,-0.004090,-0.998765,0.022909,-0.011322,-0.042662,427.155853,35.959156,1.149841,,,,,,,
1537671335.491574,0.041334,-0.001044,2.982522,-0.464910,-0.808622,-0.687989,0.041322,0.001044,-0.999145,0.011000,-0.028006,0.024277,427.155853,35.959156,1.149841,,,,,,,
1537671335.501584,0.033019,-0.004964,2.978075,-0.334739,-0.794017,-0.390247,0.033012,0.004964,-0.999443,-0.003349,0.017040,0.071571,516.034546,19.770630,47.188324,,,,,,,
1537671335.511625,0.026689,-0.007773,2.975793,-0.257938,-0.595313,-0.187569,0.026685,0.007772,-0.999614,-0.012631,0.068018,0.062510,516.034546,19.770630,47.188324,,,,,,,
1537671335.521665,0.021190,-0.010225,2.974809,-0.241355,-0.523190,-0.084098,0.021187,0.010224,-0.999723,0.019188,0.064483,0.034620,550.335449,9.434418,67.330597,,,,,,,
1537671335.531705,0.016592,-0.012493,2.974361,-0.228857,-0.444994,-0.040524,0.016590,0.012493,-0.999784,0.036786,0.064503,0.017103,550.335449,9.434418,67.330597,,,,,,,
1537671335.541745,0.012748,-0.014332,2.974175,-0.175778,-0.363657,-0.017057,0.012746,0.014331,-0.999816,0.022715,0.044720,0.005065,554.479370,6.805336,69.634430,,,,,,,
1537671335.551755,0.009575,-0.015212,2.974008,-0.066038,-0.313354,-0.018818,0.009573,0.015212,-0.999838,0.039895,0.026857,0.000708,554.479370,6.805336,69.634430,,,,,,,
1537671335.561795,0.007165,-0.015551,2.973785,-0.041708,-0.211907,-0.021232,0.007164,0.015550,-0.999853,0.045890,0.060332,-0.019281,554.864380,4.977043,69.664734,,,,,,,
1537671335.571836,0.006349,-0.016652,2.973736,-0.138101,-0.034678,-0.001068,0.006348,0.016651,-0.999841,0.017380,0.075817,-0.062689,554.864380,4.977043,69.664734,,,,,,,
1537671335.581876,0.007156,-0.018640,2.973720,-0.208762,0.112554,-0.005231,0.007155,0.018639,-0.999801,-0.006911,0.076957,-0.079331,555.006653,5.335114,69.754333,,,,,,,
1537671335.591886,0.008764,-0.020365,2.973500,-0.149083,0.166959,-0.030785,0.008762,0.020364,-0.999754,-0.002491,0.084128,-0.075182,555.006653,5.335114,69.754333,,,,,,,
1537671335.601926,0.010123,-0.020894,2.973068,-0.017786,0.120070,-0.043803,0.010120,0.020893,-0.999731,0.011196,0.071698,-0.062266,555.351562,4.989792,69.505554,,,,,,,
1537671335.611947,0.010794,-0.020104,2.972755,0.108122,0.053050,-0.022569,0.010792,0.020102,-0.999740,0.011776,0.044854,-0.067445,555.351562,4.989792,69.505554,,,,,,,
1537671335.621988,0.011114,-0.018307,2.972717,0.198730,0.026612,0.003662,0.011112,0.018306,-0.999771,0.000195,0.009038,-0.074372,555.525635,5.008736,69.523651,,,,,,,
1537671335.632028,0.011100,-0.015947,2.972816,0.242499,-0.014916,0.014745,0.011098,0.015946,-0.999811,-0.008046,-0.015320,-0.072836,555.525635,5.008736,69.523651,,,,,,,
1537671335.642038,0.010477,-0.013479,2.972929,0.242625,-0.074717,0.012846,0.010476,0.013479,-0.999854,-0.024117,-0.024206,-0.068383,555.232666,4.909531,69.632721,,,,,,,
1537671335.652078,0.009538,-0.011331,2.972848,0.201161,-0.100508,-0.013988,0.009537,0.011331,-0.999890,-0.035126,-0.015207,-0.056521,555.232666,4.909531,69.632721,,,,,,,
1537671335.662118,0.008426,-0.009947,2.972477,0.135142,-0.103940,-0.041040,0.008426,0.009947,-0.999915,-0.040469,-0.002776,-0.040109,555.132751,4.985214,69.496613,,,,,,,
1537671335.672159,0.007625,-0.009264,2.971883,0.064762,-0.069969,-0.066126,0.007624,0.009264,-0.999928,-0.042597,0.002561,-0.015163,555.132751,4.985214,69.496613,,,,,,,
1537671335.682199,0.006951,-0.009172,2.970770,0.010582,-0.071445,-0.128393,0.006951,0.009172,-0.999934,-0.033379,0.013152,-0.003530,554.708740,4.667488,69.438934,,,,,,,
1537671335.692209,0.006225,-0.009291,2.968951,-0.004122,-0.066530,-0.195822,0.006224,0.009291,-0.999937,-0.013808,0.021318,0.001936,554.708740,4.667488,69.438934,,,,,,,
1537671335.702249,0.005512,-0.009326,2.966771,0.003467,-0.080565,-0.225652,0.005512,0.009326,-0.999941,0.002880,0.004590,0.013781,554.001221,5.075226,68.856750,,,,,,,
1537671335.712289,0.003328,-0.008987,2.964242,0.044418,-0.266386,-0.245004,0.003328,0.008987,-0.999954,0.070631,0.021729,0.004486,554.001221,5.075226,68.856750,,,,,,,
1537671335.722329,-0.000100,-0.008272,2.962563,0.075163,-0.347977,-0.138710,-0.000100,0.008271,-0.999966,0.131372,0.020995,-0.009052,516.809753,6.976830,43.768890,,,,,,,
1537671335.732370,-0.003487,-0.007158,2.961597,0.120856,-0.339138,-0.094686,-0.003486,0.007158,-0.999968,0.084007,0.021071,-0.001085,516.809753,6.976830,43.768890,,,,,,,
1537671335.742379,-0.006575,-0.006122,2.960528,0.101558,-0.273014,-0.103600,-0.006575,0.006122,-0.999960,-0.000139,0.012921,0.026449,442.180969,6.062401,1.713196,,,,,,,
1537671335.752420,-0.008585,-0.005170,2.959781,0.092718,-0.175677,-0.065559,-0.008585,0.005170,-0.999950,-0.127066,0.001132,0.041408,442.180969,6.062401,1.713196,,,,,,,
1537671335.762460,-0.010241,-0.004297,2.959393,0.092579,-0.162672,-0.030342,-0.010241,0.004297,-0.999938,-0.144178,-0.006402,0.037704,410.847351,4.769287,-12.400391,,,,,,,
1537671335.772500,-0.012127,-0.003594,2.959204,0.071287,-0.199999,-0.018549,-0.012126,0.003594,-0.999920,-0.105305,-0.011742,0.025707,410.847351,4.769287,-12.400391,,,,,,,
1537671335.782541,-0.014484,-0.003192,2.958922,0.029853,-0.250319,-0.034597,-0.014483,0.003192,-0.999890,-0.040311,-0.007083,0.013608,403.994965,4.697426,-14.885437,,,,,,,
1537671335.792550,-0.017129,-0.003370,2.958232,-0.027496,-0.288028,-0.082843,-0.017128,0.003370,-0.999848,0.022712,0.002474,0.021057,403.994965,4.697426,-14.885437,,,,,,,
1537671335.802591,-0.019499,-0.004013,2.956975,-0.073256,-0.247807,-0.136682,-0.019497,0.004013,-0.999802,0.057019,0.022004,0.034394,386.743652,4.717445,-21.433350,,,,,,,
1537671335.812631,-0.020981,-0.004922,2.955399,-0.093676,-0.132648,-0.156485,-0.020979,0.004922,-0.999768,0.026702,0.031959,0.053616,386.743652,4.717445,-21.433350,,,,,,,
1537671335.822671,-0.021064,-0.005885,2.954177,-0.097435,0.040672,-0.090931,-0.021062,0.005885,-0.999761,-0.039439,0.014730,0.067815,367.550018,4.885521,-28.011353,,,,,,,
1537671335.832711,-0.020089,-0.006716,2.953394,-0.072150,0.127418,-0.053737,-0.020087,0.006716,-0.999776,-0.111795,-0.014102,0.062581,367.550018,4.885521,-28.011353,,,,,,,
1537671335.842721,-0.018642,-0.007188,2.953326,-0.040444,0.174757,0.005024,-0.018641,0.007188,-0.999800,-0.046423,-0.028520,0.044676,364.916412,4.732735,-29.122742,,,,,,,
1537671335.852762,-0.016696,-0.007422,2.953467,-0.020302,0.217543,0.016715,-0.016695,0.007422,-0.999833,-0.029402,-0.027533,0.031968,364.916412,4.732735,-29.122742,,,,,,,
1537671335.862802,-0.014475,-0.007493,2.953805,-0.004399,0.225165,0.040281,-0.014474,0.007493,-0.999867,-0.028083,-0.011918,0.032338,364.764893,4.827934,-29.227539,,,,,,,
1537671335.872842,-0.012321,-0.007464,2.954350,0.005175,0.205002,0.058581,-0.012320,0.007464,-0.999896,-0.026880,-0.001650,0.032092,364.764893,4.827934,-29.227539,,,,,,,
1537671335.882882,-0.010489,-0.007489,2.954977,-0.001160,0.166581,0.062976,-0.010489,0.007489,-0.999917,-0.028528,-0.000897,0.031655,365.020905,4.943916,-29.489136,,,,,,,
1537671335.892892,-0.009164,-0.007707,2.955553,-0.022364,0.117401,0.055579,-0.009164,0.007707,-0.999928,-0.024955,0.002547,0.032842,365.020905,4.943916,-29.489136,,,,,,,
1537671335.902932,-0.008203,-0.008355,2.955965,-0.075587,0.101214,0.036126,-0.008203,0.008355,-0.999931,-0.021475,0.007667,0.035057,365.026215,4.930122,-29.502625,,,,,,,
1537671335.912973,-0.007329,-0.009596,2.956073,-0.140538,0.102038,0.004788,-0.007329,0.009596,-0.999927,-0.016338,0.008837,0.039569,365.026215,4.930122,-29.502625,,,,,,,
1537671335.923013,-0.006441,-0.011415,2.955896,-0.199080,0.095401,-0.024350,-0.006440,0.011414,-0.999914,-0.013183,0.005172,0.047659,365.248718,4.968315,-29.588318,,,,,,,
1537671335.933023,-0.005483,-0.013683,2.955407,-0.242724,0.104798,-0.055611,-0.005482,0.013683,-0.999891,-0.011241,0.003026,0.058104,365.248718,4.968315,-29.588318,,,,,,,
1537671335.943063,-0.004365,-0.016392,2.954656,-0.282138,0.120641,-0.078325,-0.004364,0.016391,-0.999856,-0.008621,0.005627,0.061975,365.487549,4.788330,-29.581787,,,,,,,
1537671335.953103,-0.003073,-0.019525,2.953748,-0.322641,0.137584,-0.092499,-0.003073,0.019524,-0.999805,-0.004053,0.011207,0.054492,365.487549,4.788330,-29.581787,,,,,,,
1537671335.963144,-0.001646,-0.022953,2.952824,-0.347203,0.150383,-0.089472,-0.001645,0.022951,-0.999735,-0.000552,0.011321,0.051066,365.716827,5.257500,-29.662964,,,,,,,
1537671335.973184,-0.000235,-0.026430,2.952034,-0.346168,0.141925,-0.074471,-0.000235,0.026427,-0.999651,-0.001275,0.005205,0.051775,365.716827,5.257500,-29.662964,,,,,,,
1537671335.983194,0.000920,-0.029714,2.951403,-0.322690,0.110001,-0.060326,0.000919,0.029710,-0.999558,-0.010105,0.001861,0.046616,365.645599,5.601372,-29.636719,,,,,,,
1537671335.993234,0.001517,-0.032760,2.950851,-0.299112,0.044917,-0.053531,0.001516,0.032754,-0.999462,-0.016103,0.001746,0.038021,365.645599,5.601372,-29.636719,,,,,,,
1537671336.003274,0.001287,-0.035640,2.950331,-0.288280,-0.039415,-0.053139,0.001286,0.035633,-0.999364,-0.020451,0.004467,0.027410,366.132202,5.991196,-29.779419,,,,,,,
1537671336.013315,0.000414,-0.038558,2.949811,-0.294582,-0.093848,-0.052955,0.000414,0.038548,-0.999257,-0.024629,0.009654,0.021382,366.132202,5.991196,-29.779419,,,,,,,
1537671336.023355,-0.000685,-0.041504,2.949209,-0.294525,-0.106713,-0.062522,-0.000684,0.041492,-0.999139,-0.022662,0.010845,0.024438,366.149689,6.175835,-29.751526,,,,,,,
1537671336.033365,-0.001737,-0.044337,2.948493,-0.281704,-0.099292,-0.073172,-0.001735,0.044323,-0.999016,-0.020481,0.008869,0.031395,366.149689,6.175835,-29.751526,,,,,,,
1537671336.043405,-0.002592,-0.047157,2.947729,-0.286012,-0.074753,-0.075430,-0.002590,0.047139,-0.998885,-0.018071,0.008449,0.023955,366.067657,6.282478,-29.725342,,,,,,,
1537671336.053445,-0.003126,-0.050037,2.946967,-0.289284,-0.042708,-0.074506,-0.003122,0.050016,-0.998744,-0.014884,0.006487,0.009577,366.067657,6.282478,-29.725342,,,,,,,
1537671336.063485,-0.003440,-0.052800,2.946278,-0.271230,-0.023409,-0.063800,-0.003435,0.052776,-0.998600,-0.007673,0.002995,-0.001400,366.047577,6.597618,-29.813232,,,,,,,
1537671336.073526,-0.003606,-0.055302,2.945778,-0.244656,-0.009403,-0.043410,-0.003601,0.055274,-0.998465,-0.004135,-0.006445,-0.009622,366.047577,6.597618,-29.813232,,,,,,,
1537671336.083535,-0.003686,-0.057486,2.945527,-0.213826,-0.003885,-0.017620,-0.003679,0.057454,-0.998341,-0.004301,-0.019704,-0.015208,366.983521,6.887672,-29.530029,,,,,,,
1537671336.093576,-0.003955,-0.059481,2.945637,-0.195776,-0.035647,0.022146,-0.003948,0.059446,-0.998224,-0.002781,-0.033247,-0.022345,366.983521,6.887672,-29.530029,,,,,,,
1537671336.103616,-0.004742,-0.061353,2.946088,-0.184034,-0.092049,0.053427,-0.004734,0.061314,-0.998107,-0.003796,-0.042469,-0.039338,367.972198,7.152672,-29.416687,,,,,,,
