timestamp(unix),attitude_roll(radians),attitude_pitch(radians),attitude_yaw(radians),rotation_rate_x(radians/s),rotation_rate_y(radians/s),rotation_rate_z(radians/s),gravity_x(G),gravity_y(G),gravity_z(G),user_acc_x(G),user_acc_y(G),user_acc_z(G),magnetic_field_x(microteslas),magnetic_field_y(microteslas),magnetic_field_z(microteslas),latitude(degree),longitude(degree),altitude(meter),speed(m/s),course(degree),timestamp(unix),User Mark
,,,,,,,,,,,,,,,,42.293128,-71.262984,59.117011,0.921832,240.321326,1537671384.000657,
1537671404.777783,0.172045,0.095035,-1.194438,-0.466976,-0.351021,-0.063519,0.170425,-0.094892,-0.980791,0.006043,-0.030764,0.044588,20.389729,-2.716202,-38.992188,,,,,,,
1537671404.787824,0.166498,0.090676,-1.194473,-0.409866,-0.615842,-0.082472,0.165048,-0.090552,-0.982120,0.006155,-0.034982,0.061389,20.076622,-2.095772,-39.012329,,,,,,,
1537671404.797864,0.158607,0.087275,-1.194902,-0.295259,-0.838949,-0.102358,0.157341,-0.087164,-0.983690,0.008659,-0.034205,0.075899,20.076622,-2.095772,-39.012329,,,,,,,
1537671404.807874,0.149214,0.085417,-1.195812,-0.125368,-0.973392,-0.124443,0.148119,-0.085313,-0.985283,0.016035,-0.039763,0.078148,19.439480,-2.002182,-38.743591,,,,,,,
1537671404.817914,0.138947,0.085296,-1.197297,0.048731,-1.053472,-0.156343,0.137997,-0.085193,-0.986762,0.011402,-0.038922,0.070914,19.439480,-2.002182,-38.743591,,,,,,,
1537671404.827954,0.128363,0.086535,-1.199293,0.173640,-1.075913,-0.187661,0.127531,-0.086427,-0.988062,0.006975,-0.034194,0.053522,18.631142,-1.829521,-38.626831,,,,,,,
1537671404.837995,0.117829,0.088455,-1.201647,0.227014,-1.065300,-0.214142,0.117097,-0.088340,-0.989184,0.005218,-0.034982,0.036547,18.631142,-1.829521,-38.626831,,,,,,,
,,,,,,,,,,,,,,,,42.293128,-71.262984,59.117011,0.921832,240.321326,1537671392.000657,
1537671404.848035,0.107549,0.090402,-1.204150,0.213140,-1.038696,-0.227146,0.106903,-0.090279,-0.990162,0.007431,-0.034827,0.016133,17.586166,-1.659111,-38.743835,,,,,,,
1537671404.858045,0.097928,0.091996,-1.206593,0.171386,-0.961853,-0.223396,0.097358,-0.091866,-0.991001,0.008080,-0.034385,0.003574,17.586166,-1.659111,-38.743835,,,,,,,
1537671404.868085,0.089160,0.093113,-1.208863,0.118916,-0.874294,-0.210126,0.088656,-0.092979,-0.991713,0.006284,-0.031289,0.004637,16.425781,-2.033409,-39.005249,,,,,,,
1537671404.878125,0.081026,0.093720,-1.210895,0.064359,-0.815546,-0.191408,0.080582,-0.093583,-0.992345,0.008743,-0.030532,0.003865,16.425781,-2.033409,-39.005249,,,,,,,
,,,,,,,,,,,,,,,,42.293055,-71.263157,59.117012,-1.000000,-1.000000,1537671404.871092,
,,,,,,,,,,,,,,,,42.293055,-71.263157,59.117012,-1.000000,-1.000000,1537671404.872522,
1537671404.888166,0.073381,0.093803,-1.212214,0.006591,-0.765291,-0.165193,0.072993,-0.093666,-0.992924,0.015752,-0.030770,0.009816,15.480820,-2.090851,-39.215515,,,,,,,
1537671404.898206,0.066288,0.093270,-1.213679,-0.067153,-0.717218,-0.143327,0.065952,-0.093135,-0.993467,0.027768,-0.035329,0.015989,15.480820,-2.090851,-39.215515,,,,,,,
1537671404.908216,0.060275,0.091982,-1.214327,-0.137748,-0.572227,-0.166719,0.059983,-0.091853,-0.993964,0.044982,-0.039480,0.023566,14.597977,-2.283272,-39.705994,,,,,,,
1537671404.918256,0.055196,0.089871,-1.216161,-0.227302,-0.528741,-0.200494,0.054946,-0.089750,-0.994448,0.060197,-0.040042,0.038454,14.597977,-2.283272,-39.705994,,,,,,,
1537671404.928296,0.049936,0.086812,-1.217306,-0.316773,-0.548176,-0.220124,0.049728,-0.086703,-0.994992,0.043610,-0.058729,-0.009372,13.630424,-2.203514,-39.834412,,,,,,,
1537671404.938336,0.045079,0.083139,-1.219702,-0.365788,-0.487647,-0.269786,0.044908,-0.083044,-0.995534,0.053190,-0.066645,-0.004665,13.630424,-2.203514,-39.834412,,,,,,,
1537671404.948377,0.041260,0.079240,-1.222068,-0.377441,-0.384579,-0.357896,0.041119,-0.079157,-0.996014,0.059040,-0.054891,0.017162,12.944519,-1.525307,-39.761841,,,,,,,
1537671404.958386,0.038641,0.075491,-1.226167,-0.352851,-0.268683,-0.442661,0.038521,-0.075420,-0.996408,0.048469,-0.052525,0.018685,12.944519,-1.525307,-39.761841,,,,,,,
1537671404.968427,0.037130,0.072070,-1.230169,-0.318711,-0.168649,-0.510213,0.037026,-0.072008,-0.996717,0.037880,-0.059477,0.024839,12.161339,-1.596344,-39.455872,,,,,,,
1537671404.978467,0.036389,0.068827,-1.235541,-0.306990,-0.103704,-0.554229,0.036295,-0.068773,-0.996972,0.022223,-0.059569,0.031701,12.161339,-1.596344,-39.455872,,,,,,,
1537671404.988507,0.036076,0.065586,-1.240378,-0.309100,-0.068632,-0.583236,0.035990,-0.065539,-0.997201,0.015783,-0.059965,0.031258,12.171783,-1.103256,-39.083374,,,,,,,
1537671404.998548,0.035942,0.062191,-1.246288,-0.327168,-0.062373,-0.603663,0.035865,-0.062151,-0.997422,0.017572,-0.064802,0.030808,12.171783,-1.103256,-39.083374,,,,,,,
1537671405.008557,0.035575,0.058553,-1.252243,-0.359105,-0.086975,-0.604801,0.035507,-0.058520,-0.997655,0.016861,-0.059919,0.028981,11.864235,-0.375168,-38.764648,,,,,,,
1537671405.018598,0.034803,0.054549,-1.258039,-0.396431,-0.130632,-0.583448,0.034744,-0.054522,-0.997908,0.009445,-0.039472,0.037672,11.864235,-0.375168,-38.764648,,,,,,,
1537671405.028638,0.033431,0.050299,-1.263763,-0.414422,-0.190473,-0.588648,0.033382,-0.050278,-0.998177,0.003925,-0.027329,0.041009,11.999352,0.611237,-38.595459,,,,,,,
1537671405.038678,0.031737,0.046486,-1.270479,-0.349920,-0.224275,-0.719633,0.031697,-0.046469,-0.998417,0.031428,-0.018579,0.041096,11.999352,0.611237,-38.595459,,,,,,,
1537671405.048719,0.028810,0.043239,-1.278517,-0.301266,-0.379635,-0.829911,0.028779,-0.043225,-0.998651,0.064314,0.003827,0.014825,11.966011,1.779465,-38.000061,,,,,,,
1537671405.058728,0.024833,0.040247,-1.286857,-0.283004,-0.434100,-0.842424,0.024811,-0.040236,-0.998882,0.028595,-0.006013,-0.025013,11.966011,1.779465,-38.000061,,,,,,,
1537671405.068769,0.021190,0.037111,-1.295040,-0.315203,-0.379520,-0.811816,0.021173,-0.037102,-0.999087,0.013281,-0.019508,-0.017301,11.947990,3.751373,-37.257751,,,,,,,
1537671405.078809,0.018878,0.033618,-1.303084,-0.348567,-0.219439,-0.811560,0.018866,-0.033611,-0.999257,-0.002295,0.003765,-0.017604,11.947990,3.751373,-37.257751,,,,,,,
1537671405.088849,0.017784,0.029800,-1.311252,-0.384998,-0.119165,-0.819631,0.017776,-0.029796,-0.999398,-0.006042,0.023631,-0.007926,11.857101,6.201096,-36.585205,,,,,,,
1537671405.098889,0.017403,0.025631,-1.319394,-0.413946,-0.047639,-0.817930,0.017397,-0.025629,-0.999520,-0.021242,0.023737,-0.017356,11.857101,6.201096,-36.585205,,,,,,,
1537671405.108899,0.017274,0.021238,-1.327515,-0.434229,-0.034859,-0.819157,0.017269,-0.021236,-0.999625,-0.022320,0.020244,-0.010354,12.166946,9.664673,-35.399902,,,,,,,
1537671405.118939,0.017291,0.016712,-1.335767,-0.442768,-0.012505,-0.833184,0.017287,-0.016711,-0.999711,-0.020629,0.021869,-0.011001,12.166946,9.664673,-35.399902,,,,,,,
1537671405.128980,0.016954,0.011385,-1.343508,-0.570858,-0.094377,-0.742685,0.016952,-0.011384,-0.999792,-0.033904,0.006181,-0.002711,11.659676,13.138000,-33.795715,,,,,,,
1537671405.139020,0.015734,0.003519,-1.349442,-0.821977,-0.075704,-0.589107,0.015733,-0.003519,-0.999870,-0.096925,-0.162420,-0.104866,11.659676,13.138000,-33.795715,,,,,,,
1537671405.149060,0.017338,-0.006027,-1.355779,-0.982265,0.230052,-0.675598,0.017337,0.006027,-0.999832,-0.101901,-0.089813,-0.045121,11.313751,16.950821,-31.259705,,,,,,,
1537671405.159070,0.020991,-0.016497,-1.363238,-1.041991,0.415146,-0.789938,0.020987,0.016496,-0.999644,-0.046759,-0.005006,-0.041311,11.313751,16.950821,-31.259705,,,,,,,
1537671405.169110,0.026068,-0.026707,-1.370867,-0.975170,0.558420,-0.767713,0.026056,0.026704,-0.999304,-0.049661,-0.018495,-0.051493,10.037994,21.492599,-27.882996,,,,,,,
1537671405.179151,0.032175,-0.035532,-1.377147,-0.821259,0.642806,-0.602651,0.032149,0.035524,-0.998852,-0.093780,-0.043016,-0.021046,10.037994,21.492599,-27.882996,,,,,,,
1537671405.189191,0.038363,-0.042771,-1.381688,-0.673516,0.624647,-0.442556,0.038318,0.042758,-0.998350,-0.124073,-0.050128,-0.006487,8.372200,26.030430,-24.506592,,,,,,,
1537671405.199231,0.043998,-0.048999,-1.385410,-0.590374,0.566275,-0.390587,0.043931,0.048979,-0.997833,-0.092225,-0.025755,-0.020050,8.372200,26.030430,-24.506592,,,,,,,
1537671405.209241,0.048592,-0.054683,-1.389205,-0.539953,0.448777,-0.411230,0.048501,0.054656,-0.997327,-0.049584,0.001496,-0.013705,5.291237,31.704075,-20.383179,,,,,,,
1537671405.219281,0.052056,-0.059634,-1.393229,-0.461885,0.354860,-0.426477,0.051940,0.059599,-0.996870,-0.047912,0.005632,0.009459,5.291237,31.704075,-20.383179,,,,,,,
1537671405.229322,0.054727,-0.063602,-1.397339,-0.349755,0.279172,-0.429862,0.054589,0.063559,-0.996484,-0.038155,-0.012519,0.036904,0.171173,38.978031,-15.157715,,,,,,,
1537671405.239362,0.056324,-0.066355,-1.401478,-0.222621,0.153360,-0.422282,0.056170,0.066306,-0.996217,-0.019122,-0.018515,0.034639,0.171173,38.978031,-15.157715,,,,,,,
1537671405.249402,0.056643,-0.067976,-1.405292,-0.118036,0.038429,-0.376387,0.056482,0.067924,-0.996090,0.009100,-0.029182,-0.000553,-8.079163,47.012402,-9.140747,,,,,,,
1537671405.259412,0.056323,-0.068879,-1.408797,-0.063660,-0.005114,-0.349209,0.056160,0.068824,-0.996047,0.017418,-0.016426,-0.017289,-8.079163,47.012402,-9.140747,,,,,,,
1537671405.269452,0.056400,-0.069553,-1.412103,-0.054281,0.064430,-0.324855,0.056234,0.069497,-0.995996,0.022501,0.026526,-0.007819,-20.742897,57.073849,-2.835388,,,,,,,
1537671405.279492,0.057715,-0.070295,-1.415038,-0.058912,0.179961,-0.283657,0.057540,0.070238,-0.995869,0.026261,0.049254,0.026875,-20.742897,57.073849,-2.835388,,,,,,,
1537671405.289533,0.059943,-0.070857,-1.417377,-0.032610,0.249761,-0.216464,0.059757,0.070797,-0.995699,0.026333,0.065723,0.059313,-37.903786,68.850388,3.439392,,,,,,,
1537671405.299573,0.061815,-0.071024,-1.418862,0.002450,0.167026,-0.124037,0.061620,0.070965,-0.995574,0.027919,0.068028,0.070738,-37.903786,68.850388,3.439392,,,,,,,
1537671405.309583,0.062142,-0.070554,-1.419327,0.067510,-0.012741,-0.016103,0.061947,0.070495,-0.995587,0.041431,0.053315,0.062451,-58.947937,83.273590,12.772491,,,,,,,
1537671405.319623,0.060366,-0.069206,-1.418810,0.152938,-0.236291,0.084631,0.060185,0.069151,-0.995789,0.047450,0.044741,0.058350,-58.947937,83.273590,12.772491,,,,,,,
1537671405.329663,0.056844,-0.066700,-1.417541,0.272461,-0.395910,0.155363,0.056687,0.066651,-0.996165,0.038726,0.038070,0.059580,-82.322617,103.790665,28.363983,,,,,,,
1537671405.339704,0.052240,-0.062904,-1.415965,0.402652,-0.488485,0.182066,0.052113,0.062863,-0.996661,0.024700,0.038196,0.076891,-82.322617,103.790665,28.363983,,,,,,,
1537671405.349744,0.047059,-0.057725,-1.414317,0.547755,-0.541646,0.190521,0.046964,0.057693,-0.997229,0.019427,0.035065,0.086966,-110.643066,133.223923,47.807617,,,,,,,
1537671405.359754,0.041249,-0.051133,-1.412700,0.692911,-0.612982,0.190498,0.041184,0.051111,-0.997843,0.019287,0.026694,0.091410,-110.643066,133.223923,47.807617,,,,,,,
,,,,,,,,,,,,,,,,42.293107,-71.262837,57.772167,-1.000000,-1.000000,1537671405.339537,
1537671405.369794,0.034487,-0.043143,-1.411052,0.830654,-0.713147,0.195895,0.034448,0.043129,-0.998475,0.021491,0.017006,0.097551,-142.465332,175.004242,65.471802,,,,,,,
1537671405.379834,0.026261,-0.033901,-1.409238,0.947182,-0.879507,0.215337,0.026243,0.033895,-0.999081,0.026216,0.012278,0.099239,-142.465332,175.004242,65.471802,,,,,,,
1537671405.389875,0.015581,-0.024027,-1.406963,0.979550,-1.139736,0.260363,0.015576,0.024025,-0.999590,0.031726,0.000770,0.066652,-169.945816,229.762375,84.505768,,,,,,,
1537671405.399915,0.002151,-0.014661,-1.404037,0.905246,-1.404284,0.313396,0.002150,0.014660,-0.999890,0.029573,-0.020321,0.020078,-169.945816,229.762375,84.505768,,,,,,,
1537671405.409925,-0.012874,-0.006815,-1.400626,0.740115,-1.522854,0.339720,-0.012873,0.006814,-0.999894,0.018046,-0.033594,-0.014846,-176.564301,296.285645,105.448334,,,,,,,
1537671405.419965,-0.027845,-0.001115,-1.397298,0.516165,-1.468828,0.308404,-0.027841,0.001115,-0.999612,0.010019,-0.031999,-0.037788,-176.564301,296.285645,105.448334,,,,,,,
1537671405.430005,-0.040971,0.002388,-1.394822,0.305967,-1.239032,0.204853,-0.040959,-0.002388,-0.999158,0.002034,-0.008599,-0.045978,-163.259979,360.770630,114.044250,,,,,,,
1537671405.440045,-0.050910,0.004101,-1.393529,0.136104,-0.908856,0.100045,-0.050888,-0.004101,-0.998696,-0.015625,0.015529,-0.039726,-163.259979,360.770630,114.044250,,,,,,,
1537671405.450086,-0.057189,0.004443,-1.393224,0.003421,-0.521993,0.000550,-0.057157,-0.004443,-0.998355,-0.041094,0.008944,-0.035595,-148.676849,409.719208,101.415527,,,,,,,
1537671405.460095,-0.059344,0.003714,-1.394353,-0.108872,-0.119363,-0.150201,-0.059309,-0.003714,-0.998233,-0.030077,0.044714,-0.018735,-148.676849,409.719208,101.415527,,,,,,,
1537671405.470136,-0.058286,0.001725,-1.397233,-0.252871,0.168891,-0.316694,-0.058253,-0.001725,-0.998300,-0.005498,0.081971,-0.033362,-140.888290,447.436890,75.432098,,,,,,,
1537671405.480176,-0.055237,-0.000390,-1.401531,-0.187813,0.349842,-0.432500,-0.055208,0.000390,-0.998475,0.036700,0.080100,-0.056365,-140.888290,447.436890,75.432098,,,,,,,
1537671405.490216,-0.056075,-0.004082,-1.406526,-0.391549,-0.123481,-0.448786,-0.056045,0.004082,-0.998420,0.010604,0.032677,0.007224,-137.260101,470.058655,56.729889,,,,,,,
1537671405.500257,-0.054989,-0.004002,-1.409573,0.085205,0.116025,-0.294402,-0.054961,0.004002,-0.998480,-0.041643,-0.048267,0.102347,-137.260101,470.058655,56.729889,,,,,,,
1537671405.510266,-0.057507,-0.002496,-1.413723,0.206984,-0.285018,-0.441794,-0.057475,0.002496,-0.998344,0.018900,0.015937,-0.029610,-129.016693,483.027252,54.566040,,,,,,,
1537671405.520307,-0.062548,0.001093,-1.418638,0.345450,-0.586448,-0.536057,-0.062507,-0.001093,-0.998044,0.047157,0.007074,-0.103915,-129.016693,483.027252,54.566040,,,,,,,
1537671405.530347,-0.067475,0.005410,-1.424765,0.386156,-0.457961,-0.673157,-0.067423,-0.005410,-0.997710,0.016398,-0.037528,-0.081071,-132.353806,496.383087,60.841553,,,,,,,
1537671405.540387,-0.071039,0.010585,-1.431895,0.490742,-0.350506,-0.766018,-0.070975,-0.010585,-0.997422,0.042960,-0.025594,-0.014495,-132.353806,496.383087,60.841553,,,,,,,
1537671405.550427,-0.074455,0.017105,-1.439927,0.619065,-0.364794,-0.868958,-0.074375,-0.017104,-0.997084,0.050511,0.042083,0.037641,-148.803131,505.683746,69.606842,,,,,,,
1537671405.560437,-0.078486,0.024624,-1.448414,0.700372,-0.437501,-0.903511,-0.078382,-0.024621,-0.996619,0.067334,0.087625,0.027351,-148.803131,505.683746,69.606842,,,,,,,
1537671405.570478,-0.082932,0.032207,-1.456466,0.673572,-0.470280,-0.839395,-0.082794,-0.032201,-0.996046,0.074630,0.074880,-0.008684,-163.394714,505.241943,71.035614,,,,,,,
1537671405.580518,-0.087003,0.038550,-1.463911,0.518655,-0.409309,-0.791288,-0.086829,-0.038541,-0.995477,0.075309,0.051984,-0.055655,-163.394714,505.241943,71.035614,,,,,,,
1537671405.590558,-0.089504,0.042643,-1.471373,0.276150,-0.224771,-0.768714,-0.089303,-0.042630,-0.995092,0.056085,0.022396,-0.077601,-167.056732,501.705872,66.248993,,,,,,,
1537671405.600598,-0.089738,0.044054,-1.478902,0.004833,-0.001936,-0.757131,-0.089531,-0.044040,-0.995010,0.042473,0.002887,-0.070084,-167.056732,501.705872,66.248993,,,,,,,
1537671405.610608,-0.087927,0.042948,-1.486510,-0.233394,0.186843,-0.740964,-0.087733,-0.042935,-0.995218,0.059169,0.015561,-0.062979,-167.567932,498.364288,60.067200,,,,,,,
1537671405.620648,-0.084369,0.039812,-1.494183,-0.422512,0.366007,-0.736258,-0.084202,-0.039802,-0.995653,0.052159,0.026786,-0.025984,-167.567932,498.364288,60.067200,,,,,,,
1537671405.630689,-0.075806,0.031892,-1.502995,-1.003610,1.000113,-0.819853,-0.075695,-0.031886,-0.996621,0.133755,0.048869,-0.065086,-167.669922,496.159607,54.064056,,,,,,,
1537671405.640729,-0.084489,0.028336,-1.509153,-0.287659,-1.139661,-0.609855,-0.084355,-0.028332,-0.996033,0.141667,-0.103183,-0.048858,-167.669922,496.159607,54.064056,,,,,,,
1537671405.650769,-0.083988,0.022043,-1.517696,-0.796639,0.442950,-0.831511,-0.083869,-0.022041,-0.996233,0.136192,-0.122048,0.058062,-172.276382,535.044434,72.489502,,,,,,,
1537671405.660796,-0.082953,0.016974,-1.526754,-0.634738,0.176714,-0.947166,-0.082846,-0.016974,-0.996418,0.015235,0.037649,0.101337,-172.276382,535.044434,72.489502,,,,,,,
1537671405.670836,-0.077685,0.012819,-1.537288,-0.502094,0.629135,-1.027359,-0.077600,-0.012818,-0.996902,0.064005,0.079209,0.064895,-177.525757,585.787292,107.820374,,,,,,,
1537671405.680877,-0.072544,0.010187,-1.547899,-0.297972,0.430706,-1.040460,-0.072477,-0.010187,-0.997318,0.046292,0.100641,0.034015,-177.525757,585.787292,107.820374,,,,,,,
1537671405.690917,-0.069367,0.008416,-1.558179,-0.228387,0.195173,-0.978238,-0.069309,-0.008416,-0.997560,0.028172,0.069100,-0.085982,-165.131348,636.531372,147.546844,,,,,,,
1537671405.700957,-0.070610,0.007352,-1.567196,-0.153267,-0.213083,-0.865067,-0.070549,-0.007352,-0.997481,-0.018868,0.028256,-0.179628,-165.131348,636.531372,147.546844,,,,,,,
1537671405.710997,-0.074933,0.007660,-1.575500,0.024180,-0.495575,-0.823466,-0.074861,-0.007660,-0.997165,-0.014159,-0.005051,-0.169919,-124.682236,692.324097,196.874786,,,,,,,
1537671405.721007,-0.079171,0.010239,-1.584825,0.248528,-0.413002,-1.008583,-0.079084,-0.010239,-0.996815,-0.042452,-0.004745,-0.061031,-124.682236,692.324097,196.874786,,,,,,,
1537671405.731048,-0.083975,0.016087,-1.594836,0.567621,-0.492848,-1.037584,-0.083865,-0.016087,-0.996347,0.038516,-0.006649,0.024927,-63.269440,750.031982,262.092285,,,,,,,
1537671405.741088,-0.089400,0.024414,-1.603848,0.811703,-0.593447,-0.940782,-0.089254,-0.024411,-0.995710,0.030355,-0.031649,0.038740,-63.269440,750.031982,262.092285,,,,,,,
1537671405.751128,-0.096898,0.034599,-1.611749,0.971890,-0.841572,-0.858796,-0.096689,-0.034592,-0.994713,0.009760,0.020340,0.005562,44.283119,800.320557,341.437378,,,,,,,
1537671405.761168,-0.106816,0.045481,-1.618774,1.009374,-1.033335,-0.787297,-0.106503,-0.045465,-0.993272,-0.006229,0.038080,-0.047240,44.283119,800.320557,341.437378,,,,,,,
1537671405.771178,-0.118491,0.056338,-1.625060,1.008589,-1.260455,-0.732958,-0.118026,-0.056308,-0.991413,-0.026490,0.014850,-0.067181,219.328293,812.600342,416.661072,,,,,,,
1537671405.781218,-0.131600,0.067315,-1.630943,1.010846,-1.356419,-0.719739,-0.130923,-0.067264,-0.989108,0.003893,0.002872,-0.036740,219.328293,812.600342,416.661072,,,,,,,
1537671405.791259,-0.144456,0.078262,-1.636735,0.996838,-1.295539,-0.712574,-0.143514,-0.078182,-0.986555,0.047048,0.006237,0.032042,444.874207,735.611816,443.048889,,,,,,,
1537671405.801299,-0.155542,0.088850,-1.641836,0.957789,-1.082718,-0.642018,-0.154305,-0.088734,-0.984031,0.025658,0.008198,0.055533,444.874207,735.611816,443.048889,,,,,,,
1537671405.811339,-0.163724,0.098890,-1.646104,0.903517,-0.754503,-0.550627,-0.162197,-0.098728,-0.981807,-0.003544,0.017536,0.059230,610.761475,544.494812,362.087708,,,,,,,
1537671405.821349,-0.168544,0.108056,-1.649296,0.833210,-0.429441,-0.437932,-0.166769,-0.107846,-0.980080,0.032339,0.005536,0.069161,610.761475,544.494812,362.087708,,,,,,,
1537671405.831389,-0.170041,0.116322,-1.651544,0.753280,-0.090505,-0.332824,-0.168079,-0.116060,-0.978917,0.061741,-0.012633,0.083394,612.669800,310.955139,194.863190,,,,,,,
1537671405.841430,-0.168287,0.123775,-1.653475,0.682181,0.230910,-0.310964,-0.166212,-0.123459,-0.978331,0.064314,-0.028533,0.115568,612.669800,310.955139,194.863190,,,,,,,
1537671405.851470,-0.164113,0.130132,-1.655437,0.554832,0.423054,-0.289953,-0.161996,-0.129765,-0.978222,0.076288,-0.045482,0.138012,508.440643,143.847519,59.995544,,,,,,,
1537671405.861510,-0.159612,0.134562,-1.658036,0.334324,0.406439,-0.348758,-0.157498,-0.134156,-0.978364,0.094754,-0.063567,0.099885,508.440643,143.847519,59.995544,,,,,,,
1537671405.871520,-0.155642,0.136731,-1.662081,0.086371,0.319091,-0.451245,-0.153568,-0.136305,-0.978692,0.117450,-0.043855,0.079324,396.353729,52.779644,-8.778259,,,,,,,
1537671405.881560,-0.151844,0.136425,-1.667716,-0.186155,0.298829,-0.581916,-0.149855,-0.136002,-0.979309,0.109236,-0.052322,0.082215,396.353729,52.779644,-8.778259,,,,,,,
1537671405.891600,-0.147789,0.133156,-1.675180,-0.516388,0.325525,-0.702389,-0.145948,-0.132763,-0.980343,0.115721,-0.009907,0.059964,312.993713,7.812637,-37.797607,,,,,,,
1537671405.901641,-0.141674,0.126593,-1.684714,-0.865997,0.552546,-0.890025,-0.140070,-0.126255,-0.982059,0.139826,-0.046733,0.048664,312.993713,7.812637,-37.797607,,,,,,,
1537671405.911681,-0.130075,0.115344,-1.693627,-1.370627,1.228444,-0.573665,-0.128847,-0.115088,-0.984963,0.094957,-0.074731,0.065866,248.494568,-17.091187,-53.881226,,,,,,,
1537671405.921691,-0.111640,0.100158,-1.704642,-1.720273,1.860938,-1.007663,-0.110849,-0.099991,-0.988794,-0.141943,0.207382,0.161448,248.494568,-17.091187,-53.881226,,,,,,,
1537671405.931731,-0.089926,0.081722,-1.718492,-2.050538,2.052618,-1.220707,-0.089505,-0.081631,-0.992636,0.056286,0.159008,0.135214,210.215820,-26.471748,-59.885620,,,,,,,
1537671405.941771,-0.069790,0.060085,-1.734093,-2.338408,1.819485,-1.420081,-0.069608,-0.060049,-0.995765,0.054822,-0.075388,0.099251,210.215820,-26.471748,-59.885620,,,,,,,
1537671405.951812,-0.054260,0.036565,-1.751980,-2.464424,1.324443,-1.714821,-0.054197,-0.036557,-0.997861,0.097319,-0.016574,0.089459,188.373123,-30.013130,-62.906738,,,,,,,
1537671405.961852,-0.043900,0.012288,-1.772379,-2.537424,0.903394,-1.960414,-0.043882,-0.012288,-0.998961,0.126036,-0.072048,0.123931,188.373123,-30.013130,-62.906738,,,,,,,
1537671405.971862,-0.034705,-0.012556,-1.794255,-2.566867,0.954794,-2.121088,-0.034695,0.012555,-0.999319,0.040890,-0.031003,0.098837,176.473450,-30.215797,-64.199829,,,,,,,
1537671405.981902,-0.025671,-0.036983,-1.816780,-2.429141,0.999370,-2.200700,-0.025651,0.036974,-0.998987,-0.015700,0.023298,0.027536,176.473450,-30.215797,-64.199829,,,,,,,
1537671405.991942,-0.015348,-0.057112,-1.840178,-1.967329,1.106198,-2.292753,-0.015322,0.057081,-0.998252,0.033801,-0.062101,0.003058,175.747971,-29.235542,-64.198853,,,,,,,
1537671406.001983,-0.007276,-0.074477,-1.864077,-1.662806,0.941661,-2.376001,-0.007256,0.074408,-0.997201,-0.000160,-0.031394,-0.047461,175.747971,-29.235542,-64.198853,,,,,,,
1537671406.012023,-0.001285,-0.088228,-1.888709,-1.293119,0.714229,-2.460793,-0.001280,0.088114,-0.996110,0.043120,-0.047632,0.010102,175.810410,-28.320450,-63.994812,,,,,,,
1537671406.022033,0.001145,-0.098750,-1.914157,-0.964861,0.420509,-2.554090,0.001140,0.098590,-0.995127,0.021535,-0.035617,0.005061,175.810410,-28.320450,-63.994812,,,,,,,
1537671406.032073,0.000833,-0.105854,-1.940170,-0.619834,0.157098,-2.574743,0.000828,0.105656,-0.994402,0.018993,-0.008214,0.021639,175.268356,-27.681870,-63.727844,,,,,,,
1537671406.042113,-0.002946,-0.109624,-1.965537,-0.294201,-0.180484,-2.486189,-0.002928,0.109405,-0.993993,0.006209,0.041535,-0.013438,175.268356,-27.681870,-63.727844,,,,,,,
1537671406.052153,-0.008881,-0.109737,-1.989766,0.063020,-0.359863,-2.372447,-0.008827,0.109517,-0.993946,0.008415,0.086528,-0.059582,174.519318,-27.717934,-63.704712,,,,,,,
1537671406.062194,-0.015743,-0.106323,-2.013067,0.390305,-0.456147,-2.290188,-0.015654,0.106123,-0.994230,0.027464,0.096300,-0.062991,174.519318,-27.717934,-63.704712,,,,,,,
1537671406.072204,-0.023191,-0.100055,-2.035414,0.638649,-0.528004,-2.209510,-0.023073,0.099889,-0.994731,0.010485,0.056484,-0.076192,173.503326,-28.506485,-63.750854,,,,,,,
1537671406.082244,-0.030658,-0.091598,-2.055498,0.838240,-0.550740,-1.921941,-0.030525,0.091470,-0.995340,-0.085854,-0.000452,-0.064658,173.503326,-28.506485,-63.750854,,,,,,,
1537671406.092284,-0.037142,-0.081462,-2.072019,0.984295,-0.491239,-1.617881,-0.037011,0.081372,-0.995996,-0.250602,-0.054303,-0.005331,172.696320,-29.194122,-63.940552,,,,,,,
1537671406.102324,-0.044364,-0.070595,-2.088917,1.011666,-0.614780,-1.760461,-0.044239,0.070536,-0.996528,-0.017864,0.011998,0.026374,172.696320,-29.194122,-63.940552,,,,,,,
1537671406.112365,-0.051680,-0.060688,-2.106408,0.849626,-0.615052,-1.774136,-0.051562,0.060651,-0.996826,0.214312,0.029178,0.027085,166.941315,-25.405968,-64.197388,,,,,,,
1537671406.122374,-0.058685,-0.053476,-2.123301,0.549674,-0.590423,-1.695651,-0.058568,0.053450,-0.996852,0.085515,-0.074584,-0.006048,166.941315,-25.405968,-64.197388,,,,,,,
1537671406.132415,-0.063461,-0.049986,-2.135125,0.169738,-0.368608,-1.075436,-0.063339,0.049965,-0.996741,-0.173386,-0.088555,-0.004053,152.863312,-19.470955,-64.615417,,,,,,,
1537671406.142455,-0.065875,-0.049210,-2.148996,-0.065067,-0.091560,-1.515967,-0.065748,0.049190,-0.996623,-0.287097,0.014591,-0.002095,152.863312,-19.470955,-64.615417,,,,,,,
1537671406.152495,-0.067458,-0.051408,-2.165146,-0.429477,-0.119082,-1.586171,-0.067318,0.051385,-0.996407,-0.035847,0.104376,0.030282,144.368103,-17.922798,-64.857605,,,,,,,
1537671406.162536,-0.071570,-0.057719,-2.180981,-0.830157,-0.390296,-1.498488,-0.071390,0.057687,-0.995779,-0.130636,-0.052987,-0.072718,144.368103,-17.922798,-64.857605,,,,,,,
1537671406.172545,-0.077792,-0.067105,-2.195933,-1.109514,-0.567315,-1.396648,-0.077538,0.067055,-0.994732,-0.187553,-0.111061,-0.066883,141.655029,-17.055450,-64.988892,,,,,,,
1537671406.182586,-0.085838,-0.078628,-2.210958,-1.316005,-0.740593,-1.401317,-0.085468,0.078547,-0.993240,-0.141156,-0.099879,-0.025864,141.655029,-17.055450,-64.988892,,,,,,,
1537671406.192626,-0.096663,-0.091718,-2.226892,-1.476222,-1.021994,-1.474783,-0.096107,0.091590,-0.991148,-0.012444,-0.081610,-0.039690,139.902039,-16.256798,-64.760254,,,,,,,
1537671406.202666,-0.110381,-0.105293,-2.242953,-1.507963,-1.254411,-1.413105,-0.109547,0.105098,-0.988410,0.060428,-0.095729,-0.034097,139.902039,-16.256798,-64.760254,,,,,,,
1537671406.212706,-0.124966,-0.118377,-2.256925,-1.429829,-1.298757,-1.145326,-0.123769,0.118101,-0.985258,-0.018824,-0.107878,0.003385,138.048798,-15.709541,-64.388855,,,,,,,
1537671406.222716,-0.139106,-0.130459,-2.268266,-1.316577,-1.263139,-0.901194,-0.137480,0.130089,-0.981925,-0.034533,-0.089760,0.003089,138.048798,-15.709541,-64.388855,,,,,,,
1537671406.232756,-0.152789,-0.141892,-2.278193,-1.252037,-1.206871,-0.779240,-0.150665,0.141417,-0.978418,0.054337,-0.105330,-0.033545,137.219421,-15.415688,-64.362976,,,,,,,
1537671406.242797,-0.165415,-0.152123,-2.288054,-1.117852,-1.073393,-0.816473,-0.162760,0.151537,-0.974959,0.061549,-0.046297,-0.034242,137.219421,-15.415688,-64.362976,,,,,,,
1537671406.252837,-0.176534,-0.159784,-2.298739,-0.864020,-0.903968,-0.934448,-0.173381,0.159104,-0.971918,0.043270,0.031508,0.042002,136.286804,-15.364868,-64.403870,,,,,,,
1537671406.262877,-0.187756,-0.165119,-2.309943,-0.689819,-0.977838,-1.000573,-0.184116,0.164370,-0.969063,-0.021069,0.063078,0.072075,136.286804,-15.364868,-64.403870,,,,,,,
1537671406.272887,-0.201306,-0.169395,-2.321072,-0.614743,-1.227467,-0.978878,-0.197087,0.168587,-0.965782,-0.096233,0.057411,-0.016502,135.680908,-14.727104,-63.964844,,,,,,,
1537671406.282927,-0.216942,-0.172858,-2.331990,-0.538584,-1.420723,-1.001222,-0.212036,0.171998,-0.962007,-0.142227,0.024611,-0.063903,135.680908,-14.727104,-63.964844,,,,,,,
1537671406.292968,-0.233574,-0.175144,-2.343748,-0.459317,-1.444640,-1.096900,-0.227915,0.174250,-0.957962,-0.006978,0.051366,-0.065796,134.462173,-14.619064,-63.374023,,,,,,,
1537671406.303008,-0.248591,-0.176021,-2.356097,-0.340146,-1.204638,-1.169905,-0.242236,0.175114,-0.954283,0.036014,0.039943,-0.015291,134.462173,-14.619064,-63.374023,,,,,,,
1537671406.313048,-0.259741,-0.174970,-2.367992,-0.134200,-0.794222,-1.138395,-0.252909,0.174079,-0.951700,0.008250,0.020852,0.081949,133.185196,-14.615166,-62.878540,,,,,,,
1537671406.323058,-0.265291,-0.171358,-2.377557,0.198910,-0.238660,-0.943273,-0.258350,0.170520,-0.950883,-0.060009,-0.016132,0.182664,133.185196,-14.615166,-62.878540,,,,,,,
1537671406.333098,-0.263379,-0.164393,-2.383193,0.629446,0.465016,-0.637078,-0.256835,0.163654,-0.952499,-0.136507,-0.072543,0.281783,132.735138,-14.976273,-62.793884,,,,,,,
1537671406.343139,-0.253316,-0.154529,-2.385442,0.974824,1.241755,-0.423534,-0.247629,0.153914,-0.956551,-0.157629,-0.084151,0.287865,132.735138,-14.976273,-62.793884,,,,,,,
1537671406.353179,-0.233883,-0.141167,-2.386161,1.392949,2.190562,-0.388778,-0.229451,0.140699,-0.963097,-0.119258,-0.004941,0.313973,133.236847,-15.624329,-63.283020,,,,,,,
1537671406.363219,-0.205666,-0.123717,-2.386692,1.761538,3.011694,-0.452100,-0.202658,0.123402,-0.971443,-0.110376,0.058834,0.437004,133.236847,-15.624329,-63.283020,,,,,,,
1537671406.373229,-0.171665,-0.104410,-2.388726,1.870836,3.518162,-0.601032,-0.169893,0.104221,-0.979936,-0.102797,0.107297,0.331605,135.085678,-17.263031,-64.556335,,,,,,,
1537671406.383269,-0.135225,-0.084719,-2.393016,1.866698,3.694585,-0.758865,-0.134330,0.084618,-0.987317,-0.078439,0.091652,0.144117,135.085678,-17.263031,-64.556335,,,,,,,
1537671406.393309,-0.098850,-0.065722,-2.399281,1.776480,3.648006,-0.860686,-0.098476,0.065675,-0.992970,-0.068027,0.012298,0.027836,137.533585,-18.971954,-65.901550,,,,,,,
1537671406.403350,-0.063982,-0.048645,-2.407459,1.575733,3.463392,-0.984982,-0.063862,0.048626,-0.996773,-0.078975,0.002644,-0.049049,137.533585,-18.971954,-65.901550,,,,,,,
1537671406.413390,-0.031365,-0.033987,-2.417919,1.357082,3.218801,-1.147609,-0.031342,0.033981,-0.998931,-0.081986,0.110474,-0.059297,140.129257,-20.701401,-67.291809,,,,,,,
1537671406.423400,-0.001956,-0.021502,-2.430311,1.187587,2.885779,-1.292526,-0.001956,0.021501,-0.999767,-0.095700,0.141845,-0.030339,140.129257,-20.701401,-67.291809,,,,,,,
1537671406.433440,0.023995,-0.010938,-2.444082,1.027567,2.523178,-1.376355,0.023991,0.010938,-0.999652,-0.152837,0.143802,0.010654,142.381073,-22.073311,-68.168884,,,,,,,
1537671406.443480,0.047562,-0.002541,-2.458664,0.837319,2.315453,-1.440653,0.047544,0.002541,-0.998866,-0.217558,0.152824,0.049983,142.381073,-22.073311,-68.168884,,,,,,,
1537671406.453521,0.070592,0.002989,-2.474442,0.562670,2.300492,-1.576700,0.070533,-0.002989,-0.997505,-0.231986,0.160444,0.074486,143.979050,-23.220276,-68.733459,,,,,,,
1537671406.463561,0.095186,0.004328,-2.491893,0.174763,2.504963,-1.775135,0.095042,-0.004328,-0.995464,-0.191813,0.169321,0.051342,143.979050,-23.220276,-68.733459,,,,,,,
1537671406.473571,0.122883,0.000749,-2.511195,-0.251688,2.856496,-2.021384,0.122574,-0.000749,-0.992459,-0.133102,0.162172,0.027417,145.866669,-23.542747,-69.352600,,,,,,,
1537671406.483611,0.154372,-0.006867,-2.531619,-0.514428,3.213346,-2.115029,0.153756,0.006867,-0.988085,-0.086678,0.128921,0.010622,145.866669,-23.542747,-69.352600,,,,,,,
1537671406.493651,0.179581,-0.014152,-2.545552,-0.465110,2.119847,-1.187001,0.178599,0.014152,-0.983820,0.213796,-0.236823,-0.138388,147.895325,-23.446136,-69.851685,,,,,,,
1537671406.503692,0.190964,-0.019124,-2.547076,-0.462386,0.964771,0.006081,0.189770,0.019123,-0.981642,0.799243,-1.092716,-0.433321,147.895325,-23.446136,-69.851685,,,,,,,
1537671406.513732,0.202817,-0.021215,-2.545803,-0.097447,1.337959,0.027887,0.201384,0.021213,-0.979283,0.649950,-0.729450,-0.094753,149.339310,-23.309921,-69.841431,,,,,,,
1537671406.523742,0.220699,-0.017895,-2.547266,0.492418,1.913717,-0.056810,0.218877,0.017894,-0.975588,0.325694,0.153966,0.353213,149.339310,-23.309921,-69.841431,,,,,,,
1537671406.533782,0.241749,-0.009966,-2.546343,0.802947,2.120567,0.406774,0.239389,0.009966,-0.970873,0.068213,0.027494,0.321565,150.755203,-23.691483,-70.000183,,,,,,,
1537671406.543822,0.262574,0.000375,-2.541801,0.903285,2.039318,0.764592,0.259567,-0.000375,-0.965725,-0.118088,-0.125189,0.154583,150.755203,-23.691483,-70.000183,,,,,,,
1537671406.553862,0.281687,0.011173,-2.536278,0.874722,1.852687,0.810073,0.277959,-0.011173,-0.960528,-0.167592,0.058582,0.053439,153.413391,-23.672440,-69.890381,,,,,,,
1537671406.563903,0.298151,0.020990,-2.531854,0.789377,1.575258,0.655758,0.293689,-0.020988,-0.955671,-0.195377,0.079048,0.002652,153.413391,-23.672440,-69.890381,,,,,,,
1537671406.573913,0.311234,0.029527,-2.529301,0.720406,1.216332,0.443071,0.306100,-0.029523,-0.951541,-0.188547,0.115689,-0.023053,155.208771,-24.338219,-69.928467,,,,,,,
1537671406.583953,0.320180,0.036600,-2.528729,0.626033,0.783629,0.217719,0.314526,-0.036592,-0.948543,-0.155987,0.166474,-0.050602,155.208771,-24.338219,-69.928467,,,,,,,
1537671406.593993,0.324841,0.042047,-2.529916,0.532727,0.325391,0.007438,0.318876,-0.042035,-0.946864,-0.090513,0.152768,-0.074651,155.953979,-25.086128,-69.930420,,,,,,,
1537671406.604033,0.322945,0.046371,-2.532715,0.489916,-0.379220,-0.165260,0.317019,-0.046354,-0.947286,-0.023516,0.082929,-0.049815,155.953979,-25.086128,-69.930420,,,,,,,
1537671406.614074,0.314686,0.050228,-2.536316,0.473165,-0.968931,-0.224990,0.309127,-0.050207,-0.949694,0.034119,0.024313,-0.023481,156.067383,-25.261147,-69.870422,,,,,,,
1537671406.624083,0.302605,0.053823,-2.539739,0.434335,-1.292448,-0.214287,0.297576,-0.053797,-0.953181,0.062577,-0.008703,-0.009618,156.067383,-25.261147,-69.870422,,,,,,,
1537671406.634124,0.288293,0.056800,-2.543198,0.364493,-1.490294,-0.257685,0.283858,-0.056769,-0.957184,0.048967,-0.012597,0.017182,155.123230,-25.670616,-70.018372,,,,,,,
1537671406.644164,0.273183,0.058849,-2.547099,0.282693,-1.522833,-0.338143,0.269331,-0.058815,-0.961250,0.080355,-0.009788,0.041847,155.123230,-25.670616,-70.018372,,,,,,,
1537671406.654204,0.259360,0.059623,-2.551897,0.171895,-1.343315,-0.481585,0.256006,-0.059588,-0.964837,0.102438,-0.006346,0.024499,153.941376,-26.114372,-69.937744,,,,,,,
1537671406.664218,0.248897,0.058568,-2.558122,0.007558,-0.976214,-0.673081,0.245912,-0.058535,-0.967523,0.076735,0.030016,-0.001120,153.941376,-26.114372,-69.937744,,,,,,,
1537671406.674227,0.242733,0.055170,-2.565532,-0.198568,-0.554556,-0.836157,0.239991,-0.055142,-0.969208,0.084670,0.065060,-0.018204,153.019241,-26.061981,-69.905029,,,,,,,
1537671406.684268,0.239259,0.050880,-2.573480,-0.194532,-0.374343,-0.872123,0.236677,-0.050859,-0.970256,0.059481,0.140672,-0.030613,153.019241,-26.061981,-69.905029,,,,,,,
1537671406.694308,0.233421,0.050778,-2.581156,0.323830,-0.746328,-0.676611,0.231009,-0.050757,-0.971627,-0.063254,0.260611,0.020211,153.228210,-25.098373,-69.759155,,,,,,,
1537671406.704348,0.222492,0.058003,-2.586627,0.971866,-1.235550,-0.280092,0.220290,-0.057971,-0.973710,-0.244002,0.170794,0.083390,153.228210,-25.098373,-69.759155,,,,,,,
1537671406.714388,0.208737,0.071257,-2.589351,1.450753,-1.395061,0.119569,0.206699,-0.071197,-0.975811,-0.291980,-0.219056,0.094585,153.535889,-23.127464,-68.870422,,,,,,,
1537671406.724398,0.192724,0.088150,-2.588960,1.697640,-1.681199,0.454391,0.190790,-0.088036,-0.977675,-0.150430,-0.098457,0.026244,153.535889,-23.127464,-68.870422,,,,,,,
1537671406.734438,0.172931,0.106639,-2.586076,1.766995,-2.017427,0.650610,0.171093,-0.106437,-0.979489,-0.055981,-0.041772,-0.013401,152.413239,-23.953011,-68.632935,,,,,,,
1537671406.744479,0.151196,0.124763,-2.582285,1.690414,-2.124257,0.654908,0.149450,-0.124440,-0.980907,-0.002599,-0.018444,-0.036015,152.413239,-23.953011,-68.632935,,,,,,,
1537671406.754519,0.132011,0.140597,-2.578291,1.436027,-1.731985,0.595366,0.130329,-0.140134,-0.981518,0.051022,-0.031070,0.001705,151.005020,-25.151657,-68.540771,,,,,,,
1537671406.764559,0.119327,0.153053,-2.574647,1.084153,-1.015599,0.474172,0.117653,-0.152456,-0.981282,0.120018,-0.057856,0.012105,151.005020,-25.151657,-68.540771,,,,,,,
1537671406.774569,0.114383,0.160125,-2.572031,0.521294,-0.276317,0.290859,0.112674,-0.159442,-0.980756,0.165189,-0.031140,-0.043673,149.941681,-26.279121,-68.606079,,,,,,,
1537671406.784609,0.115827,0.160473,-2.570622,-0.153167,0.295158,0.094803,0.114084,-0.159785,-0.980537,0.174948,-0.009572,-0.088036,149.941681,-26.279121,-68.606079,,,,,,,
1537671406.794650,0.121062,0.154214,-2.570689,-0.759600,0.570533,-0.175600,0.119333,-0.153604,-0.980900,0.131064,0.045129,-0.088603,150.480240,-26.053123,-68.174561,,,,,,,
1537671406.804690,0.127997,0.143583,-2.575404,-1.042660,0.614196,-0.709507,0.126334,-0.143091,-0.981613,0.023812,0.273034,-0.056671,150.480240,-26.053123,-68.174561,,,,,,,
1537671406.814730,0.133999,0.132042,-2.582603,-1.027925,0.441423,-0.872263,0.132435,-0.131658,-0.982409,-0.045185,0.299902,0.007174,177.530106,-22.984283,-66.170166,,,,,,,
1537671406.824740,0.136457,0.122053,-2.589033,-0.852820,0.062458,-0.708452,0.135022,-0.121750,-0.983334,-0.043179,0.044403,0.036221,177.530106,-22.984283,-66.170166,,,,,,,
1537671406.834780,0.134736,0.114706,-2.592638,-0.615430,-0.296216,-0.359497,0.133446,-0.114455,-0.984425,-0.063164,-0.197923,0.018162,227.484573,-15.300957,-61.032471,,,,,,,
1537671406.844821,0.130568,0.109995,-2.593777,-0.397245,-0.454855,-0.130072,0.129411,-0.109773,-0.985496,-0.058747,-0.251753,-0.016518,227.484573,-15.300957,-61.032471,,,,,,,
1537671406.854861,0.126444,0.107135,-2.594637,-0.236346,-0.387421,-0.134840,0.125384,-0.106930,-0.986329,-0.053424,-0.100635,-0.013793,265.615509,-9.918579,-55.847656,,,,,,,
1537671406.864901,0.124096,0.105048,-2.596649,-0.172326,-0.213971,-0.253828,0.123096,-0.104855,-0.986840,-0.061587,0.008434,0.010796,265.615509,-9.918579,-55.847656,,,,,,,
1537671406.874911,0.124108,0.102262,-2.599270,-0.264313,-0.005052,-0.296824,0.123143,-0.102084,-0.987124,-0.031773,0.007709,0.018771,320.853088,-2.044540,-44.588623,,,,,,,
1537671406.884951,0.124440,0.098661,-2.601749,-0.345469,0.009942,-0.273797,0.123515,-0.098501,-0.987442,0.027821,0.051992,0.010330,320.853088,-2.044540,-44.588623,,,,,,,
1537671406.894991,0.124514,0.094351,-2.602984,-0.430154,-0.007499,-0.125613,0.123640,-0.094211,-0.987845,0.010851,0.005573,0.009741,391.241577,11.456917,-23.034058,,,,,,,
1537671406.905032,0.124676,0.089731,-2.602094,-0.470365,0.038422,0.081334,0.123853,-0.089611,-0.988246,0.013080,-0.115513,0.011928,391.241577,11.456917,-23.034058,,,,,,,
1537671406.915072,0.125211,0.085880,-2.599484,-0.383539,0.084257,0.242991,0.124423,-0.085775,-0.988515,0.081021,-0.097941,0.033879,437.245697,22.325874,-4.991272,,,,,,,
1537671406.925082,0.125710,0.083777,-2.596571,-0.189474,0.064301,0.254777,0.124939,-0.083679,-0.988629,0.105911,-0.006272,0.045575,437.245697,22.325874,-4.991272,,,,,,,
1537671406.935122,0.125555,0.083851,-2.594883,0.045723,-0.029002,0.127063,0.124785,-0.083753,-0.988643,0.092164,0.046781,0.040172,450.159607,25.187973,0.733826,,,,,,,
1537671406.945162,0.124514,0.085774,-2.595331,0.238512,-0.134477,-0.070296,0.123736,-0.085669,-0.988610,0.105360,0.027548,0.012368,450.159607,25.187973,0.733826,,,,,,,
1537671406.955203,0.122340,0.088398,-2.598408,0.302625,-0.284333,-0.348312,0.121558,-0.088283,-0.988650,0.103677,0.001674,-0.006101,459.367126,23.413517,4.874542,,,,,,,
1537671406.965243,0.118546,0.090129,-2.604658,0.216650,-0.500796,-0.666394,0.117788,-0.090007,-0.988951,0.102930,0.023021,-0.024400,459.367126,23.413517,4.874542,,,,,,,
1537671406.975253,0.112299,0.089842,-2.613031,0.011035,-0.788342,-0.876877,0.111611,-0.089721,-0.989693,0.113319,0.014267,-0.043067,464.033386,13.527748,5.645813,,,,,,,
1537671406.985293,0.102903,0.086935,-2.621465,-0.283906,-1.062908,-0.837788,0.102334,-0.086826,-0.990954,0.160117,0.140628,-0.039869,464.033386,13.527748,5.645813,,,,,,,
1537671406.995333,0.091577,0.080954,-2.627540,-0.611793,-1.214592,-0.583470,0.091150,-0.080866,-0.992548,0.109000,0.138636,-0.056341,436.279388,1.767540,-8.429199,,,,,,,
1537671407.005374,0.079580,0.073224,-2.629996,-0.773007,-1.186045,-0.214636,0.079283,-0.073159,-0.994164,0.039934,-0.093345,-0.060493,436.279388,1.767540,-8.429199,,,,,,,
1537671407.015414,0.068689,0.065586,-2.629491,-0.745380,-1.043584,0.057478,0.068487,-0.065539,-0.995497,-0.009604,-0.146985,0.022108,381.931305,-5.427605,-29.449280,,,,,,,
1537671407.025424,0.059023,0.059131,-2.627437,-0.617002,-0.929540,0.192363,0.058886,-0.059097,-0.996514,-0.022753,-0.119065,0.038643,381.931305,-5.427605,-29.449280,,,,,,,
1537671407.035464,0.050839,0.054984,-2.624840,-0.357340,-0.731481,0.232482,0.050740,-0.054956,-0.997199,-0.019398,-0.105811,0.029883,329.708313,-10.734634,-45.188965,,,,,,,
1537671407.045504,0.046732,0.053831,-2.623132,-0.050854,-0.306554,0.155448,0.046648,-0.053805,-0.997461,-0.041155,-0.065579,0.075037,329.708313,-10.734634,-45.188965,,,,,,,
1537671407.055544,0.045465,0.054768,-2.621606,0.115048,-0.089588,0.159731,0.045381,-0.054741,-0.997469,-0.088075,0.030571,0.069902,307.745544,-13.943497,-50.576233,,,,,,,
1537671407.065585,0.044289,0.056080,-2.619679,0.112811,-0.104312,0.201460,0.044205,-0.056051,-0.997449,-0.060471,0.006460,0.011167,307.745544,-13.943497,-50.576233,,,,,,,
1537671407.075594,0.043202,0.056666,-2.618013,0.027653,-0.102541,0.153980,0.043119,-0.056636,-0.997463,-0.007765,-0.009298,-0.025715,305.415894,-14.274391,-50.995728,,,,,,,
1537671407.085635,0.041880,0.056300,-2.616869,-0.064881,-0.130726,0.100168,0.041801,-0.056270,-0.997540,0.004021,0.031215,-0.036121,305.415894,-14.274391,-50.995728,,,,,,,
1537671407.095675,0.040225,0.055185,-2.616042,-0.129764,-0.169389,0.073262,0.040153,-0.055157,-0.997670,0.004464,0.027325,-0.027187,304.922791,-14.171822,-50.713867,,,,,,,
1537671407.105715,0.037980,0.053514,-2.615191,-0.180841,-0.239861,0.082893,0.037916,-0.053489,-0.997848,0.000093,0.013953,-0.004273,304.922791,-14.171822,-50.713867,,,,,,,
1537671407.115756,0.034478,0.051559,-2.614014,-0.204133,-0.382757,0.119678,0.034425,-0.051536,-0.998078,-0.006501,-0.006005,0.010453,304.331024,-14.165993,-50.689392,,,,,,,
1537671407.125765,0.029423,0.049239,-2.612352,-0.251963,-0.537374,0.173480,0.029383,-0.049219,-0.998356,-0.010340,-0.029013,0.004978,304.331024,-14.165993,-50.689392,,,,,,,
1537671407.135806,0.022773,0.046306,-2.609993,-0.314810,-0.686532,0.245351,0.022747,-0.046289,-0.998669,-0.012340,-0.045157,-0.024387,304.216980,-13.798134,-50.746338,,,,,,,
1537671407.145846,0.015028,0.043045,-2.607039,-0.331879,-0.778044,0.299065,0.015014,-0.043032,-0.998961,-0.018355,-0.051741,-0.042818,304.216980,-13.798134,-50.746338,,,,,,,
1537671407.155886,0.006739,0.039908,-2.603900,-0.306233,-0.818536,0.307911,0.006734,-0.039897,-0.999181,-0.016377,-0.043996,-0.026484,303.606842,-13.349258,-50.340271,,,,,,,
1537671407.165927,-0.001465,0.037204,-2.600953,-0.259279,-0.801512,0.285645,-0.001464,-0.037196,-0.999307,-0.004014,-0.023397,0.005502,303.606842,-13.349258,-50.340271,,,,,,,
1537671407.175936,-0.009556,0.034771,-2.598340,-0.233615,-0.790962,0.256881,-0.009551,-0.034764,-0.999350,-0.005174,0.014333,0.036749,302.901276,-12.994225,-50.196045,,,,,,,
1537671407.185977,-0.016755,0.032512,-2.596026,-0.218789,-0.681175,0.223390,-0.016745,-0.032506,-0.999331,0.008002,0.009191,0.082247,302.901276,-12.994225,-50.196045,,,,,,,
1537671407.196017,-0.022293,0.030574,-2.594181,-0.185937,-0.500963,0.174751,-0.022281,-0.030569,-0.999284,-0.011288,0.014120,0.108018,302.401123,-12.860443,-50.067627,,,,,,,
1537671407.206057,-0.024987,0.029102,-2.592981,-0.137297,-0.187368,0.103219,-0.024974,-0.029097,-0.999265,0.001369,0.013854,0.133694,302.401123,-12.860443,-50.067627,,,,,,,
1537671407.216097,-0.024670,0.028252,-2.592543,-0.076842,0.095234,0.028667,-0.024658,-0.028249,-0.999297,0.014526,0.024571,0.148650,302.208740,-12.704544,-49.986877,,,,,,,
1537671407.226107,-0.022106,0.027829,-2.592391,-0.044187,0.303450,0.018391,-0.022095,-0.027825,-0.999369,0.028260,0.010156,0.159403,302.208740,-12.704544,-49.986877,,,,,,,
1537671407.236147,-0.018247,0.027326,-2.591773,-0.064857,0.405204,0.082003,-0.018239,-0.027322,-0.999460,0.033024,-0.028693,0.154215,302.477722,-12.522285,-50.033752,,,,,,,
1537671407.246188,-0.013648,0.026137,-2.590410,-0.140917,0.480174,0.153981,-0.013643,-0.026134,-0.999565,0.020707,-0.066823,0.141411,302.867615,-12.482674,-49.962158,,,,,,,
1537671407.256228,-0.008501,0.023882,-2.588648,-0.251993,0.520771,0.183162,-0.008498,-0.023880,-0.999679,0.019973,-0.066330,0.153686,302.867615,-12.482674,-49.962158,,,,,,,
1537671407.266268,-0.003467,0.020118,-2.586916,-0.416167,0.498167,0.169565,-0.003466,-0.020116,-0.999792,0.013659,-0.032023,0.147527,303.429260,-12.232338,-49.948486,,,,,,,
1537671407.276278,0.001332,0.014577,-2.585561,-0.598318,0.478463,0.121662,0.001332,-0.014577,-0.999893,-0.002629,-0.003642,0.135406,303.429260,-12.232338,-49.948486,,,,,,,
1537671407.286318,0.005840,0.007379,-2.584810,-0.752587,0.431911,0.053704,0.005840,-0.007379,-0.999956,-0.013881,0.008371,0.129808,304.044312,-11.742004,-50.083862,,,,,,,
1537671407.296359,0.009112,-0.001008,-2.584749,-0.858694,0.284048,-0.017872,0.009112,0.001008,-0.999958,-0.022128,0.013305,0.114384,304.044312,-11.742004,-50.083862,,,,,,,
1537671407.306399,0.010315,-0.010009,-2.585189,-0.902882,0.060588,-0.061034,0.010314,0.010009,-0.999897,-0.023010,0.017091,0.095081,304.558258,-10.980515,-50.191040,,,,,,,
1537671407.316409,0.009201,-0.018959,-2.585742,-0.885374,-0.161470,-0.061127,0.009200,0.018958,-0.999778,-0.020125,0.018350,0.079704,304.558258,-10.980515,-50.191040,,,,,,,
1537671407.326449,0.006951,-0.027246,-2.586677,-0.796545,-0.219358,-0.130968,0.006948,0.027243,-0.999605,-0.031042,0.024927,0.067781,314.464783,-9.539070,-47.936279,,,,,,,
1537671407.336489,0.005971,-0.034451,-2.589079,-0.695189,-0.028858,-0.265859,0.005967,0.034444,-0.999389,-0.088380,0.072932,0.074996,314.464783,-9.539070,-47.936279,,,,,,,
1537671407.346530,0.006653,-0.041080,-2.591605,-0.653974,0.112280,-0.239485,0.006647,0.041069,-0.999134,-0.048517,0.045998,0.082356,353.220428,-5.257690,-36.710876,,,,,,,
1537671407.356570,0.008496,-0.048073,-2.592966,-0.716459,0.212239,-0.104478,0.008486,0.048054,-0.998809,0.003522,-0.018864,0.047072,353.220428,-5.257690,-36.710876,,,,,,,
1537671407.366580,0.011192,-0.055958,-2.593038,-0.812953,0.288556,0.009070,0.011175,0.055929,-0.998372,0.022547,-0.042730,0.036000,380.176331,-1.824722,-27.997681,,,,,,,
1537671407.376620,0.014272,-0.064623,-2.592533,-0.875994,0.297206,0.042905,0.014241,0.064578,-0.997811,0.035762,-0.012485,0.037926,380.176331,-1.824722,-27.997681,,,,,,,
1537671407.386660,0.016227,-0.073596,-2.592040,-0.896967,0.139098,0.032737,0.016182,0.073530,-0.997162,0.035789,0.032366,0.015503,394.510315,2.778946,-22.705383,,,,,,,
1537671407.396700,0.015699,-0.082512,-2.591591,-0.883641,-0.124604,0.032788,0.015645,0.082418,-0.996475,0.034190,0.022303,-0.027451,394.510315,2.778946,-22.705383,,,,,,,
1537671407.406741,0.012895,-0.091048,-2.591048,-0.835279,-0.330544,0.043480,0.012841,0.090923,-0.995775,0.035560,-0.026851,-0.051024,403.219757,6.136597,-19.171753,,,,,,,
1537671407.416750,0.008778,-0.098821,-2.590547,-0.754031,-0.425494,0.038941,0.008735,0.098660,-0.995083,0.023125,-0.054882,-0.054600,403.219757,6.136597,-19.171753,,,,,,,
1537671407.426791,0.004541,-0.105770,-2.590265,-0.671890,-0.411615,0.020079,0.004516,0.105573,-0.994401,0.009934,-0.036176,-0.063536,404.952942,7.669334,-18.245178,,,,,,,
1537671407.436831,0.000769,-0.111883,-2.590038,-0.595218,-0.366654,0.024578,0.000765,0.111650,-0.993747,0.011900,0.002013,-0.090603,404.952942,7.669334,-18.245178,,,,,,,
1537671407.446871,-0.002656,-0.116990,-2.589643,-0.489746,-0.347210,0.043223,-0.002638,0.116723,-0.993161,0.012113,0.018149,-0.127017,405.220215,8.391335,-18.120789,,,,,,,
1537671407.456912,-0.006094,-0.121029,-2.589245,-0.382017,-0.351381,0.037393,-0.006050,0.120734,-0.992666,0.004005,0.021051,-0.159982,405.220215,8.391335,-18.120789,,,,,,,
1537671407.466921,-0.009386,-0.124176,-2.589044,-0.294541,-0.331121,0.015327,-0.009314,0.123857,-0.992256,-0.009195,0.022704,-0.197578,404.813904,8.608498,-18.054749,,,,,,,
1537671407.476962,-0.012584,-0.126557,-2.589095,-0.221970,-0.321556,-0.008912,-0.012483,0.126219,-0.991924,-0.036650,0.019624,-0.233983,404.813904,8.608498,-18.054749,,,,,,,
1537671407.487002,-0.015740,-0.128418,-2.589361,-0.175012,-0.305605,-0.029035,-0.015610,0.128066,-0.991643,-0.049347,0.015626,-0.278285,404.429810,8.701378,-17.948425,,,,,,,
1537671407.497042,-0.018721,-0.129830,-2.589840,-0.126992,-0.288580,-0.050227,-0.018562,0.129466,-0.991410,-0.028237,0.022283,-0.317321,404.429810,8.701378,-17.948425,,,,,,,
1537671407.507083,-0.021788,-0.130420,-2.590406,-0.034199,-0.299138,-0.052904,-0.021601,0.130051,-0.991272,-0.004095,0.015793,-0.346619,404.232025,9.014252,-18.075195,,,,,,,
1537671407.517092,-0.024664,-0.129818,-2.590744,0.091491,-0.272149,-0.026701,-0.024454,0.129454,-0.991284,0.003687,-0.002684,-0.389362,404.232025,9.014252,-18.075195,,,,,,,
1537671407.527133,-0.026632,-0.127979,-2.590867,0.210675,-0.155606,-0.019058,-0.026411,0.127630,-0.991470,0.004331,-0.024496,-0.448578,403.363373,8.783089,-18.161316,,,,,,,
1537671407.537173,-0.027550,-0.125345,-2.591112,0.273497,-0.078761,-0.038272,-0.027331,0.125017,-0.991778,0.019915,-0.046465,-0.535840,403.363373,8.783089,-18.161316,,,,,,,
1537671407.547213,-0.028507,-0.122423,-2.591583,0.291722,-0.096987,-0.061616,-0.028290,0.122118,-0.992112,0.051132,-0.100038,-0.692031,392.837860,8.835609,-22.457703,,,,,,,
1537671407.557253,-0.029909,-0.119628,-2.592750,0.270763,-0.135942,-0.151348,-0.029690,0.119343,-0.992409,0.061566,-0.151676,-0.856956,392.837860,8.835609,-22.457703,,,,,,,
1537671407.567263,-0.032099,-0.116697,-2.595091,0.299010,-0.216592,-0.266305,-0.031875,0.116432,-0.992687,0.033385,-0.155846,-1.030720,385.334229,8.585312,-24.967773,,,,,,,
1537671407.577303,-0.035223,-0.112593,-2.597783,0.442088,-0.292282,-0.277009,-0.034993,0.112356,-0.993052,0.006795,-0.117421,-1.244665,385.334229,8.585312,-24.967773,,,,,,,
1537671407.587344,-0.037515,-0.105990,-2.599654,0.740089,-0.153689,-0.176601,-0.037296,0.105792,-0.993689,-0.041775,-0.118258,-1.493784,384.086884,8.025978,-25.226379,,,,,,,
1537671407.597384,-0.036036,-0.094133,-2.599837,1.360426,0.269645,-0.023265,-0.035869,0.093994,-0.994926,-0.099614,-0.177932,-1.706734,384.086884,8.025978,-25.226379,,,,,,,
1537671407.607424,-0.029554,-0.073309,-2.598655,2.338061,0.755019,0.062231,-0.029471,0.073243,-0.996879,-0.118387,-0.232255,-1.823739,384.184021,6.870499,-25.668701,,,,,,,
1537671407.617434,-0.018875,-0.041571,-2.597160,3.459026,1.150434,0.075092,-0.018857,0.041559,-0.998958,-0.081973,-0.222025,-1.894566,384.184021,6.870499,-25.668701,,,,,,,
1537671407.627474,-0.005112,0.001720,-2.595757,4.599431,1.427341,0.090664,-0.005112,-0.001720,-0.999985,-0.024581,-0.139225,-1.896087,385.005402,3.793098,-25.879456,,,,,,,
1537671407.637515,0.010215,0.056043,-2.595258,5.674191,1.551218,0.050925,0.010198,-0.056014,-0.998378,0.011927,0.012450,-1.797566,385.005402,3.793098,-25.879456,,,,,,,
1537671407.647555,0.026060,0.120043,-2.596534,6.595771,1.562548,-0.031921,0.025869,-0.119755,-0.992466,0.042872,0.215626,-1.636547,386.158844,-0.932320,-25.982544,,,,,,,
1537671407.657595,0.042125,0.191795,-2.600180,7.325566,1.540393,-0.145566,0.041340,-0.190621,-0.980793,0.055935,0.441155,-1.433010,386.158844,-0.932320,-25.982544,,,,,,,
1537671407.667614,0.058922,0.268749,-2.606717,7.812299,1.521022,-0.279736,0.056774,-0.265526,-0.962431,0.024433,0.694206,-1.186434,387.045563,-6.395966,-25.267761,,,,,,,
1537671407.677654,0.077646,0.348201,-2.616396,7.981043,1.601654,-0.410630,0.072913,-0.341207,-0.937156,-0.057898,0.928350,-0.875069,387.045563,-6.395966,-25.267761,,,,,,,
1537671407.687695,0.100118,0.427143,-2.629683,7.906497,1.783358,-0.560303,0.090970,-0.414272,-0.905595,-0.143247,1.141613,-0.485060,388.383087,-12.537178,-24.055847,,,,,,,
1537671407.697735,0.126605,0.503399,-2.646561,7.635700,1.906364,-0.654128,0.110604,-0.482406,-0.868937,-0.220391,1.318374,-0.088400,388.383087,-12.537178,-24.055847,,,,,,,
1537671407.707775,0.156398,0.575228,-2.666331,7.205843,1.973078,-0.660926,0.130694,-0.544026,-0.828827,-0.304812,1.442250,0.292130,390.353058,-18.315544,-21.730469,,,,,,,
1537671407.717785,0.188766,0.641046,-2.687604,6.618912,2.026309,-0.558411,0.150393,-0.598034,-0.787234,-0.353351,1.548534,0.689974,390.353058,-18.315544,-21.730469,,,,,,,
1537671407.727824,0.221530,0.700006,-2.708566,5.891179,1.934731,-0.350251,0.168052,-0.644222,-0.746147,-0.438148,1.664685,1.064614,397.217407,-22.455376,-17.220337,,,,,,,
1537671407.737864,0.252221,0.751112,-2.727577,5.070800,1.751317,-0.126180,0.182408,-0.682452,-0.707804,-0.509114,1.758685,1.403147,397.217407,-22.455376,-17.220337,,,,,,,
1537671407.747905,0.277989,0.794532,-2.742902,4.255887,1.400632,0.157368,0.192266,-0.713536,-0.673721,-0.581228,1.829442,1.737106,403.274689,-25.021339,-13.409180,,,,,,,
1537671407.757946,0.295092,0.830973,-2.751485,3.449202,0.986619,0.576945,0.196064,-0.738587,-0.645017,-0.574451,1.898911,2.029341,403.274689,-25.021339,-13.409180,,,,,,,
1537671407.767956,0.300743,0.860294,-2.752727,2.601057,0.277912,0.817923,0.193206,-0.758034,-0.622941,-0.543959,1.961907,2.229737,405.145966,-26.423134,-11.405334,,,,,,,
1537671407.777996,0.295268,0.880738,-2.748896,1.622440,-0.422536,0.832674,0.185243,-0.771209,-0.609034,-0.577302,2.008285,2.409434,405.145966,-26.423134,-11.405334,,,,,,,
1537671407.788036,0.280513,0.891003,-2.740652,0.553081,-0.954793,0.768260,0.174036,-0.777702,-0.604061,-0.548853,1.995110,2.636517,404.820160,-27.181122,-10.510742,,,,,,,
1537671407.798077,0.258791,0.889680,-2.728089,-0.645807,-1.243762,0.713953,0.161138,-0.776870,-0.608693,-0.513158,1.921676,2.840596,404.820160,-27.181122,-10.510742,,,,,,,
1537671407.808116,0.232698,0.875789,-2.711243,-1.919897,-1.312685,0.696851,0.147676,-0.768049,-0.623131,-0.453081,1.766248,3.001885,403.640961,-26.436134,-11.111755,,,,,,,
1537671407.818126,0.204183,0.849941,-2.690892,-3.092043,-1.289253,0.752592,0.133832,-0.751242,-0.646316,-0.400769,1.593786,3.094208,403.640961,-26.436134,-11.111755,,,,,,,
1537671407.828166,0.175113,0.813457,-2.667737,-4.106820,-1.152076,0.877109,0.119687,-0.726666,-0.676484,-0.355069,1.463818,3.132966,402.963348,-24.610764,-12.855530,,,,,,,
1537671407.838207,0.146633,0.767992,-2.642773,-4.953188,-1.052872,1.048617,0.105096,-0.694692,-0.711588,-0.338602,1.410146,3.076029,402.963348,-24.610764,-12.855530,,,,,,,
1537671407.848248,0.118160,0.714338,-2.617358,-5.746703,-1.170632,1.168898,0.089065,-0.655118,-0.750259,-0.363617,1.456830,2.965179,401.936646,-21.336594,-14.880310,,,,,,,
1537671407.858288,0.088937,0.651845,-2.593547,-6.595956,-1.505777,1.182874,0.070609,-0.606655,-0.791824,-0.356726,1.605678,2.797652,401.936646,-21.336594,-14.880310,,,,,,,
1537671407.868298,0.059261,0.580424,-2.573103,-7.480150,-1.855209,1.120841,0.049527,-0.548378,-0.834762,-0.347135,1.682442,2.626434,400.795410,-16.888977,-17.449463,,,,,,,
1537671407.878338,0.032394,0.496831,-2.556091,-8.686141,-1.784407,1.060789,0.028473,-0.476642,-0.878636,-0.289551,1.670306,2.365163,400.795410,-16.888977,-17.449463,,,,,,,
1537671407.888377,0.008113,0.401213,-2.542760,-9.820351,-1.834332,0.979151,0.007469,-0.390536,-0.920558,-0.260642,1.754763,2.077967,399.610321,-10.761276,-20.151733,,,,,,,
1537671407.898417,-0.011201,0.294143,-2.532484,-10.927059,-1.441512,1.014528,-0.010719,-0.289919,-0.956991,-0.158165,1.826693,1.775518,399.610321,-10.761276,-20.151733,,,,,,,
1537671407.908458,-0.020580,0.175811,-2.523390,-12.070214,-0.461382,1.078370,-0.020262,-0.174907,-0.984376,0.018827,1.841548,1.116182,398.979492,-1.667656,-22.265747,,,,,,,
1537671407.918468,-0.018716,0.046802,-2.518802,-13.099255,0.452475,0.513571,-0.018694,-0.046785,-0.998730,0.050509,2.299623,-0.163440,398.979492,-1.667656,-22.265747,,,,,,,
1537671407.928509,-0.010502,-0.085601,-2.525031,-13.112083,0.913165,-0.762301,-0.010463,0.085496,-0.996284,0.148799,2.946136,-1.729943,400.218414,8.501572,-23.045288,,,,,,,
1537671407.938549,-0.005913,-0.207379,-2.540445,-11.701221,0.548609,-1.551813,-0.005786,0.205895,-0.978557,0.403750,2.986701,-3.131779,400.218414,8.501572,-23.045288,,,,,,,
1537671407.948589,-0.006474,-0.307780,-2.557161,-9.399846,0.409561,-1.522078,-0.006170,0.302944,-0.952989,0.236273,2.521702,-4.287322,401.406219,16.544113,-21.946289,,,,,,,
1537671407.958630,-0.003214,-0.382151,-2.573024,-6.737679,1.025172,-1.416501,-0.002982,0.372917,-0.927860,-0.089654,2.333229,-5.014980,401.406219,16.544113,-21.946289,,,,,,,
1537671407.968638,0.004131,-0.430869,-2.586472,-4.280025,1.285823,-1.162026,0.003754,0.417661,-0.908595,-0.100021,1.912372,-5.376515,402.462891,21.473175,-20.675903,,,,,,,
1537671407.978679,0.009457,-0.460055,-2.596846,-2.501349,0.834691,-0.882632,0.008474,0.443997,-0.895988,0.032786,1.316058,-5.598031,402.462891,21.473175,-20.675903,,,,,,,
1537671407.988719,0.010897,-0.475902,-2.604336,-1.272866,0.380690,-0.614665,0.009686,0.458140,-0.888827,0.097309,0.898305,-5.612348,402.689117,23.312565,-20.250427,,,,,,,
1537671407.998760,0.010379,-0.479549,-2.609399,-0.044600,0.130289,-0.406292,0.009208,0.461379,-0.887155,0.077310,0.428422,-5.193060,402.689117,23.312565,-20.250427,,,,,,,
1537671408.008801,0.009219,-0.469643,-2.612759,1.353090,0.021825,-0.245689,0.008220,0.452568,-0.891692,0.100666,0.006646,-4.530534,402.705292,23.139240,-20.187439,,,,,,,
1537671408.018810,0.009790,-0.444998,-2.614519,2.825988,0.196279,-0.107193,0.008836,0.430456,-0.902568,0.182723,-0.318243,-3.736409,402.705292,23.139240,-20.187439,,,,,,,
1537671408.028851,0.013527,-0.407944,-2.616294,3.939734,0.534871,-0.131550,0.012416,0.396723,-0.917854,0.229588,-0.500330,-2.981071,402.450928,20.878792,-21.054260,,,,,,,
1537671408.038891,0.019920,-0.363488,-2.619387,4.562278,0.819014,-0.244840,0.018617,0.355536,-0.934477,0.183471,-0.392402,-2.466112,402.450928,20.878792,-21.054260,,,,,,,
1537671408.048930,0.027948,-0.315170,-2.624323,4.896081,1.004513,-0.378491,0.026568,0.309979,-0.950372,0.101042,-0.185284,-2.063361,402.580383,17.310368,-21.950928,,,,,,,
1537671408.058970,0.037406,-0.264252,-2.630199,5.150705,1.135033,-0.387292,0.036099,0.261187,-0.964613,0.062686,0.003095,-1.682253,402.580383,17.310368,-21.950928,,,,,,,
1537671408.068980,0.047613,-0.210362,-2.635995,5.503401,1.155062,-0.313913,0.046546,0.208814,-0.976847,0.010095,0.179903,-1.336843,402.528320,12.739174,-22.702026,,,,,,,
1537671408.079021,0.057893,-0.151345,-2.641842,6.046022,1.115544,-0.242506,0.057199,0.150768,-0.986913,-0.077112,0.334401,-0.936503,402.528320,12.739174,-22.702026,,,,,,,
1537671408.089061,0.067958,-0.086373,-2.647840,6.644097,1.061193,-0.166474,0.067653,0.086266,-0.993972,-0.172359,0.494819,-0.519699,402.946747,7.391884,-23.401550,,,,,,,
1537671408.099102,0.077899,-0.015689,-2.654336,7.199625,1.007670,-0.120594,0.077811,0.015688,-0.996845,-0.250464,0.652296,-0.148938,402.946747,7.391884,-23.401550,,,,,,,
1537671408.109142,0.087765,0.059098,-2.661650,7.554782,0.955855,-0.104629,0.087499,-0.059064,-0.994412,-0.315008,0.777829,0.181927,403.271088,1.422897,-23.510315,,,,,,,
1537671408.119152,0.098715,0.135189,-2.669470,7.648262,1.047022,-0.049994,0.097656,-0.134778,-0.986052,-0.356551,0.874936,0.437300,403.271088,1.422897,-23.510315,,,,,,,
1537671408.129192,0.110726,0.210666,-2.677258,7.501796,1.058122,0.057139,0.108057,-0.209111,-0.971903,-0.376185,0.925740,0.703852,403.491791,-4.526947,-22.574585,,,,,,,
1537671408.139233,0.122101,0.282667,-2.683855,7.072719,0.941240,0.255211,0.116964,-0.278918,-0.953165,-0.405843,0.968219,0.943735,403.491791,-4.526947,-22.574585,,,,,,,
1537671408.149272,0.132082,0.348124,-2.688566,6.310048,0.808752,0.415256,0.123799,-0.341135,-0.931827,-0.447025,1.026514,1.148944,403.746094,-10.060722,-21.176575,,,,,,,
1537671408.159312,0.139384,0.403775,-2.692167,5.263471,0.522397,0.414108,0.127761,-0.392893,-0.910666,-0.412383,1.086237,1.291113,403.746094,-10.060722,-21.176575,,,,,,,
1537671408.169322,0.143917,0.447950,-2.695425,4.123454,0.248021,0.282032,0.129270,-0.433119,-0.892019,-0.330823,1.097960,1.375844,403.776794,-13.937477,-19.883423,,,,,,,
1537671408.179363,0.146981,0.480602,-2.700315,2.997806,0.046224,-0.052255,0.129862,-0.462313,-0.877156,-0.231180,1.112384,1.448994,403.776794,-13.937477,-19.883423,,,,,,,
1537671408.189404,0.149728,0.501902,-2.707764,1.928702,-0.118308,-0.419525,0.130772,-0.481094,-0.866861,-0.157261,1.104461,1.504510,403.477661,-16.281059,-18.603882,,,,,,,
1537671408.199444,0.151503,0.512862,-2.716624,0.961550,-0.296905,-0.647264,0.131507,-0.490673,-0.861363,-0.149451,1.023235,1.480351,403.477661,-16.281059,-18.603882,,,,,,,
1537671408.209484,0.151751,0.515360,-2.725953,0.188220,-0.476965,-0.795959,0.131535,-0.492848,-0.860116,-0.142841,0.869588,1.424569,403.641693,-17.112221,-18.084045,,,,,,,
