timestamp(unix),attitude_roll(radians),attitude_pitch(radians),attitude_yaw(radians),rotation_rate_x(radians/s),rotation_rate_y(radians/s),rotation_rate_z(radians/s),gravity_x(G),gravity_y(G),gravity_z(G),user_acc_x(G),user_acc_y(G),user_acc_z(G),magnetic_field_x(microteslas),magnetic_field_y(microteslas),magnetic_field_z(microteslas),latitude(degree),longitude(degree),altitude(meter),speed(m/s),course(degree),timestamp(unix),User Mark
1537671404.371313,0.035965,0.210447,-2.654516,-0.581488,-0.696861,-0.318479,0.035164,-0.208897,-0.977305,0.084846,0.011631,0.044016,-22.463436,0.760513,-29.861877,,,,,,,
,,,,,,,,,,,,,,,,42.293095,-71.262679,52.013000,0.660000,235.898438,1537671403.995050,
1537671404.381262,0.031602,0.201963,-2.658844,-0.926018,-0.477631,-0.493521,0.030954,-0.200593,-0.979185,0.076254,0.018250,0.019667,-24.136389,1.921972,-28.960663,,,,,,,
1537671404.391241,0.029719,0.189675,-2.664274,-1.317137,-0.246234,-0.588769,0.029182,-0.188540,-0.981632,0.043206,0.015368,-0.020627,-24.136389,1.921972,-28.960663,,,,,,,
1537671404.401221,0.029188,0.173519,-2.669768,-1.697865,-0.141706,-0.577083,0.028745,-0.172649,-0.984564,0.019076,-0.000706,-0.066218,-26.508955,3.639636,-28.290009,,,,,,,
1537671404.411200,0.028739,0.153954,-2.674276,-2.025234,-0.111996,-0.472164,0.028395,-0.153347,-0.987764,0.007967,-0.023289,-0.097624,-26.508955,3.639636,-28.290009,,,,,,,
1537671404.421179,0.028731,0.131374,-2.677128,-2.324255,-0.025703,-0.299900,0.028480,-0.130996,-0.990974,0.027062,-0.033020,-0.103600,-29.612343,5.732058,-27.649963,,,,,,,
1537671404.431158,0.028797,0.106611,-2.677784,-2.523573,0.005720,-0.081131,0.028629,-0.106409,-0.993910,0.018307,-0.040579,-0.074541,-29.612343,5.732058,-27.649963,,,,,,,
1537671404.441133,0.028722,0.080465,-2.676542,-2.651029,-0.001786,0.084702,0.028625,-0.080378,-0.996353,-0.016341,-0.054387,-0.019897,-29.612343,5.732058,-27.649963,,,,,,,
1537671404.451112,0.028146,0.053601,-2.674178,-2.705410,-0.060014,0.179466,0.028102,-0.053576,-0.998168,0.020878,-0.056059,0.000808,-33.724884,8.285598,-27.950317,,,,,,,
1537671404.461091,0.026854,0.027209,-2.671121,-2.620907,-0.133974,0.250454,0.026841,-0.027205,-0.999269,0.070830,-0.056947,0.004641,-33.724884,8.285598,-27.950317,,,,,,,
1537671404.471070,0.025683,0.002843,-2.667264,-2.379546,-0.098720,0.351015,0.025680,-0.002843,-0.999666,0.103531,-0.058757,0.051607,-37.720482,10.986515,-29.528625,,,,,,,
1537671404.481019,0.023061,-0.017981,-2.662360,-2.001508,-0.364171,0.466507,0.023055,0.017980,-0.999573,0.128404,-0.064520,0.096969,-37.720482,10.986515,-29.528625,,,,,,,
1537671404.490998,0.016769,-0.034119,-2.657346,-1.487059,-0.710683,0.459006,0.016759,0.034112,-0.999277,0.110133,-0.095636,0.075709,-40.864349,13.332402,-31.803101,,,,,,,
1537671404.500978,0.010057,-0.044059,-2.653084,-0.830202,-0.655540,0.399577,0.010047,0.044045,-0.998979,0.069360,-0.092019,0.087480,-40.864349,13.332402,-31.803101,,,,,,,
1537671404.510957,0.004680,-0.047258,-2.649397,-0.164751,-0.523534,0.357193,0.004674,0.047241,-0.998873,-0.006902,-0.037643,0.122804,-41.885765,14.216539,-34.438904,,,,,,,
1537671404.520936,0.000733,-0.045341,-2.645996,0.289304,-0.374358,0.336048,0.000733,0.045326,-0.998972,-0.058274,0.041466,0.059610,-41.885765,14.216539,-34.438904,,,,,,,
1537671404.530915,-0.001806,-0.040797,-2.642857,0.492698,-0.231358,0.304995,-0.001805,0.040785,-0.999166,-0.033184,0.076906,-0.011698,-41.761810,13.823362,-36.111572,,,,,,,
1537671404.540895,-0.003083,-0.035830,-2.639927,0.487795,-0.113914,0.293107,-0.003081,0.035822,-0.999353,-0.006288,0.056265,-0.071188,-41.761810,13.823362,-36.111572,,,,,,,
1537671404.550874,-0.003943,-0.031877,-2.636492,0.361239,-0.104545,0.367125,-0.003941,0.031872,-0.999484,0.000966,0.041142,-0.108914,-41.131676,13.203506,-37.293945,,,,,,,
1537671404.560853,-0.005524,-0.029324,-2.632005,0.226634,-0.194355,0.475355,-0.005521,0.029319,-0.999555,-0.006167,0.028771,-0.125109,-41.131676,13.203506,-37.293945,,,,,,,
1537671404.570832,-0.007776,-0.027713,-2.626507,0.148721,-0.256719,0.575331,-0.007772,0.027709,-0.999586,-0.006845,0.000885,-0.113436,-39.487484,12.510183,-37.947693,,,,,,,
1537671404.580781,-0.010609,-0.026362,-2.619872,0.146370,-0.320503,0.694939,-0.010605,0.026359,-0.999596,-0.004822,-0.022713,-0.096656,-39.487484,12.510183,-37.947693,,,,,,,
1537671404.590760,-0.014466,-0.024620,-2.612176,0.198508,-0.440148,0.790349,-0.014461,0.024617,-0.999592,-0.010075,-0.033025,-0.104228,-37.722870,12.331594,-38.277863,,,,,,,
1537671404.600740,-0.020067,-0.022244,-2.603734,0.270967,-0.631490,0.858194,-0.020061,0.022242,-0.999551,-0.008000,-0.051005,-0.124030,-37.722870,12.331594,-38.277863,,,,,,,
1537671404.610719,-0.027760,-0.019078,-2.594483,0.363508,-0.841057,0.942175,-0.027752,0.019077,-0.999433,-0.006993,-0.073505,-0.123202,-36.055855,11.963363,-38.032867,,,,,,,
1537671404.620698,-0.037229,-0.014947,-2.584083,0.477222,-0.996210,1.061439,-0.037217,0.014946,-0.999195,-0.010223,-0.096047,-0.087795,-36.055855,11.963363,-38.032867,,,,,,,
1537671404.630677,-0.046712,-0.009581,-2.571624,0.633138,-0.938864,1.293873,-0.046692,0.009581,-0.998863,-0.006774,-0.118453,-0.027305,-34.648819,11.226542,-37.093445,,,,,,,
1537671404.640657,-0.055962,-0.002819,-2.556405,0.790845,-0.961574,1.539209,-0.055932,0.002819,-0.998431,-0.016074,-0.182506,0.059252,-34.648819,11.226542,-37.093445,,,,,,,
1537671404.650636,-0.067556,0.004873,-2.539436,0.893322,-1.237257,1.683089,-0.067504,-0.004873,-0.997707,0.039611,-0.144526,0.052410,-32.627121,10.819860,-36.309052,,,,,,,
1537671404.660615,-0.083328,0.012827,-2.521427,0.957598,-1.716849,1.743705,-0.083225,-0.012827,-0.996448,0.120105,0.017359,-0.002789,-32.627121,10.819860,-36.309052,,,,,,,
1537671404.670594,-0.105807,0.022347,-2.503789,1.173416,-2.381261,1.630278,-0.105583,-0.022345,-0.994159,0.155861,0.094443,-0.001538,-31.360233,10.087692,-35.455811,,,,,,,
1537671404.680543,-0.133029,0.034551,-2.487857,1.496995,-2.748670,1.373037,-0.132558,-0.034544,-0.990573,0.162648,0.067518,0.034152,-31.360233,10.087692,-35.455811,,,,,,,
1537671404.690522,-0.159999,0.050216,-2.473839,1.859699,-2.590002,1.079182,-0.159116,-0.050195,-0.985983,0.192838,0.029962,0.106985,-31.096123,9.107263,-34.430115,,,,,,,
1537671404.700502,-0.184719,0.070461,-2.462041,2.299989,-2.338976,0.730150,-0.183215,-0.070403,-0.980549,0.205020,0.000106,0.194233,-31.096123,9.107263,-34.430115,,,,,,,
1537671404.710481,-0.206082,0.092527,-2.451769,2.341182,-1.953103,0.543181,-0.203751,-0.092395,-0.974653,0.146713,0.006259,0.213789,-31.249870,7.555959,-33.632568,,,,,,,
1537671404.720460,-0.224849,0.113767,-2.442725,2.268601,-1.761982,0.370734,-0.221518,-0.113522,-0.968526,0.040442,0.030270,0.107167,-31.249870,7.555959,-33.632568,,,,,,,
1537671404.730439,-0.239536,0.134236,-2.436330,2.045592,-1.224428,0.070079,-0.235118,-0.133833,-0.962708,0.052424,0.046721,0.131791,-30.962318,5.552908,-33.064545,,,,,,,
1537671404.740419,-0.244679,0.146415,-2.435349,0.973756,-0.370810,-0.299605,-0.239653,-0.145892,-0.959834,0.051420,0.141986,-0.082097,-30.962318,5.552908,-33.064545,,,,,,,
1537671404.750398,-0.244172,0.149077,-2.441333,-0.207264,0.087103,-0.749541,-0.239071,-0.148525,-0.959575,-0.019473,0.106518,-0.198888,-30.272083,4.984294,-32.647369,,,,,,,
1537671404.760377,-0.237329,0.141272,-2.453747,-1.298435,0.641965,-1.079528,-0.232765,-0.140803,-0.962286,0.000816,0.159785,-0.172052,-30.272083,4.984294,-32.647369,,,,,,,
1537671404.770356,-0.227016,0.127114,-2.469601,-1.840623,0.831317,-1.234272,-0.223255,-0.126772,-0.966481,-0.025448,0.178560,-0.113185,-29.841124,4.976809,-32.804932,,,,,,,
1537671404.780305,-0.219733,0.112395,-2.485653,-1.722486,0.390852,-1.219295,-0.216593,-0.112158,-0.969797,-0.102315,0.097830,0.000269,-29.841124,4.976809,-32.804932,,,,,,,
1537671404.790284,-0.219928,0.102700,-2.498796,-1.038341,-0.341486,-1.000242,-0.217010,-0.102519,-0.970771,-0.159989,-0.008732,0.123526,-29.867847,5.312888,-32.753143,,,,,,,
1537671404.800263,-0.225868,0.099207,-2.506964,-0.376198,-0.753040,-0.612982,-0.222851,-0.099044,-0.969808,-0.192143,-0.109910,0.193792,-29.867847,5.312888,-32.753143,,,,,,,
1537671404.810243,-0.233513,0.098220,-2.510388,-0.149524,-0.790725,-0.214609,-0.230281,-0.098062,-0.968170,-0.167836,-0.156775,0.160736,-30.191851,5.492723,-32.418030,,,,,,,
1537671404.820222,-0.240194,0.095548,-2.510553,-0.320836,-0.619301,0.132267,-0.236806,-0.095403,-0.966861,-0.126613,-0.150538,0.086917,-30.191851,5.492723,-32.418030,,,,,,,
1537671404.830201,-0.244359,0.089689,-2.508280,-0.566232,-0.309811,0.455113,-0.240962,-0.089569,-0.966392,-0.089116,-0.105255,0.050316,-30.363497,5.981942,-32.157104,,,,,,,
1537671404.840180,-0.245045,0.082053,-2.503406,-0.626308,0.072246,0.719125,-0.241784,-0.081961,-0.966862,-0.065773,-0.057871,0.079121,-30.363497,5.981942,-32.157104,,,,,,,
1537671404.850160,-0.241620,0.074810,-2.496578,-0.493315,0.506464,0.888072,-0.238606,-0.074740,-0.968236,-0.079097,-0.024869,0.133397,-29.849247,6.703942,-32.543640,,,,,,,
1537671404.860139,-0.234058,0.069403,-2.488103,-0.267786,0.921847,0.966813,-0.231368,-0.069347,-0.970391,-0.107926,-0.005314,0.162835,-29.849247,6.703942,-32.543640,,,,,,,
1537671404.870118,-0.222500,0.066034,-2.478855,-0.074980,1.320225,1.002693,-0.220188,-0.065986,-0.973223,-0.133816,0.005241,0.160051,-28.751045,7.168577,-33.062103,,,,,,,
1537671404.880067,-0.207184,0.063442,-2.468653,-0.037326,1.687474,1.077251,-0.205291,-0.063400,-0.976645,-0.178696,-0.002274,0.133978,-28.751045,7.168577,-33.062103,,,,,,,
1537671404.890046,-0.188646,0.059817,-2.457166,-0.156541,2.031236,1.264120,-0.187193,-0.059781,-0.980502,-0.188005,-0.028888,0.121249,-27.100281,8.003438,-33.825348,,,,,,,
1537671404.900025,-0.166066,0.055042,-2.443699,-0.259659,2.441128,1.461681,-0.165053,-0.055014,-0.984749,-0.147935,-0.048731,0.152382,-27.100281,8.003438,-33.825348,,,,,,,
1537671404.910005,-0.141808,0.049111,-2.428494,-0.381895,2.487041,1.656307,-0.141162,-0.049091,-0.988768,-0.169262,-0.026409,0.111968,-25.190533,8.707456,-34.732147,,,,,,,
1537671404.919984,-0.119850,0.042878,-2.411427,-0.390562,2.191687,1.813476,-0.119453,-0.042865,-0.991914,-0.190559,0.022891,0.013139,-25.190533,8.707456,-34.732147,,,,,,,
1537671404.929963,-0.102603,0.037701,-2.392937,-0.273522,1.651059,1.919276,-0.102350,-0.037692,-0.994034,-0.139334,0.023517,0.036637,-25.190533,8.707456,-34.732147,,,,,,,
1537671404.939942,-0.091900,0.034848,-2.373922,-0.032338,0.968663,1.941574,-0.091715,-0.034841,-0.995176,-0.061133,0.038061,0.036710,-23.620049,9.553562,-35.343201,,,,,,,
1537671404.949922,-0.087573,0.035115,-2.354806,0.274816,0.354085,1.888374,-0.087407,-0.035108,-0.995554,-0.006740,0.049527,0.039179,-23.620049,9.553562,-35.343201,,,,,,,
1537671404.959901,-0.088306,0.038440,-2.336489,0.562556,-0.116366,1.785816,-0.088126,-0.038430,-0.995368,0.024863,0.074075,0.051047,-22.704672,10.472406,-35.638000,,,,,,,
1537671404.969880,-0.092697,0.044242,-2.319319,0.787348,-0.440372,1.610181,-0.092474,-0.044228,-0.994732,0.052939,0.110268,0.063702,-22.704672,10.472406,-35.638000,,,,,,,
1537671404.979829,-0.098952,0.051909,-2.304526,0.946173,-0.577363,1.353938,-0.098658,-0.051885,-0.993768,0.078959,0.135534,0.081384,-22.990759,10.592445,-35.469788,,,,,,,
1537671404.989808,-0.104866,0.060879,-2.292256,1.038828,-0.490965,1.051202,-0.104480,-0.060842,-0.992664,0.083331,0.152547,0.089298,-22.990759,10.592445,-35.469788,,,,,,,
1537671404.999787,-0.109214,0.070379,-2.283133,1.039913,-0.333618,0.750025,-0.108727,-0.070321,-0.991581,0.082986,0.159082,0.091328,-23.626736,10.387922,-35.488342,,,,,,,
1537671405.009767,-0.111650,0.079263,-2.276494,0.919996,-0.145616,0.504731,-0.111068,-0.079180,-0.990653,0.086013,0.150454,0.077308,-23.626736,10.387922,-35.488342,,,,,,,
1537671405.019746,-0.111898,0.086383,-2.272148,0.699183,0.062293,0.330383,-0.111248,-0.086275,-0.990040,0.072811,0.134386,0.043721,-24.290598,10.195238,-35.391632,,,,,,,
1537671405.029725,-0.110421,0.090990,-2.269206,0.415743,0.201263,0.216604,-0.109741,-0.090864,-0.989798,0.051086,0.106657,0.007208,-24.290598,10.195238,-35.391632,,,,,,,
1537671405.039704,-0.108231,0.092396,-2.267306,0.075730,0.243567,0.193344,-0.107559,-0.092264,-0.989908,0.021804,0.070429,-0.029791,-24.796133,9.995950,-35.262665,,,,,,,
1537671405.049684,-0.106042,0.090389,-2.265136,-0.256707,0.233711,0.257713,-0.105412,-0.090266,-0.990323,-0.015880,0.045817,-0.060794,-24.796133,9.995950,-35.262665,,,,,,,
,,,,,,,,,,,,,,,,42.293103,-71.262706,52.330383,0.820000,245.039062,1537671404.995039,
1537671405.059663,-0.104278,0.085459,-2.262376,-0.522554,0.191602,0.380122,-0.103710,-0.085355,-0.990938,-0.044972,0.016508,-0.060224,-25.717953,10.416499,-35.048492,,,,,,,
1537671405.069642,-0.102956,0.078373,-2.258110,-0.700130,0.161918,0.537160,-0.102458,-0.078293,-0.991651,-0.067357,-0.015610,-0.052340,-25.717953,10.416499,-35.048492,,,,,,,
1537671405.079591,-0.101907,0.070238,-2.252456,-0.761598,0.141284,0.716179,-0.101480,-0.070180,-0.992359,-0.088538,-0.031382,-0.042187,-26.581820,11.431574,-35.021942,,,,,,,
1537671405.089570,-0.101627,0.061980,-2.244698,-0.731576,0.050787,0.904307,-0.101258,-0.061941,-0.992930,-0.089752,-0.039942,-0.024373,-26.581820,11.431574,-35.021942,,,,,,,
1537671405.099549,-0.102703,0.054371,-2.235385,-0.629964,-0.087120,1.067256,-0.102371,-0.054344,-0.993261,-0.065522,-0.041755,-0.011729,-27.831631,12.034868,-35.037598,,,,,,,
1537671405.109529,-0.104998,0.048197,-2.224462,-0.452014,-0.199927,1.174025,-0.104683,-0.048179,-0.993338,-0.039909,-0.030068,0.004431,-27.831631,12.034868,-35.037598,,,,,,,
1537671405.119508,-0.108038,0.044340,-2.212998,-0.191188,-0.265265,1.217151,-0.107722,-0.044325,-0.993192,-0.016378,-0.023592,0.031599,-28.882816,12.734859,-34.933075,,,,,,,
1537671405.129487,-0.111513,0.043454,-2.200775,0.129733,-0.305360,1.229627,-0.111177,-0.043440,-0.992851,0.014253,-0.024812,0.065605,-28.882816,12.734859,-34.933075,,,,,,,
1537671405.139466,-0.115298,0.045875,-2.188236,0.469775,-0.319894,1.258196,-0.114922,-0.045859,-0.992315,0.045235,-0.026224,0.097555,-30.323372,13.082696,-34.668304,,,,,,,
1537671405.149446,-0.118586,0.050982,-2.174451,0.725399,-0.234595,1.331031,-0.118154,-0.050960,-0.991687,0.056158,-0.028935,0.111880,-30.323372,13.082696,-34.668304,,,,,,,
1537671405.159425,-0.120645,0.057322,-2.159876,0.823061,-0.085419,1.429618,-0.120155,-0.057291,-0.991101,0.029655,-0.037573,0.097012,-31.036871,12.474872,-34.499146,,,,,,,
1537671405.169404,-0.121127,0.063376,-2.143831,0.776536,0.091261,1.551941,-0.120588,-0.063334,-0.990680,-0.021959,-0.049673,0.064639,-31.036871,12.474872,-34.499146,,,,,,,
1537671405.179353,-0.120630,0.068243,-2.127120,0.662624,0.174320,1.664384,-0.120058,-0.068190,-0.990422,-0.067000,-0.037569,0.025472,-31.469648,11.798582,-34.743896,,,,,,,
1537671405.189332,-0.120658,0.072153,-2.109661,0.583267,0.090432,1.683248,-0.120052,-0.072091,-0.990147,-0.082752,-0.002723,-0.015835,-31.469648,11.798582,-34.743896,,,,,,,
1537671405.199311,-0.122326,0.075775,-2.093182,0.563246,-0.093283,1.602196,-0.121671,-0.075703,-0.989679,-0.062686,0.011082,-0.038305,-32.109604,11.032553,-35.168091,,,,,,,
1537671405.209291,-0.126159,0.079568,-2.077414,0.572229,-0.314591,1.488252,-0.125426,-0.079485,-0.988914,-0.012483,0.007112,-0.036767,-32.109604,11.032553,-35.168091,,,,,,,
1537671405.219270,-0.132104,0.083261,-2.063026,0.549022,-0.526069,1.396539,-0.131264,-0.083165,-0.987853,0.026237,-0.001460,-0.027314,-32.651695,10.259549,-35.783142,,,,,,,
1537671405.229249,-0.139258,0.086354,-2.048958,0.473635,-0.599478,1.335355,-0.138291,-0.086247,-0.986629,0.057221,-0.023434,-0.010640,-32.651695,10.259549,-35.783142,,,,,,,
1537671405.239228,-0.145104,0.088107,-2.035638,0.317858,-0.408741,1.276666,-0.144035,-0.087993,-0.985653,0.085182,-0.052373,0.001751,-33.223885,9.333407,-36.675415,,,,,,,
1537671405.249208,-0.147859,0.087903,-2.023274,0.104993,-0.077872,1.202576,-0.146752,-0.087790,-0.985270,0.072518,-0.056360,-0.007864,-33.223885,9.333407,-36.675415,,,,,,,
1537671405.259187,-0.146684,0.085968,-2.012307,-0.068820,0.308194,1.075273,-0.145619,-0.085862,-0.985608,0.045506,-0.035644,-0.025836,-33.300961,8.533401,-37.856995,,,,,,,
1537671405.269166,-0.142208,0.083387,-2.003317,-0.135513,0.585690,0.869675,-0.141237,-0.083290,-0.986466,0.021242,-0.027809,-0.033462,-33.300961,8.533401,-37.856995,,,,,,,
1537671405.279115,-0.135841,0.081430,-1.996619,-0.082796,0.719414,0.631784,-0.134974,-0.081340,-0.987505,-0.003057,-0.024205,-0.036345,-32.940025,8.096229,-39.442047,,,,,,,
1537671405.289094,-0.129212,0.080760,-1.992059,0.020565,0.682070,0.403955,-0.128433,-0.080672,-0.988431,-0.011169,-0.020188,-0.032000,-32.940025,8.096229,-39.442047,,,,,,,
1537671405.299073,-0.123454,0.081366,-1.989450,0.114933,0.569027,0.202840,-0.122734,-0.081277,-0.989106,-0.006524,-0.031516,-0.024948,-32.796246,7.381034,-40.617920,,,,,,,
1537671405.309053,-0.118684,0.082632,-1.988350,0.139400,0.465030,0.064311,-0.118001,-0.082538,-0.989577,0.000203,-0.056943,-0.013658,-32.796246,7.381034,-40.617920,,,,,,,
1537671405.319032,-0.113961,0.083572,-1.987911,0.081077,0.487686,0.033010,-0.113318,-0.083475,-0.990046,-0.007486,-0.085638,-0.002767,-33.604759,6.943650,-42.079407,,,,,,,
1537671405.329011,-0.109045,0.083469,-1.987106,-0.033677,0.503388,0.101749,-0.108450,-0.083372,-0.990600,0.010824,-0.113619,0.006164,-33.604759,6.943650,-42.079407,,,,,,,
1537671405.338990,-0.103911,0.081925,-1.985533,-0.173172,0.537432,0.195958,-0.103376,-0.081834,-0.991270,0.040571,-0.147185,-0.000673,-34.543907,6.636497,-43.969116,,,,,,,
1537671405.348970,-0.098254,0.079082,-1.983152,-0.284818,0.605489,0.290280,-0.097789,-0.079000,-0.992067,0.030238,-0.180736,-0.008208,-34.543907,6.636497,-43.969116,,,,,,,
1537671405.358949,-0.091865,0.075294,-1.979855,-0.366598,0.684074,0.390087,-0.091476,-0.075223,-0.992962,-0.001893,-0.183581,-0.016285,-35.095856,7.060461,-46.170410,,,,,,,
1537671405.368928,-0.085179,0.070598,-1.975592,-0.454969,0.698637,0.489928,-0.084864,-0.070539,-0.993892,-0.044149,-0.159670,-0.030415,-35.095856,7.060461,-46.170410,,,,,,,
1537671405.378877,-0.079253,0.064871,-1.970456,-0.556393,0.596876,0.582343,-0.079004,-0.064826,-0.994764,-0.067877,-0.145593,-0.049029,-35.333843,8.240850,-48.735382,,,,,,,
1537671405.388856,-0.075206,0.058022,-1.964525,-0.670842,0.377715,0.664130,-0.075008,-0.057989,-0.995495,-0.054066,-0.141062,-0.065616,-35.333843,8.240850,-48.735382,,,,,,,
1537671405.398835,-0.074142,0.049615,-1.957907,-0.844218,0.064907,0.743559,-0.073983,-0.049595,-0.996026,-0.024742,-0.139721,-0.090034,-36.251583,9.950174,-51.378937,,,,,,,
1537671405.408815,-0.075821,0.039391,-1.950725,-1.018371,-0.189207,0.810110,-0.075690,-0.039381,-0.996353,0.006323,-0.121615,-0.104828,-36.251583,9.950174,-51.378937,,,,,,,
1537671405.418794,-0.078554,0.027794,-1.943191,-1.136268,-0.250426,0.850088,-0.078443,-0.027790,-0.996531,0.033216,-0.098079,-0.096242,-36.251583,9.950174,-51.378937,,,,,,,
1537671405.428773,-0.080221,0.015539,-1.935664,-1.183862,-0.106044,0.847546,-0.080126,-0.015538,-0.996664,0.047487,-0.080852,-0.075770,-37.216290,12.566744,-53.492371,,,,,,,
1537671405.438752,-0.080001,0.003064,-1.928317,-1.186428,0.065825,0.830276,-0.079916,-0.003064,-0.996797,0.028692,-0.056293,-0.058913,-37.216290,12.566744,-53.492371,,,,,,,
1537671405.448693,-0.078776,-0.009193,-1.921230,-1.158184,0.127523,0.794075,-0.078691,0.009192,-0.996857,-0.004042,-0.016944,-0.059448,-36.844097,15.278090,-55.195618,,,,,,,
1537671405.458672,-0.077904,-0.020869,-1.914749,-1.100092,0.049113,0.718686,-0.077808,0.020867,-0.996750,-0.029049,0.019797,-0.061783,-36.844097,15.278090,-55.195618,,,,,,,
1537671405.468651,-0.078590,-0.031837,-1.908946,-1.033835,-0.137158,0.651989,-0.078469,0.031831,-0.996408,-0.035239,0.032698,-0.048468,-35.820145,17.598045,-56.609497,,,,,,,
1537671405.478600,-0.081780,-0.040184,-1.902908,-0.573153,-0.427731,0.706050,-0.081623,0.040173,-0.995853,-0.031857,0.049411,-0.033245,-35.820145,17.598045,-56.609497,,,,,,,
1537671405.488579,-0.088693,-0.044435,-1.896791,-0.352409,-0.780360,0.613683,-0.088490,0.044420,-0.995086,-0.023021,0.066328,-0.057099,-35.080048,19.494192,-57.283051,,,,,,,
1537671405.498558,-0.095732,-0.046127,-1.890463,0.016361,-0.709557,0.676479,-0.095484,0.046111,-0.994362,-0.043966,0.044694,0.017800,-35.080048,19.494192,-57.283051,,,,,,,
1537671405.508537,-0.101512,-0.045301,-1.883529,0.208660,-0.567466,0.691267,-0.101234,0.045286,-0.993831,-0.021294,0.061968,0.048397,-35.334599,20.352707,-57.461121,,,,,,,
1537671405.518517,-0.105899,-0.041845,-1.875770,0.486955,-0.450300,0.746044,-0.105609,0.041833,-0.993527,-0.027112,0.048072,0.073163,-35.334599,20.352707,-57.461121,,,,,,,
1537671405.528496,-0.109715,-0.035764,-1.867241,0.749097,-0.408866,0.793341,-0.109425,0.035756,-0.993352,-0.017193,0.024882,0.067937,-35.791687,20.537870,-57.811493,,,,,,,
1537671405.538475,-0.113720,-0.027931,-1.858191,0.913105,-0.445980,0.813496,-0.113431,0.027927,-0.993153,0.013806,0.021893,0.039723,-35.791687,20.537870,-57.811493,,,,,,,
1537671405.548454,-0.118448,-0.019132,-1.849269,0.995471,-0.507361,0.772380,-0.118150,0.019131,-0.992811,0.045655,0.033344,0.010344,-35.835831,20.299139,-57.474365,,,,,,,
1537671405.558434,-0.123381,-0.009847,-1.840850,1.033453,-0.498100,0.707459,-0.123063,0.009847,-0.992350,0.064103,0.038767,0.003229,-35.835831,20.299139,-57.474365,,,,,,,
1537671405.568413,-0.127493,-0.000385,-1.832986,1.038555,-0.380804,0.651861,-0.127148,0.000385,-0.991884,0.077206,0.025295,0.014314,-35.464153,20.111202,-57.433533,,,,,,,
1537671405.578362,-0.129712,0.008799,-1.825619,1.002248,-0.157569,0.605536,-0.129343,-0.008799,-0.991561,0.074687,0.020762,0.038787,-35.464153,20.111202,-57.433533,,,,,,,
1537671405.588341,-0.129404,0.017546,-1.818233,0.951527,0.110743,0.631673,-0.129024,-0.017545,-0.991486,0.042232,0.024762,0.058060,-35.395905,19.750914,-57.425507,,,,,,,
1537671405.598320,-0.126638,0.025654,-1.810187,0.891615,0.353618,0.720766,-0.126258,-0.025652,-0.991666,-0.009728,-0.002898,0.061459,-35.395905,19.750914,-57.425507,,,,,,,
1537671405.608299,-0.121623,0.033022,-1.801219,0.827310,0.592273,0.822647,-0.121257,-0.033016,-0.992072,-0.037266,0.002559,0.055716,-35.022766,19.584911,-57.824982,,,,,,,
1537671405.618279,-0.113335,0.039480,-1.791824,0.722337,0.971942,0.864384,-0.113004,-0.039470,-0.992810,-0.027178,0.024821,0.060330,-35.022766,19.584911,-57.824982,,,,,,,
1537671405.628258,-0.102874,0.041276,-1.783852,-0.188083,0.934632,0.657679,-0.102605,-0.041264,-0.993866,0.001165,0.011082,0.072082,-34.571266,19.472466,-58.195221,,,,,,,
1537671405.638237,-0.095121,0.033325,-1.781044,-0.636693,0.866901,0.346787,-0.094925,-0.033319,-0.994927,0.231385,0.057672,-0.669121,-34.571266,19.472466,-58.195221,,,,,,,
1537671405.648216,-0.084922,0.027871,-1.778825,-0.669990,0.991621,0.176753,-0.084787,-0.027868,-0.996009,0.086573,0.055166,-0.015450,-35.271431,20.684280,-59.531250,,,,,,,
1537671405.658196,-0.076993,0.021470,-1.779682,-0.674955,0.591735,-0.098268,-0.076899,-0.021469,-0.996808,0.071055,-0.000351,-0.094257,-35.271431,20.684280,-59.531250,,,,,,,
1537671405.668175,-0.072465,0.016921,-1.782366,-0.439728,0.517475,-0.290110,-0.072391,-0.016920,-0.997233,0.055622,0.047834,-0.191351,-36.447609,21.658072,-60.718567,,,,,,,
1537671405.678124,-0.067702,0.013843,-1.786740,-0.291492,0.348722,-0.447113,-0.067644,-0.013843,-0.997613,0.080110,0.087329,-0.000937,-36.447609,21.658072,-60.718567,,,,,,,
1537671405.688103,-0.066671,0.012003,-1.792675,-0.210655,0.026522,-0.631012,-0.066617,-0.012002,-0.997706,0.105435,0.108087,-0.051671,-38.198647,22.307941,-62.562866,,,,,,,
1537671405.698082,-0.069488,0.011417,-1.800295,-0.071425,-0.373907,-0.807038,-0.069428,-0.011416,-0.997522,0.090195,0.106784,-0.071921,-38.198647,22.307941,-62.562866,,,,,,,
1537671405.708061,-0.073544,0.012828,-1.810158,0.125102,-0.424644,-1.075974,-0.073472,-0.012827,-0.997215,0.092561,0.105295,-0.079552,-41.956680,22.366959,-64.992737,,,,,,,
1537671405.718041,-0.077962,0.017273,-1.822104,0.424609,-0.417039,-1.272882,-0.077871,-0.017272,-0.996814,0.159719,0.109420,-0.069898,-41.956680,22.366959,-64.992737,,,,,,,
1537671405.728020,-0.082001,0.024681,-1.834697,0.707728,-0.445327,-1.322538,-0.081884,-0.024679,-0.996336,0.028570,0.088384,0.001158,-47.186920,21.413940,-67.745941,,,,,,,
1537671405.737999,-0.086237,0.034382,-1.847275,0.911567,-0.488077,-1.342720,-0.086079,-0.034375,-0.995695,-0.031352,0.112470,0.012464,-47.186920,21.413940,-67.745941,,,,,,,
1537671405.747978,-0.092085,0.045692,-1.859977,1.043577,-0.699172,-1.373806,-0.091859,-0.045676,-0.994724,-0.039550,0.160682,0.015766,-56.122112,20.055542,-72.388245,,,,,,,
1537671405.757958,-0.101215,0.058012,-1.873073,1.111555,-1.058432,-1.445661,-0.100872,-0.057980,-0.993208,-0.033695,0.182598,-0.010286,-56.122112,20.055542,-72.388245,,,,,,,
1537671405.767937,-0.112019,0.070834,-1.887216,1.133719,-1.202976,-1.577757,-0.111504,-0.070775,-0.991240,-0.012534,0.172719,-0.022889,-73.255493,17.722527,-79.370544,,,,,,,
1537671405.777886,-0.123282,0.084193,-1.902737,1.153271,-1.254698,-1.745190,-0.122534,-0.084093,-0.988895,0.030356,0.167956,0.007831,-73.255493,17.722527,-79.370544,,,,,,,
1537671405.787865,-0.133365,0.097885,-1.919812,1.134805,-1.128963,-1.903402,-0.132333,-0.097728,-0.986376,0.082071,0.162731,0.034364,-105.077927,13.103165,-89.963989,,,,,,,
1537671405.797844,-0.140820,0.111385,-1.938192,1.070502,-0.865175,-2.025709,-0.139485,-0.111155,-0.983966,0.110646,0.115992,0.016635,-105.077927,13.103165,-89.963989,,,,,,,
1537671405.807823,-0.144740,0.124292,-1.957434,0.980278,-0.527459,-2.091661,-0.143122,-0.123972,-0.981910,0.091273,0.044367,0.000617,-157.382980,5.333107,-103.010254,,,,,,,
1537671405.817803,-0.144756,0.136021,-1.976732,0.853894,-0.167958,-2.048950,-0.142919,-0.135602,-0.980401,0.041830,0.001782,0.002663,-157.382980,5.333107,-103.010254,,,,,,,
1537671405.827782,-0.141396,0.146220,-1.994887,0.718774,0.165180,-1.876034,-0.139421,-0.145699,-0.979456,-0.004439,-0.010856,0.027170,-237.231796,-6.815348,-115.941345,,,,,,,
1537671405.837761,-0.135065,0.154614,-2.010787,0.580521,0.457974,-1.607023,-0.133049,-0.153999,-0.979072,-0.044274,-0.021920,0.067008,-237.231796,-6.815348,-115.941345,,,,,,,
1537671405.847740,-0.127733,0.160907,-2.024495,0.399250,0.513897,-1.371100,-0.125740,-0.160214,-0.979041,-0.058769,-0.037281,0.097769,-345.256531,-27.946026,-118.055786,,,,,,,
1537671405.857720,-0.121523,0.164713,-2.036136,0.177987,0.398145,-1.130951,-0.119583,-0.163969,-0.979190,-0.014649,-0.024110,0.102756,-345.256531,-27.946026,-118.055786,,,,,,,
1537671405.867699,-0.116770,0.165855,-2.046160,-0.066096,0.283425,-0.960314,-0.114906,-0.165095,-0.979561,0.074165,-0.056020,0.103829,-479.651031,-74.050095,-93.288940,,,,,,,
1537671405.877648,-0.112823,0.163785,-2.055061,-0.391788,0.252335,-0.822239,-0.111077,-0.163054,-0.980344,0.107659,-0.092561,0.078321,-479.651031,-74.050095,-93.288940,,,,,,,
1537671405.887627,-0.109528,0.158184,-2.063952,-0.747361,0.163461,-0.817695,-0.107944,-0.157526,-0.981597,0.107990,-0.110571,0.032043,-622.261597,-162.024139,-36.649017,,,,,,,
1537671405.897606,-0.106651,0.148579,-2.073311,-1.169769,0.141088,-0.835998,-0.105276,-0.148033,-0.983363,0.103048,-0.062126,0.018321,-622.261597,-162.024139,-36.649017,,,,,,,
1537671405.907585,-0.096216,0.134020,-2.088465,-1.727707,0.983852,-1.517744,-0.095206,-0.133619,-0.986449,0.222648,0.015851,-0.009614,-622.261597,-162.024139,-36.649017,,,,,,,
1537671405.917565,-0.080634,0.114073,-2.107949,-2.267988,1.428082,-1.802967,-0.080023,-0.113825,-0.990273,0.583762,-0.109136,-0.056373,-758.122437,-302.395081,55.748047,,,,,,,
1537671405.927544,-0.064123,0.090289,-2.128260,-2.599459,1.407307,-1.846395,-0.063818,-0.090166,-0.993880,0.228140,-0.137327,0.082091,-758.122437,-302.395081,55.748047,,,,,,,
1537671405.937523,-0.051256,0.064083,-2.148055,-2.762924,1.030267,-1.817026,-0.051129,-0.064039,-0.996637,0.023495,-0.152682,0.081277,-820.694336,-413.436920,130.193817,,,,,,,
1537671405.947502,-0.044002,0.037775,-2.167946,-2.703921,0.493811,-1.895150,-0.043956,-0.037766,-0.998319,0.050701,-0.205215,0.139005,-820.694336,-413.436920,130.193817,,,,,,,
1537671405.957482,-0.041011,0.011697,-2.188678,-2.716814,0.193689,-1.976038,-0.040997,-0.011696,-0.999091,0.168484,-0.180458,0.198813,-856.107910,-505.054565,192.256287,,,,,,,
1537671405.967461,-0.038225,-0.014763,-2.209935,-2.742303,0.272601,-2.080868,-0.038211,0.014763,-0.999161,0.248874,-0.156227,0.104538,-856.107910,-505.054565,192.256287,,,,,,,
1537671405.977410,-0.034635,-0.039797,-2.232447,-2.488545,0.597723,-2.197224,-0.034601,0.039786,-0.998609,0.185953,-0.117789,0.014921,-862.120361,-529.181458,204.238022,,,,,,,
1537671405.987389,-0.030148,-0.060913,-2.255973,-2.124039,0.508037,-2.297608,-0.030087,0.060875,-0.997692,-0.024280,-0.007805,0.025966,-862.120361,-529.181458,204.238022,,,,,,,
1537671405.997368,-0.026927,-0.078690,-2.280144,-1.742325,0.512244,-2.384120,-0.026841,0.078609,-0.996544,0.015427,-0.011714,-0.008919,-862.371765,-529.127197,203.750214,,,,,,,
1537671406.007347,-0.025456,-0.092402,-2.305093,-1.336656,0.288902,-2.475604,-0.025344,0.092270,-0.995411,0.062408,-0.003098,0.076222,-862.371765,-529.127197,203.750214,,,,,,,
1537671406.017327,-0.026374,-0.102218,-2.330885,-0.951089,0.134002,-2.566197,-0.026233,0.102040,-0.994434,0.048847,0.008327,0.070301,-863.295288,-528.823486,203.698578,,,,,,,
1537671406.027306,-0.029124,-0.107994,-2.356804,-0.550594,-0.070935,-2.554185,-0.028950,0.107784,-0.993753,0.036320,0.039997,0.085427,-863.295288,-528.823486,203.698578,,,,,,,
1537671406.037285,-0.034240,-0.109701,-2.381807,-0.147717,-0.283166,-2.456753,-0.034027,0.109481,-0.993406,0.004776,0.100297,0.044371,-864.350830,-528.745239,203.718491,,,,,,,
1537671406.047264,-0.040063,-0.107442,-2.405607,0.227861,-0.327626,-2.356442,-0.039821,0.107235,-0.993436,-0.011784,0.146869,-0.003177,-864.350830,-528.745239,203.718491,,,,,,,
,,,,,,,,,,,,,,,,42.293103,-71.262740,51.977722,0.820000,233.437500,1537671405.995027,
1537671406.057244,-0.045862,-0.101724,-2.428457,0.552563,-0.343055,-2.282064,-0.045609,0.101549,-0.993784,-0.011397,0.147139,-0.028432,-865.653076,-529.918579,204.108368,,,,,,,
1537671406.067223,-0.051442,-0.093308,-2.450210,0.792663,-0.346210,-2.171864,-0.051196,0.093173,-0.994333,-0.022443,0.086759,-0.047812,-865.653076,-529.918579,204.108368,,,,,,,
1537671406.077172,-0.056235,-0.082992,-2.468811,0.977204,-0.296195,-1.806899,-0.056012,0.082896,-0.994983,-0.142276,-0.001170,-0.037976,-867.228149,-531.185730,204.704636,,,,,,,
1537671406.087151,-0.059761,-0.071623,-2.482146,1.086049,-0.269861,-1.223500,-0.059572,0.071562,-0.995656,-0.355696,-0.099440,0.003880,-867.228149,-531.185730,204.704636,,,,,,,
1537671406.097130,-0.063481,-0.060052,-2.488631,1.111859,-0.341172,-0.573210,-0.063324,0.060016,-0.996187,-0.630477,-0.320926,0.031404,-901.985168,-539.109924,234.650909,,,,,,,
1537671406.107109,-0.067448,-0.050155,-2.490841,0.913077,-0.403389,-0.209169,-0.067312,0.050134,-0.996472,-0.595576,-0.376504,0.017590,-901.985168,-539.109924,234.650909,,,,,,,
1537671406.117089,-0.072453,-0.043679,-2.492810,0.516229,-0.545797,-0.373451,-0.072321,0.043665,-0.996425,-0.198141,-0.123560,-0.074940,-1045.113770,-589.006470,385.314270,,,,,,,
1537671406.127068,-0.076833,-0.040403,-2.506340,0.155749,-0.302071,-1.587233,-0.076695,0.040392,-0.996236,0.493504,0.242826,-0.151255,-1045.113770,-589.006470,385.314270,,,,,,,
1537671406.137047,-0.078351,-0.039596,-2.521069,-0.104386,-0.029130,-1.411741,-0.078210,0.039586,-0.996151,0.547357,0.409999,0.024761,-1185.253906,-684.046692,594.971863,,,,,,,
1537671406.147026,-0.080455,-0.042213,-2.534911,-0.465182,-0.236339,-1.338789,-0.080297,0.042201,-0.995877,-0.058925,0.045797,0.003064,-1185.253906,-684.046692,594.971863,,,,,,,
1537671406.157005,-0.086135,-0.048321,-2.548018,-0.793584,-0.594197,-1.236686,-0.085928,0.048302,-0.995130,-0.140558,-0.131417,-0.109484,-1209.256592,-705.794495,637.332886,,,,,,,
1537671406.166985,-0.094286,-0.056757,-2.561012,-1.005532,-0.790567,-1.219504,-0.093995,0.056726,-0.993955,-0.115173,-0.156641,-0.079867,-1209.256592,-705.794495,637.332886,,,,,,,
1537671406.176933,-0.104583,-0.066688,-2.574362,-1.164945,-1.013982,-1.238298,-0.104161,0.066639,-0.992325,-0.008785,-0.130436,-0.028457,-1216.416626,-717.213562,655.347290,,,,,,,
1537671406.186913,-0.118142,-0.077709,-2.587526,-1.259466,-1.350687,-1.154147,-0.117512,0.077631,-0.990032,0.024326,-0.098963,-0.049411,-1216.416626,-717.213562,655.347290,,,,,,,
1537671406.196892,-0.134305,-0.088797,-2.599450,-1.243226,-1.557586,-1.009743,-0.133374,0.088680,-0.987090,-0.005175,-0.094250,-0.036882,-1209.847534,-722.999146,650.066833,,,,,,,
1537671406.206871,-0.150546,-0.099038,-2.609666,-1.127704,-1.507542,-0.795669,-0.149243,0.098876,-0.983844,0.032086,-0.076018,0.012424,-1209.847534,-722.999146,650.066833,,,,,,,
1537671406.216850,-0.165725,-0.108694,-2.615860,-1.037948,-1.453613,-0.330895,-0.163994,0.108480,-0.980478,-0.046928,-0.068898,0.025950,-1190.712158,-724.061768,625.193604,,,,,,,
1537671406.226830,-0.180251,-0.118613,-2.618144,-1.008923,-1.408184,0.005466,-0.178017,0.118335,-0.976886,-0.162468,-0.072956,-0.059689,-1190.712158,-724.061768,625.193604,,,,,,,
1537671406.236809,-0.193330,-0.127790,-2.619843,-0.898364,-1.239050,-0.017579,-0.190561,0.127443,-0.973368,-0.072729,-0.070283,-0.061331,-1158.303223,-718.634644,578.497375,,,,,,,
1537671406.246788,-0.204449,-0.134617,-2.622875,-0.672927,-1.029280,-0.220438,-0.201191,0.134211,-0.970314,0.017139,-0.035166,0.040871,-1158.303223,-718.634644,578.497375,,,,,,,
1537671406.256767,-0.215825,-0.138976,-2.628508,-0.510186,-1.109838,-0.536497,-0.212089,0.138529,-0.967382,0.067389,0.035467,0.079137,-1157.305298,-709.153687,569.029724,,,,,,,
1537671406.266747,-0.229779,-0.141468,-2.636989,-0.406562,-1.327802,-0.846336,-0.225487,0.140996,-0.963989,0.128579,0.121135,-0.016998,-1157.305298,-709.153687,569.029724,,,,,,,
1537671406.276695,-0.245823,-0.142369,-2.647382,-0.305218,-1.502730,-1.012125,-0.240893,0.141888,-0.960124,0.145846,0.151508,-0.063756,-1161.325073,-706.829712,571.163330,,,,,,,
1537671406.286675,-0.262459,-0.142022,-2.658589,-0.229607,-1.487323,-1.107797,-0.256843,0.141546,-0.956031,0.033821,0.070323,-0.059975,-1161.325073,-706.829712,571.163330,,,,,,,
1537671406.296654,-0.277092,-0.140549,-2.670334,-0.145011,-1.216729,-1.175925,-0.270862,0.140087,-0.952370,0.013553,0.044499,-0.015938,-1162.676392,-706.948425,571.885315,,,,,,,
1537671406.306633,-0.287494,-0.137743,-2.681573,-0.000179,-0.765757,-1.128620,-0.280864,0.137308,-0.949874,-0.035572,0.033193,0.080413,-1162.676392,-706.948425,571.885315,,,,,,,
1537671406.316612,-0.291886,-0.133195,-2.690546,0.254589,-0.148453,-0.921827,-0.285210,0.132802,-0.949220,-0.131248,-0.001896,0.183244,-1162.907837,-707.172180,571.780579,,,,,,,
1537671406.326592,-0.288322,-0.126429,-2.695768,0.576053,0.619264,-0.613415,-0.282074,0.126093,-0.951070,-0.231109,-0.049341,0.291890,-1162.907837,-707.172180,571.780579,,,,,,,
1537671406.336571,-0.276440,-0.118117,-2.698096,0.780254,1.433261,-0.417774,-0.271031,0.117843,-0.955329,-0.266795,-0.068160,0.297096,-1161.609863,-706.750305,569.975098,,,,,,,
1537671406.346550,-0.254919,-0.107766,-2.699349,1.049465,2.420570,-0.393813,-0.250704,0.107557,-0.962070,-0.240446,0.003588,0.296436,-1161.609863,-706.750305,569.975098,,,,,,,
1537671406.356529,-0.223869,-0.094636,-2.700693,1.289506,3.336282,-0.466015,-0.221011,0.094495,-0.970682,-0.248090,0.080996,0.459482,-1159.055542,-706.666138,566.941040,,,,,,,
1537671406.366509,-0.187110,-0.080749,-2.703680,1.297513,3.803552,-0.616955,-0.185414,0.080662,-0.979344,-0.213543,0.108807,0.362553,-1159.055542,-706.666138,566.941040,,,,,,,
1537671406.376488,-0.148243,-0.066980,-2.708800,1.263090,3.953933,-0.773143,-0.147370,0.066930,-0.986814,-0.123062,0.077159,0.145918,-1156.482178,-708.127869,565.057678,,,,,,,
1537671406.386437,-0.109841,-0.053995,-2.715655,1.180538,3.865532,-0.871712,-0.109460,0.053968,-0.992525,-0.065940,-0.000776,0.044176,-1156.482178,-708.127869,565.057678,,,,,,,
1537671406.396416,-0.073032,-0.042724,-2.724216,0.997642,3.680452,-0.994214,-0.072901,0.042711,-0.996424,-0.052389,-0.028841,-0.044485,-1156.482178,-708.127869,565.057678,,,,,,,
1537671406.406395,-0.038812,-0.033509,-2.734895,0.824420,3.382054,-1.157115,-0.038781,0.033503,-0.998686,-0.056938,0.067312,-0.059954,-1153.501587,-709.302002,563.599915,,,,,,,
1537671406.416374,-0.007973,-0.025869,-2.747364,0.710672,3.042810,-1.301504,-0.007970,0.025866,-0.999634,-0.061397,0.107771,-0.031494,-1153.501587,-709.302002,563.599915,,,,,,,
1537671406.426354,0.018948,-0.019571,-2.761003,0.613207,2.645976,-1.378493,0.018943,0.019569,-0.999629,-0.108893,0.106606,0.013896,-1151.199951,-710.430725,562.843750,,,,,,,
1537671406.436333,0.043220,-0.014995,-2.775375,0.459539,2.413886,-1.444215,0.043202,0.014994,-0.998954,-0.187459,0.103170,0.047935,-1151.199951,-710.430725,562.843750,,,,,,,
1537671406.446315,0.066575,-0.013138,-2.790849,0.190692,2.359486,-1.577999,0.066520,0.013137,-0.997699,-0.230278,0.097718,0.067950,-1149.098755,-711.318420,562.345581,,,,,,,
1537671406.456294,0.090861,-0.015662,-2.807879,-0.227479,2.503254,-1.773647,0.090725,0.015661,-0.995753,-0.213955,0.091822,0.029124,-1149.098755,-711.318420,562.345581,,,,,,,
1537671406.466274,0.117572,-0.023504,-2.826634,-0.704592,2.792440,-2.013532,0.117269,0.023502,-0.992822,-0.175802,0.078716,-0.008689,-1146.999023,-711.504700,561.659790,,,,,,,
1537671406.476253,0.147542,-0.035950,-2.846295,-1.040918,3.143117,-2.115003,0.146912,0.035942,-0.988496,-0.149399,0.059426,-0.022414,-1146.999023,-711.504700,561.659790,,,,,,,
1537671406.486202,0.171666,-0.047064,-2.859699,-0.796151,2.088965,-1.204191,0.170635,0.047047,-0.984210,0.164616,-0.147007,-0.096112,-1147.035522,-713.515198,563.218689,,,,,,,
1537671406.496181,0.182544,-0.053637,-2.860994,-0.599331,0.912948,0.010702,0.181271,0.053611,-0.981971,1.020069,-0.845740,-0.385659,-1147.035522,-713.515198,563.218689,,,,,,,
1537671406.506160,0.194121,-0.057525,-2.859312,-0.313583,1.320424,0.036409,0.192585,0.057494,-0.979594,0.822735,-0.697966,-0.168614,-1145.843262,-712.509827,561.952026,,,,,,,
1537671406.516139,0.212366,-0.057158,-2.860118,0.168125,1.972174,-0.058745,0.210429,0.057127,-0.975938,0.252965,0.204607,0.335481,-1145.843262,-712.509827,561.952026,,,,,,,
1537671406.526119,0.234274,-0.052716,-2.858461,0.452693,2.217237,0.393033,0.231814,0.052692,-0.971332,0.011854,0.141034,0.355624,-1144.905273,-711.853882,561.417908,,,,,,,
1537671406.536098,0.256436,-0.045672,-2.852682,0.570352,2.170552,0.811092,0.253370,0.045656,-0.966291,-0.123594,-0.159105,0.179929,-1144.905273,-711.853882,561.417908,,,,,,,
1537671406.546077,0.276979,-0.037899,-2.846291,0.576243,1.977268,0.809186,0.273255,0.037890,-0.961195,-0.169968,-0.073931,0.072111,-1155.423828,-700.414062,566.291138,,,,,,,
1537671406.556056,0.294840,-0.030695,-2.841071,0.535211,1.701706,0.664069,0.290450,0.030691,-0.956397,-0.184584,0.118434,0.007163,-1155.423828,-700.414062,566.291138,,,,,,,
1537671406.566036,0.309447,-0.024198,-2.837785,0.521307,1.362859,0.451913,0.304443,0.024196,-0.952223,-0.151824,0.134328,-0.017962,-1161.350342,-697.090149,573.611084,,,,,,,
1537671406.576015,0.319716,-0.018498,-2.836669,0.500807,0.909777,0.227027,0.314243,0.018497,-0.949162,-0.119586,0.123913,-0.038784,-1161.350342,-697.090149,573.611084,,,,,,,
1537671406.585964,0.325420,-0.013801,-2.837511,0.472668,0.437544,0.014928,0.319676,0.013800,-0.947426,-0.053288,0.132272,-0.072426,-1160.016235,-696.331787,574.399048,,,,,,,
1537671406.595943,0.324517,-0.009299,-2.840328,0.535323,-0.267840,-0.163341,0.318837,0.009299,-0.947763,0.040507,0.084451,-0.049811,-1160.016235,-696.331787,574.399048,,,,,,,
1537671406.605922,0.317219,-0.004328,-2.844325,0.616504,-0.857778,-0.232750,0.311923,0.004328,-0.950097,0.123304,0.040624,-0.014991,-1162.290527,-697.335022,574.944763,,,,,,,
1537671406.615901,0.306076,0.001017,-2.848378,0.634675,-1.186686,-0.218439,0.301319,-0.001017,-0.953522,0.127499,0.010065,-0.007430,-1162.290527,-697.335022,574.944763,,,,,,,
1537671406.625881,0.292620,0.006095,-2.852495,0.596062,-1.397973,-0.259000,0.288456,-0.006094,-0.957473,0.086177,-0.005960,0.008956,-1163.369873,-697.453796,574.996521,,,,,,,
1537671406.635860,0.278006,0.010438,-2.857020,0.523984,-1.475698,-0.332972,0.274424,-0.010438,-0.961552,0.096395,-0.005447,0.032841,-1163.369873,-697.453796,574.996521,,,,,,,
1537671406.645839,0.264219,0.013429,-2.862279,0.391141,-1.340763,-0.465134,0.261132,-0.013428,-0.965209,0.111671,-0.010970,0.020065,-1165.042725,-698.236450,574.979248,,,,,,,
1537671406.655818,0.253361,0.014221,-2.868768,0.182565,-1.005903,-0.655557,0.250634,-0.014221,-0.967977,0.057487,0.008529,-0.018534,-1165.042725,-698.236450,574.979248,,,,,,,
1537671406.665798,0.246368,0.012048,-2.876267,-0.094371,-0.609767,-0.819730,0.243866,-0.012048,-0.969734,0.037461,0.028787,-0.039208,-1166.296021,-698.613586,575.044556,,,,,,,
1537671406.675777,0.242341,0.008200,-2.883944,-0.181197,-0.372289,-0.821514,0.239968,-0.008200,-0.970746,0.010536,0.092627,-0.064868,-1166.296021,-698.613586,575.044556,,,,,,,
1537671406.685726,0.236996,0.008203,-2.890628,0.311250,-0.613573,-0.610414,0.234775,-0.008203,-0.972015,-0.109623,0.057382,0.006774,-1194.101929,-681.188232,594.758362,,,,,,,
1537671406.695705,0.228193,0.015744,-2.896671,1.062942,-0.945704,-0.309201,0.226190,-0.015743,-0.973956,-0.203698,-0.009739,0.105273,-1194.101929,-681.188232,594.758362,,,,,,,
1537671406.705684,0.217617,0.029942,-2.900203,1.608447,-1.151688,0.059069,0.215806,-0.029937,-0.975977,-0.229936,0.249404,0.118189,-1228.766968,-654.264404,631.750122,,,,,,,
1537671406.715663,0.204541,0.048605,-2.900936,1.915144,-1.377829,0.402561,0.202878,-0.048586,-0.977998,-0.173734,0.054659,0.111176,-1228.766968,-654.264404,631.750122,,,,,,,
1537671406.725643,0.187845,0.069695,-2.899177,2.064587,-1.757143,0.628997,0.186289,-0.069639,-0.980024,-0.042581,-0.065081,0.015699,-1233.247192,-653.612549,633.240845,,,,,,,
1537671406.735622,0.168866,0.091030,-2.896377,2.033108,-1.882917,0.649236,0.167369,-0.090905,-0.981694,0.020635,0.004860,-0.018290,-1233.247192,-653.612549,633.240845,,,,,,,
1537671406.745601,0.151426,0.110054,-2.893261,1.752644,-1.621046,0.596194,0.149936,-0.109832,-0.982576,0.035474,-0.041474,-0.018339,-1236.857422,-655.522583,631.454041,,,,,,,
1537671406.755580,0.139442,0.125106,-2.890143,1.330673,-0.990191,0.495032,0.137904,-0.124780,-0.982554,0.057317,-0.086783,-0.009023,-1236.857422,-655.522583,631.454041,,,,,,,
1537671406.765560,0.134502,0.134047,-2.887644,0.683321,-0.299582,0.323191,0.132894,-0.133646,-0.982078,0.077235,-0.086508,-0.073906,-1237.930176,-656.093750,629.460205,,,,,,,
1537671406.775539,0.135163,0.135533,-2.886028,-0.063589,0.201458,0.131780,0.133516,-0.135119,-0.981792,0.106398,-0.083524,-0.142002,-1237.930176,-656.093750,629.460205,,,,,,,
1537671406.785487,0.138843,0.129900,-2.884384,-0.741291,0.436652,0.107542,0.137231,-0.129535,-0.982033,0.109839,-0.067929,-0.150871,-1223.743042,-628.383179,585.968750,,,,,,,
1537671406.795467,0.142643,0.120553,-2.877524,-1.088113,0.466473,0.700183,0.141128,-0.120261,-0.982660,0.092484,-0.132684,-0.110343,-1223.743042,-628.383179,585.968750,,,,,,,
1537671406.805446,0.145313,0.110969,-2.866488,-1.092162,0.357161,0.990618,0.143912,-0.110741,-0.983375,0.095346,-0.166648,-0.015649,-1014.412659,-377.071533,244.998245,,,,,,,
1537671406.815425,0.145591,0.102860,-2.855919,-0.900952,0.055887,0.877752,0.144311,-0.102679,-0.984191,0.017676,0.063586,0.057036,-1014.412659,-377.071533,244.998245,,,,,,,
1537671406.825404,0.142854,0.096905,-2.847831,-0.638441,-0.270544,0.660695,0.141701,-0.096753,-0.985170,-0.039574,0.107724,0.056596,-783.930908,-210.593765,32.422424,,,,,,,
1537671406.835384,0.138041,0.093238,-2.841272,-0.399287,-0.450256,0.588540,0.137006,-0.093103,-0.986185,-0.061108,0.026025,0.014017,-783.930908,-210.593765,32.422424,,,,,,,
1537671406.845363,0.133284,0.091390,-2.834359,-0.245379,-0.375021,0.697121,0.132335,-0.091262,-0.986995,-0.068706,-0.040787,-0.010182,-649.799927,-144.182220,-50.010193,,,,,,,
1537671406.855342,0.130812,0.090455,-2.825894,-0.202374,-0.097294,0.859328,0.129906,-0.090332,-0.987403,-0.054588,-0.066254,0.021079,-649.799927,-144.182220,-50.010193,,,,,,,
1537671406.865321,0.129892,0.089521,-2.816744,-0.227981,0.017157,0.893230,0.129009,-0.089402,-0.987605,-0.022273,-0.021438,0.019633,-649.799927,-144.182220,-50.010193,,,,,,,
1537671406.875301,0.129373,0.087808,-2.807525,-0.313283,0.015454,0.888489,0.128515,-0.087695,-0.987822,-0.055059,-0.030957,-0.019746,-515.169861,-93.027969,-104.768372,,,,,,,
1537671406.885249,0.128570,0.085034,-2.798756,-0.411770,-0.011981,0.800446,0.127753,-0.084931,-0.988163,-0.064628,-0.040084,-0.007366,-515.169861,-93.027969,-104.768372,,,,,,,
1537671406.895229,0.128018,0.081302,-2.791521,-0.474109,0.018932,0.627149,0.127247,-0.081213,-0.988541,-0.010121,0.051321,-0.005783,-426.306915,-61.720768,-128.181763,,,,,,,
1537671406.905208,0.128162,0.077599,-2.785842,-0.417149,0.070630,0.482235,0.127427,-0.077522,-0.988814,0.027847,0.075294,0.016661,-426.306915,-61.720768,-128.181763,,,,,,,
1537671406.915187,0.128608,0.075167,-2.781434,-0.249781,0.075938,0.384938,0.127892,-0.075096,-0.988941,0.070671,0.067192,0.035007,-393.888306,-51.644581,-133.603821,,,,,,,
1537671406.925166,0.128562,0.074912,-2.777789,-0.016029,0.003106,0.353203,0.127849,-0.074841,-0.988966,0.083058,0.081311,0.038893,-393.888306,-51.644581,-133.603821,,,,,,,
1537671406.935146,0.127532,0.076825,-2.774564,0.200426,-0.105904,0.333159,0.126811,-0.076750,-0.988953,0.038274,0.073881,0.020875,-384.494324,-49.345325,-134.775940,,,,,,,
1537671406.945125,0.125185,0.080072,-2.772519,0.317430,-0.265875,0.209071,0.124459,-0.079986,-0.988995,-0.002632,0.064971,-0.001163,-384.494324,-49.345325,-134.775940,,,,,,,
1537671406.955104,0.120887,0.083163,-2.772009,0.279995,-0.478520,0.042552,0.120176,-0.083067,-0.989271,-0.023283,0.073164,-0.018312,-376.489258,-49.689358,-136.097168,,,,,,,
1537671406.965083,0.114806,0.084210,-2.773772,0.063222,-0.681903,-0.228496,0.114148,-0.084111,-0.989897,0.003116,0.102299,-0.036425,-376.489258,-49.689358,-136.097168,,,,,,,
1537671406.975063,0.106687,0.082192,-2.778144,-0.217353,-0.924530,-0.535078,0.106125,-0.082099,-0.990958,0.071243,0.104362,-0.060938,-378.563019,-55.644428,-136.936829,,,,,,,
1537671406.985011,0.096259,0.076889,-2.783960,-0.539221,-1.149415,-0.639092,0.095827,-0.076813,-0.992430,0.173171,0.015183,-0.073687,-378.563019,-55.644428,-136.936829,,,,,,,
1537671406.994991,0.084510,0.069153,-2.789170,-0.757784,-1.222836,-0.562293,0.084208,-0.069098,-0.994049,0.152136,-0.024942,-0.082397,-415.034882,-68.757126,-131.974731,,,,,,,
1537671407.004970,0.073337,0.060994,-2.793161,-0.776918,-1.118866,-0.423735,0.073135,-0.060956,-0.995457,0.079864,-0.101169,-0.039043,-415.034882,-68.757126,-131.974731,,,,,,,
1537671407.014949,0.063213,0.053768,-2.795829,-0.676570,-0.998427,-0.279198,0.063080,-0.053742,-0.996560,0.031266,-0.120452,0.023874,-480.829102,-92.558365,-116.869812,,,,,,,
1537671407.024928,0.054226,0.048549,-2.797245,-0.447031,-0.869073,-0.141436,0.054135,-0.048530,-0.997354,0.001163,-0.084435,0.014947,-480.829102,-92.558365,-116.869812,,,,,,,
1537671407.034908,0.048074,0.046477,-2.796617,-0.132488,-0.495426,0.106492,0.048003,-0.046461,-0.997766,0.006043,-0.069232,0.038522,-543.617432,-120.449463,-96.147339,,,,,,,
1537671407.044887,0.045946,0.046971,-2.795216,0.086880,-0.122802,0.146814,0.045880,-0.046953,-0.997843,0.076465,-0.088346,0.077326,-543.617432,-120.449463,-96.147339,,,,,,,
,,,,,,,,,,,,,,,,42.293100,-71.262765,52.009399,0.820000,239.765625,1537671406.995016,
1537671407.054866,0.044751,0.048359,-2.793414,0.133358,-0.115458,0.200431,0.044684,-0.048340,-0.997831,0.014169,-0.038543,0.066358,-556.282471,-127.942642,-91.025085,,,,,,,
1537671407.064845,0.043576,0.049321,-2.791588,0.067454,-0.109828,0.175512,0.043509,-0.049301,-0.997836,-0.035742,-0.017609,-0.024656,-556.282471,-127.942642,-91.025085,,,,,,,
1537671407.074825,0.042296,0.049325,-2.790284,-0.028062,-0.128678,0.115229,0.042232,-0.049305,-0.997890,0.007466,0.004460,-0.040089,-557.568726,-128.511505,-90.395447,,,,,,,
1537671407.084773,0.040709,0.048512,-2.789381,-0.100390,-0.163607,0.080710,0.040650,-0.048493,-0.997996,0.010330,0.019135,-0.040502,-557.568726,-128.511505,-90.395447,,,,,,,
1537671407.094753,0.038727,0.047090,-2.788578,-0.159165,-0.209214,0.076167,0.038674,-0.047072,-0.998143,0.008216,0.010451,-0.022182,-557.833801,-128.572891,-90.290833,,,,,,,
1537671407.104732,0.035822,0.045306,-2.787554,-0.187465,-0.320043,0.103878,0.035778,-0.045290,-0.998333,0.006352,-0.004637,0.000515,-557.833801,-128.572891,-90.290833,,,,,,,
1537671407.114711,0.031566,0.043290,-2.786112,-0.217072,-0.452175,0.150819,0.031531,-0.043277,-0.998565,0.008828,-0.023664,0.005737,-558.253540,-128.386612,-90.058411,,,,,,,
1537671407.124690,0.025714,0.040733,-2.784037,-0.277894,-0.618266,0.217903,0.025690,-0.040722,-0.998840,0.008078,-0.047443,-0.014557,-558.253540,-128.386612,-90.058411,,,,,,,
1537671407.134670,0.018497,0.037704,-2.781293,-0.315091,-0.737509,0.282933,0.018483,-0.037695,-0.999118,0.003215,-0.061045,-0.053021,-558.769958,-128.318115,-89.793701,,,,,,,
1537671407.144649,0.010477,0.034627,-2.778198,-0.308054,-0.804751,0.309726,0.010471,-0.034620,-0.999346,-0.005878,-0.054293,-0.047026,-558.769958,-128.318115,-89.793701,,,,,,,
1537671407.154628,0.002286,0.031908,-2.775182,-0.262049,-0.807162,0.296101,0.002285,-0.031902,-0.999488,-0.004863,-0.034153,-0.018486,-559.485779,-127.677826,-89.176392,,,,,,,
1537671407.164607,-0.005785,0.029541,-2.772458,-0.234031,-0.806306,0.266365,-0.005782,-0.029536,-0.999547,-0.003724,-0.003056,0.013936,-559.485779,-127.677826,-89.176392,,,,,,,
1537671407.174587,-0.013392,0.027333,-2.770000,-0.215431,-0.721045,0.241828,-0.013387,-0.027330,-0.999537,-0.000422,0.021349,0.056376,-560.125732,-127.510986,-89.109802,,,,,,,
1537671407.184535,-0.019694,0.025331,-2.767955,-0.189052,-0.589957,0.197007,-0.019686,-0.025328,-0.999485,-0.012220,0.013610,0.088505,-560.125732,-127.510986,-89.109802,,,,,,,
1537671407.194515,-0.023648,0.023724,-2.766442,-0.153642,-0.324420,0.138223,-0.023639,-0.023722,-0.999439,-0.029492,0.014582,0.123813,-560.544861,-127.222290,-88.741882,,,,,,,
1537671407.204494,-0.024403,0.022652,-2.765694,-0.100824,-0.007773,0.058133,-0.024394,-0.022650,-0.999446,-0.029164,0.026098,0.141169,-560.544861,-127.222290,-88.741882,,,,,,,
1537671407.214473,-0.022617,0.022098,-2.765508,-0.054968,0.228918,0.014382,-0.022610,-0.022096,-0.999500,-0.015415,0.026674,0.154941,-560.479492,-127.060715,-88.910278,,,,,,,
1537671407.224452,-0.019123,0.021691,-2.765146,-0.049575,0.376311,0.051623,-0.019118,-0.021689,-0.999582,0.009138,-0.004861,0.157861,-560.479492,-127.060715,-88.910278,,,,,,,
1537671407.234432,-0.014854,0.020809,-2.764059,-0.107707,0.446183,0.129155,-0.014850,-0.020808,-0.999673,0.011615,-0.053670,0.140024,-559.708496,-126.718216,-89.143372,,,,,,,
1537671407.244411,-0.009927,0.019033,-2.762380,-0.202968,0.509790,0.180873,-0.009925,-0.019032,-0.999770,0.008002,-0.085674,0.138258,-559.708496,-126.718216,-89.143372,,,,,,,
1537671407.254390,-0.004872,0.015984,-2.760544,-0.342787,0.505196,0.184383,-0.004871,-0.015983,-0.999860,0.013843,-0.068719,0.145719,-558.987793,-126.069809,-89.501587,,,,,,,
1537671407.264369,-0.000080,0.011236,-2.758940,-0.521819,0.475104,0.152475,-0.000080,-0.011236,-0.999937,0.008656,-0.040751,0.130216,-558.987793,-126.069809,-89.501587,,,,,,,
1537671407.274349,0.004472,0.004715,-2.757825,-0.695257,0.449193,0.094970,0.004472,-0.004715,-0.999979,-0.004411,-0.023178,0.122873,-558.294312,-125.388596,-89.946655,,,,,,,
1537671407.284297,0.008271,-0.003159,-2.757380,-0.820739,0.350395,0.020728,0.008271,0.003159,-0.999961,-0.010544,-0.011628,0.113456,-558.294312,-125.388596,-89.946655,,,,,,,
1537671407.294277,0.010388,-0.011942,-2.757549,-0.894328,0.162743,-0.039259,0.010387,0.011941,-0.999875,-0.004344,-0.001749,0.095318,-557.848328,-124.589935,-90.366638,,,,,,,
1537671407.304256,0.010248,-0.020971,-2.758031,-0.903323,-0.073211,-0.059351,0.010245,0.020969,-0.999728,0.007852,0.010266,0.081576,-557.848328,-124.589935,-90.366638,,,,,,,
1537671407.314235,0.008284,-0.029637,-2.758322,-0.851777,-0.219676,-0.022629,0.008280,0.029633,-0.999527,0.009817,0.013916,0.067443,-551.960144,-120.813568,-93.328613,,,,,,,
1537671407.324214,0.007178,-0.037394,-2.756889,-0.750974,-0.061700,0.199794,0.007173,0.037385,-0.999275,0.029112,-0.017518,0.077537,-551.960144,-120.813568,-93.328613,,,,,,,
1537671407.334194,0.007605,-0.044080,-2.754217,-0.656282,0.072481,0.267430,0.007598,0.044066,-0.999000,0.064256,-0.039931,0.090003,-495.353424,-95.715408,-113.135925,,,,,,,
1537671407.344173,0.009376,-0.050625,-2.751646,-0.668549,0.192076,0.244825,0.009364,0.050603,-0.998675,-0.040644,0.023112,0.054492,-495.353424,-95.715408,-113.135925,,,,,,,
1537671407.354152,0.011985,-0.057928,-2.749333,-0.759835,0.262956,0.215429,0.011964,0.057895,-0.998251,-0.084352,0.014737,0.034887,-495.353424,-95.715408,-113.135925,,,,,,,
1537671407.364131,0.015145,-0.066161,-2.747343,-0.846832,0.314578,0.177539,0.015111,0.066113,-0.997698,-0.052297,-0.007809,0.026110,-453.551605,-78.071991,-124.462341,,,,,,,
1537671407.374111,0.017955,-0.074894,-2.745769,-0.883978,0.241010,0.133647,0.017903,0.074824,-0.997036,0.006465,-0.010737,0.027691,-453.551605,-78.071991,-124.462341,,,,,,,
1537671407.384059,0.018821,-0.083710,-2.744424,-0.886584,0.011435,0.116786,0.018754,0.083612,-0.996322,0.061431,0.004110,-0.003434,-436.704071,-69.169876,-128.419983,,,,,,,
1537671407.394039,0.017171,-0.092398,-2.743157,-0.864768,-0.233197,0.108612,0.017096,0.092267,-0.995588,0.060708,0.021518,-0.045367,-436.704071,-69.169876,-128.419983,,,,,,,
1537671407.404018,0.013734,-0.100584,-2.742155,-0.804080,-0.386263,0.077077,0.013664,0.100414,-0.994852,0.023384,0.012455,-0.058829,-427.127136,-63.067196,-130.219666,,,,,,,
1537671407.413997,0.009627,-0.107908,-2.741597,-0.720604,-0.425225,0.038078,0.009571,0.107698,-0.994138,0.001370,-0.010378,-0.061771,-427.127136,-63.067196,-130.219666,,,,,,,
1537671407.423976,0.005650,-0.114500,-2.741309,-0.643530,-0.388298,0.021384,0.005613,0.114250,-0.993436,0.002276,-0.003487,-0.074389,-424.715546,-60.919704,-130.672913,,,,,,,
1537671407.433956,0.002058,-0.120251,-2.740974,-0.556064,-0.351360,0.035700,0.002043,0.119961,-0.992776,0.005007,0.023929,-0.109351,-424.715546,-60.919704,-130.672913,,,,,,,
1537671407.443935,-0.001439,-0.124916,-2.740548,-0.444112,-0.355136,0.042723,-0.001427,0.124591,-0.992207,0.004799,0.032941,-0.143901,-424.328766,-60.401943,-130.553467,,,,,,,
1537671407.453898,-0.004903,-0.128521,-2.740220,-0.343689,-0.350352,0.029394,-0.004862,0.128167,-0.991741,0.001719,0.033713,-0.177937,-424.328766,-60.401943,-130.553467,,,,,,,
1537671407.463877,-0.008194,-0.131306,-2.740122,-0.264458,-0.333741,0.004193,-0.008123,0.130929,-0.991358,-0.018961,0.032889,-0.214010,-424.680573,-59.961842,-130.394348,,,,,,,
1537671407.473857,-0.011407,-0.133466,-2.740258,-0.204490,-0.321287,-0.016836,-0.011305,0.133070,-0.991042,-0.046175,0.024554,-0.253404,-424.680573,-59.961842,-130.394348,,,,,,,
1537671407.483805,-0.014483,-0.135175,-2.740619,-0.162614,-0.299135,-0.039046,-0.014351,0.134764,-0.990774,-0.046227,0.022584,-0.298243,-424.778046,-59.803577,-130.380310,,,,,,,
1537671407.493784,-0.017512,-0.136322,-2.741157,-0.097384,-0.298444,-0.054700,-0.017349,0.135900,-0.990571,-0.022263,0.028391,-0.332138,-424.778046,-59.803577,-130.380310,,,,,,,
1537671407.503764,-0.020599,-0.136482,-2.741653,0.012408,-0.301134,-0.044488,-0.020406,0.136059,-0.990491,0.000600,0.020603,-0.363422,-424.984894,-59.775349,-130.402100,,,,,,,
1537671407.513743,-0.023260,-0.135387,-2.741862,0.142463,-0.245167,-0.016077,-0.023045,0.134973,-0.990581,0.000660,0.004370,-0.409748,-424.984894,-59.775349,-130.402100,,,,,,,
1537671407.523722,-0.024699,-0.133203,-2.742139,0.238097,-0.108011,-0.048782,-0.024478,0.132810,-0.990839,-0.006940,-0.016950,-0.472875,-425.798584,-59.780689,-130.311401,,,,,,,
1537671407.533701,-0.025755,-0.130393,-2.743244,0.288056,-0.095663,-0.140322,-0.025533,0.130024,-0.991182,-0.012446,-0.047474,-0.581313,-425.798584,-59.780689,-130.311401,,,,,,,
1537671407.543681,-0.027264,-0.127432,-2.745264,0.288756,-0.135363,-0.227809,-0.027039,0.127087,-0.991523,0.009278,-0.122784,-0.745080,-436.726624,-62.729191,-128.424988,,,,,,,
1537671407.553660,-0.029171,-0.124625,-2.747789,0.270857,-0.168446,-0.263101,-0.028941,0.124303,-0.991822,0.056590,-0.169286,-0.908935,-436.726624,-62.729191,-128.424988,,,,,,,
1537671407.563639,-0.031816,-0.121437,-2.750463,0.334810,-0.258511,-0.282940,-0.031576,0.121139,-0.992133,0.102652,-0.132735,-1.094949,-446.787140,-65.087250,-126.441772,,,,,,,
1537671407.573618,-0.034917,-0.116677,-2.753001,0.523346,-0.274385,-0.254135,-0.034673,0.116412,-0.992596,0.028005,-0.093463,-1.315983,-446.787140,-65.087250,-126.441772,,,,,,,
1537671407.583567,-0.036195,-0.108722,-2.754330,0.911166,-0.033774,-0.124157,-0.035973,0.108508,-0.993444,-0.074287,-0.097751,-1.560434,-448.313873,-65.675903,-126.422302,,,,,,,
1537671407.593546,-0.033034,-0.094192,-2.753967,1.672925,0.436588,0.017251,-0.032882,0.094053,-0.995024,-0.154451,-0.124555,-1.742845,-448.313873,-65.675903,-126.422302,,,,,,,
1537671407.603526,-0.025099,-0.069758,-2.752699,2.725797,0.894518,0.057790,-0.025036,0.069701,-0.997254,-0.180348,-0.116897,-1.835495,-448.689667,-66.986526,-126.761658,,,,,,,
1537671407.613505,-0.013405,-0.034151,-2.751360,3.854420,1.245210,0.068957,-0.013397,0.034145,-0.999327,-0.121719,-0.059917,-1.887239,-448.689667,-66.986526,-126.761658,,,,,,,
1537671407.623484,0.000790,0.012739,-2.750326,4.978471,1.463522,0.071700,0.000790,-0.012738,-0.999919,-0.053509,0.040448,-1.852270,-447.783905,-70.248428,-127.208496,,,,,,,
1537671407.633463,0.016066,0.070220,-2.750545,6.008863,1.541246,0.007890,0.016026,-0.070162,-0.997407,-0.000736,0.202578,-1.722488,-447.783905,-70.248428,-127.208496,,,,,,,
1537671407.643443,0.031567,0.136691,-2.752726,6.867445,1.520524,-0.081314,0.031267,-0.136266,-0.990179,0.048094,0.392293,-1.537073,-447.080719,-74.992859,-127.560974,,,,,,,
1537671407.653422,0.047400,0.210132,-2.757446,7.524712,1.500782,-0.207914,0.046340,-0.208589,-0.976905,0.062623,0.597306,-1.313317,-447.080719,-74.992859,-127.560974,,,,,,,
1537671407.663401,0.064123,0.288009,-2.765109,7.908922,1.485660,-0.340289,0.061440,-0.284044,-0.956840,0.021797,0.818742,-1.048103,-446.185791,-81.000107,-127.188232,,,,,,,
1537671407.673380,0.083295,0.367190,-2.775936,7.994822,1.609825,-0.478710,0.077653,-0.358994,-0.930103,-0.071229,1.005646,-0.718746,-446.185791,-81.000107,-127.188232,,,,,,,
1537671407.683329,0.106380,0.444958,-2.790312,7.858936,1.791747,-0.614139,0.095841,-0.430420,-0.897525,-0.165054,1.178818,-0.322460,-445.160278,-87.041458,-125.998352,,,,,,,
1537671407.693308,0.133285,0.519763,-2.808077,7.540826,1.889359,-0.683232,0.115340,-0.496675,-0.860238,-0.244124,1.316499,0.062447,-445.160278,-87.041458,-125.998352,,,,,,,
1537671407.703288,0.163316,0.589794,-2.828302,7.069139,1.958102,-0.651731,0.135122,-0.556190,-0.819995,-0.309087,1.411918,0.435504,-443.174347,-92.129837,-124.290161,,,,,,,
1537671407.713267,0.195039,0.653779,-2.848822,6.439951,1.974665,-0.447051,0.153840,-0.608191,-0.778739,-0.340226,1.497534,0.821967,-443.174347,-92.129837,-124.290161,,,,,,,
1537671407.723246,0.226378,0.710551,-2.868530,5.686810,1.856243,-0.263192,0.170133,-0.652252,-0.738660,-0.413907,1.585326,1.170927,-435.712646,-94.705444,-123.524048,,,,,,,
1537671407.733225,0.255192,0.759498,-2.886101,4.869001,1.645366,-0.035830,0.183058,-0.688558,-0.701694,-0.515333,1.674931,1.491870,-435.712646,-94.705444,-123.524048,,,,,,,
1537671407.743205,0.277902,0.801030,-2.899090,4.052965,1.253198,0.292067,0.190930,-0.718074,-0.669262,-0.536358,1.734324,1.810314,-429.746826,-96.158386,-122.763855,,,,,,,
1537671407.753184,0.291642,0.835713,-2.905159,3.254448,0.814076,0.672416,0.192828,-0.741775,-0.642326,-0.512591,1.805374,2.074806,-429.746826,-96.158386,-122.763855,,,,,,,
