timestamp(unix),attitude_roll(radians),attitude_pitch(radians),attitude_yaw(radians),rotation_rate_x(radians/s),rotation_rate_y(radians/s),rotation_rate_z(radians/s),gravity_x(G),gravity_y(G),gravity_z(G),user_acc_x(G),user_acc_y(G),user_acc_z(G),magnetic_field_x(microteslas),magnetic_field_y(microteslas),magnetic_field_z(microteslas),latitude(degree),longitude(degree),altitude(meter),speed(m/s),course(degree),timestamp(unix),User Mark
1537671332.335124,0.198781,0.319921,-3.132426,0.049986,-0.162256,0.094320,0.187455,-0.314492,-0.930567,-0.012009,-0.009483,-0.007162,-19.084946,-12.380997,-32.432953,,,,,,,
,,,,,,,,,,,,,,,,42.293126,-71.262770,45.890747,0.530000,336.796875,1537671331.995881,
1537671332.345103,0.196932,0.319985,-3.131480,-0.032073,-0.147957,0.087454,0.185730,-0.314552,-0.930893,-0.014465,-0.007057,-0.013977,-19.084946,-12.380997,-32.432953,,,,,,,
1537671332.355052,0.195415,0.319055,-3.130446,-0.137585,-0.104695,0.087898,0.184374,-0.313670,-0.931460,-0.017870,-0.008825,-0.010496,-19.200876,-12.326977,-32.192627,,,,,,,
1537671332.365031,0.194444,0.317113,-3.129037,-0.243136,-0.040054,0.097932,0.183587,-0.311825,-0.932234,-0.021051,-0.015202,-0.002519,-19.200876,-12.326977,-32.192627,,,,,,,
1537671332.374990,0.194007,0.314255,-3.127374,-0.332732,0.025582,0.114453,0.183350,-0.309108,-0.933185,-0.026429,-0.024083,-0.005383,-19.233564,-11.847761,-32.061554,,,,,,,
1537671332.384969,0.194409,0.310740,-3.125292,-0.392402,0.124167,0.135374,0.183934,-0.305764,-0.934172,-0.030232,-0.029792,-0.006273,-19.233564,-11.847761,-32.061554,,,,,,,
1537671332.394949,0.195437,0.306972,-3.122975,-0.419109,0.183076,0.156517,0.185117,-0.302174,-0.935106,-0.032514,-0.023891,0.003465,-19.037296,-11.387196,-32.483887,,,,,,,
1537671332.404928,0.196581,0.303342,-3.120444,-0.403180,0.188350,0.167270,0.186399,-0.298711,-0.935963,-0.027067,-0.009135,0.001591,-19.037296,-11.387196,-32.483887,,,,,,,
1537671332.414907,0.197431,0.300150,-3.118004,-0.352122,0.150726,0.172925,0.187381,-0.295664,-0.936734,-0.016193,-0.002020,0.000348,-18.990950,-11.181490,-32.531860,,,,,,,
1537671332.424886,0.197699,0.297661,-3.115567,-0.276594,0.085211,0.177676,0.187777,-0.293285,-0.937403,-0.004061,-0.000218,-0.000876,-18.990950,-11.181490,-32.531860,,,,,,,
1537671332.434866,0.197296,0.295983,-3.113421,-0.191391,0.010013,0.171815,0.187495,-0.291680,-0.937960,0.004155,0.002007,-0.001966,-18.596573,-11.049612,-32.872101,,,,,,,
1537671332.444845,0.196312,0.295204,-3.111419,-0.099750,-0.044928,0.168103,0.186616,-0.290935,-0.938366,0.006103,0.003857,-0.008243,-18.596573,-11.049612,-32.872101,,,,,,,
1537671332.454793,0.195372,0.295338,-3.109737,-0.007916,-0.029404,0.164322,0.185726,-0.291064,-0.938503,-0.001675,0.001101,-0.015263,-18.733541,-10.785917,-32.866333,,,,,,,
1537671332.464773,0.194896,0.296358,-3.108185,0.081858,0.014958,0.161565,0.185222,-0.292039,-0.938300,-0.012950,-0.003829,-0.018060,-18.733541,-10.785917,-32.866333,,,,,,,
1537671332.474752,0.194566,0.297974,-3.106821,0.131969,0.010430,0.163979,0.184821,-0.293584,-0.937896,-0.021812,-0.007869,-0.026551,-18.476295,-10.749710,-32.720612,,,,,,,
1537671332.484731,0.193816,0.299677,-3.105338,0.132810,-0.039733,0.172578,0.184021,-0.295212,-0.937543,-0.023056,-0.009689,-0.030505,-18.476295,-10.749710,-32.720612,,,,,,,
1537671332.494710,0.192490,0.301045,-3.103674,0.088705,-0.089629,0.196938,0.182700,-0.296518,-0.937389,-0.018867,-0.009725,-0.020589,-18.478445,-10.831284,-32.548584,,,,,,,
1537671332.504690,0.190795,0.301763,-3.101479,0.012614,-0.107311,0.228561,0.181070,-0.297204,-0.937488,-0.012415,-0.008002,-0.007169,-18.478445,-10.831284,-32.548584,,,,,,,
1537671332.514669,0.188899,0.301711,-3.098898,-0.073022,-0.114272,0.256919,0.179296,-0.297155,-0.937844,-0.004384,-0.006404,0.001977,-18.463387,-10.761545,-32.533966,,,,,,,
1537671332.524648,0.187124,0.300979,-3.095861,-0.136057,-0.076528,0.277883,0.177671,-0.296455,-0.938375,0.003390,-0.003868,0.006200,-18.463387,-10.761545,-32.533966,,,,,,,
1537671332.534627,0.185495,0.299968,-3.092705,-0.159651,-0.081717,0.289501,0.176197,-0.295489,-0.938957,-0.000065,-0.005185,0.008934,-18.316504,-10.465080,-32.285095,,,,,,,
1537671332.544607,0.182976,0.298806,-3.089157,-0.179393,-0.163750,0.323633,0.173894,-0.294379,-0.939735,-0.009648,-0.020181,-0.008446,-18.316504,-10.465080,-32.285095,,,,,,,
1537671332.554555,0.179916,0.297592,-3.085174,-0.196980,-0.187039,0.372663,0.171082,-0.293219,-0.940613,-0.010437,-0.039377,0.005921,-18.611343,-10.234205,-32.232391,,,,,,,
1537671332.564535,0.176625,0.295978,-3.080542,-0.257134,-0.185558,0.417164,0.168068,-0.291675,-0.941636,0.001045,-0.026974,0.047181,-18.611343,-10.234205,-32.232391,,,,,,,
1537671332.574514,0.173177,0.293621,-3.075403,-0.342940,-0.193547,0.463669,0.164938,-0.289421,-0.942884,-0.016394,-0.011529,0.070890,-18.842251,-9.694572,-32.208038,,,,,,,
1537671332.584493,0.169773,0.290701,-3.069406,-0.403276,-0.157832,0.536959,0.161870,-0.286624,-0.944270,-0.025166,-0.008161,0.053935,-18.842251,-9.694572,-32.208038,,,,,,,
1537671332.594472,0.165572,0.287329,-3.062843,-0.463734,-0.291960,0.574124,0.158060,-0.283391,-0.945889,-0.012796,-0.008814,0.027173,-18.700352,-9.160614,-32.423767,,,,,,,
1537671332.604452,0.160264,0.283097,-3.056729,-0.532463,-0.360122,0.486286,0.153227,-0.279330,-0.947890,-0.007444,-0.020551,0.028121,-18.700352,-9.160614,-32.423767,,,,,,,
1537671332.614431,0.156227,0.278324,-3.051543,-0.566603,-0.229855,0.409110,0.149605,-0.274744,-0.949807,-0.026863,-0.046896,0.080728,-19.125847,-8.642130,-32.628265,,,,,,,
1537671332.624410,0.152894,0.272932,-3.046575,-0.636718,-0.200713,0.385211,0.146662,-0.269556,-0.951751,-0.041285,-0.047704,0.072890,-19.125847,-8.642130,-32.628265,,,,,,,
1537671332.634389,0.149338,0.266719,-3.041530,-0.722253,-0.224793,0.397576,0.143522,-0.263568,-0.953904,-0.026518,-0.036206,0.031922,-19.482342,-7.733740,-32.813110,,,,,,,
1537671332.644369,0.145807,0.260028,-3.035996,-0.762118,-0.210602,0.444309,0.140407,-0.257108,-0.956128,-0.004420,-0.027118,0.031385,-19.482342,-7.733740,-32.813110,,,,,,,
1537671332.654317,0.142185,0.253346,-3.029971,-0.758402,-0.213696,0.503043,0.137183,-0.250644,-0.958310,0.010400,-0.010617,0.037290,-19.703159,-6.978285,-33.013336,,,,,,,
1537671332.664297,0.138265,0.247064,-3.023315,-0.708909,-0.233030,0.567383,0.133640,-0.244558,-0.960381,0.017575,0.014135,0.033120,-19.703159,-6.978285,-33.013336,,,,,,,
1537671332.674276,0.133655,0.241605,-3.016185,-0.621205,-0.318759,0.634133,0.129387,-0.239261,-0.962296,0.029838,0.032001,0.033402,-19.981915,-6.280874,-33.276276,,,,,,,
1537671332.684255,0.127294,0.237204,-3.008564,-0.517668,-0.511370,0.689331,0.123396,-0.234986,-0.964134,0.053011,0.031815,0.028084,-19.981915,-6.280874,-33.276276,,,,,,,
1537671332.694234,0.118565,0.233792,-3.000935,-0.430921,-0.776606,0.691143,0.115069,-0.231668,-0.965965,0.085462,0.019510,0.020927,-20.158245,-5.495613,-33.827087,,,,,,,
1537671332.704214,0.107935,0.230844,-2.994059,-0.368708,-0.937265,0.606256,0.104868,-0.228799,-0.967809,0.108679,0.043008,-0.054256,-20.158245,-5.495613,-33.827087,,,,,,,
1537671332.714193,0.096094,0.227988,-2.988240,-0.354434,-1.098761,0.514697,0.093464,-0.226018,-0.969629,0.073681,0.021276,-0.043524,-20.158245,-5.495613,-33.827087,,,,,,,
1537671332.724172,0.082619,0.224781,-2.983132,-0.378984,-1.281322,0.462440,0.080449,-0.222893,-0.971518,0.060496,0.012657,-0.038614,-20.662985,-4.957499,-33.690948,,,,,,,
1537671332.734151,0.068196,0.221243,-2.978100,-0.397387,-1.349538,0.470948,0.066483,-0.219442,-0.973358,0.044784,0.030020,-0.045838,-20.662985,-4.957499,-33.690948,,,,,,,
1537671332.744131,0.053771,0.217651,-2.972740,-0.390300,-1.325980,0.518999,0.052477,-0.215937,-0.974996,-0.006579,0.028421,-0.019709,-21.064150,-4.186028,-33.711578,,,,,,,
1537671332.754079,0.040490,0.214084,-2.967027,-0.389075,-1.160426,0.550861,0.039555,-0.212452,-0.976371,-0.025593,0.024433,0.007056,-21.064150,-4.186028,-33.711578,,,,,,,
1537671332.764059,0.028364,0.210587,-2.961181,-0.350609,-1.090127,0.563816,0.027734,-0.209034,-0.977515,-0.021355,0.032184,0.018424,-21.923855,-3.564541,-33.385864,,,,,,,
1537671332.774038,0.016532,0.208142,-2.955725,-0.220948,-1.058891,0.512191,0.016175,-0.206642,-0.978283,-0.025971,0.037971,0.037594,-21.923855,-3.564541,-33.385864,,,,,,,
1537671332.784017,0.005521,0.207530,-2.951263,-0.004297,-0.992996,0.411897,0.005402,-0.206044,-0.978528,0.009491,0.052083,0.083722,-22.407110,-3.009161,-32.979584,,,,,,,
1537671332.793996,-0.004430,0.209847,-2.948228,0.316381,-0.919223,0.253464,-0.004333,-0.208310,-0.978053,0.045165,0.057432,0.149684,-22.407110,-3.009161,-32.979584,,,,,,,
1537671332.803976,-0.013638,0.215629,-2.947513,0.667752,-0.903499,-0.011485,-0.013321,-0.213962,-0.976751,0.063782,0.080371,0.177954,-22.958944,-3.286880,-32.635223,,,,,,,
1537671332.813955,-0.021849,0.224631,-2.950299,0.971013,-0.889890,-0.381308,-0.021298,-0.222746,-0.974644,0.103650,0.128172,0.157993,-22.958944,-3.286880,-32.635223,,,,,,,
1537671332.823934,-0.031305,0.236078,-2.956519,1.177106,-1.171436,-0.715071,-0.030432,-0.233891,-0.971786,0.110739,0.183247,0.105499,-23.608286,-3.738701,-32.205200,,,,,,,
1537671332.833913,-0.043564,0.249250,-2.965592,1.320657,-1.545445,-1.004251,-0.042204,-0.246677,-0.968178,0.078398,0.206119,0.045723,-23.608286,-3.738701,-32.205200,,,,,,,
1537671332.843893,-0.059365,0.263908,-2.977318,1.437045,-2.028171,-1.272123,-0.057276,-0.260855,-0.963677,0.062800,0.195944,0.040460,-24.517885,-4.979319,-31.284332,,,,,,,
1537671332.853841,-0.079819,0.279829,-2.991012,1.526138,-2.556544,-1.486725,-0.076633,-0.276191,-0.958043,0.071842,0.166114,-0.016674,-24.517885,-4.979319,-31.284332,,,,,,,
1537671332.863821,-0.105235,0.297198,-3.006550,1.622513,-3.142605,-1.696962,-0.100436,-0.292842,-0.950871,0.080645,0.142085,-0.053569,-26.060385,-7.050234,-29.771484,,,,,,,
1537671332.873800,-0.135740,0.316527,-3.023701,1.759495,-3.718209,-1.912320,-0.128601,-0.311268,-0.941581,0.092911,0.145863,-0.035943,-26.060385,-7.050234,-29.771484,,,,,,,
1537671332.883779,-0.172669,0.337318,-3.041670,1.800987,-4.505534,-2.019101,-0.162130,-0.330957,-0.929613,0.057546,0.161112,-0.064008,-28.136467,-9.020805,-27.695923,,,,,,,
1537671332.893758,-0.217869,0.358923,-3.058833,1.819901,-5.277490,-1.985124,-0.202375,-0.351266,-0.914142,-0.041735,0.175332,-0.137951,-28.136467,-9.020805,-27.695923,,,,,,,
1537671332.903738,-0.268391,0.381531,-3.073315,1.895082,-5.661858,-1.804994,-0.246113,-0.372342,-0.894869,-0.060436,0.150555,-0.111845,-30.752754,-11.130962,-24.227448,,,,,,,
1537671332.913717,-0.322167,0.405317,-3.084261,2.025195,-5.848987,-1.623691,-0.290969,-0.394310,-0.871698,-0.034989,0.125969,-0.039237,-30.752754,-11.130962,-24.227448,,,,,,,
1537671332.923696,-0.377978,0.428689,-3.092151,1.849961,-5.937239,-1.391856,-0.335648,-0.415679,-0.845311,0.023835,0.119628,0.036611,-33.305294,-13.008677,-19.970459,,,,,,,
1537671332.933675,-0.432944,0.447484,-3.096946,1.460592,-5.592819,-1.065566,-0.378236,-0.432698,-0.818358,0.045152,0.056233,-0.146593,-33.305294,-13.008677,-19.970459,,,,,,,
1537671332.943655,-0.480160,0.460684,-3.100528,0.886982,-4.584558,-0.810343,-0.413765,-0.444561,-0.794458,0.132561,-0.093677,-0.108115,-35.025135,-14.669058,-15.441895,,,,,,,
1537671332.953603,-0.512315,0.466385,-3.105509,0.068863,-3.066930,-0.615688,-0.437843,-0.449660,-0.778524,0.170662,-0.214265,-0.021129,-35.025135,-14.669058,-15.441895,,,,,,,
1537671332.963583,-0.529540,0.462719,-3.112928,-0.884343,-1.747969,-0.293479,-0.452018,-0.446382,-0.772284,0.085181,-0.315367,-0.027536,-35.898109,-15.374310,-12.844543,,,,,,,
1537671332.973562,-0.536183,0.449851,-3.120722,-1.633952,-0.793840,0.171123,-0.460034,-0.434831,-0.774138,-0.025409,-0.375105,-0.056489,-35.898109,-15.374310,-12.844543,,,,,,,
1537671332.983541,-0.536147,0.430376,-3.127496,-2.087121,-0.137172,0.567196,-0.464245,-0.417212,-0.781288,-0.063420,-0.345376,-0.017403,-36.098747,-14.651524,-11.708374,,,,,,,
1537671332.993520,-0.532304,0.406497,-3.132570,-2.354768,0.264278,0.900501,-0.466163,-0.395394,-0.791426,-0.041558,-0.267905,0.024748,-36.098747,-14.651524,-11.708374,,,,,,,
1537671333.003500,-0.526979,0.379460,-3.135812,-2.525421,0.441950,1.179054,-0.467149,-0.370419,-0.802846,-0.021193,-0.241031,0.004293,-36.353085,-13.427835,-11.981293,,,,,,,
1537671333.013479,-0.521677,0.350383,-3.137328,-2.609347,0.484480,1.383501,-0.468057,-0.343258,-0.814308,0.000711,-0.228016,-0.023598,-36.353085,-13.427835,-11.981293,,,,,,,
1537671333.023458,-0.516525,0.320302,-3.137280,-2.604258,0.542458,1.542521,-0.468744,-0.314853,-0.825316,0.010324,-0.196637,-0.005769,-36.841961,-11.642853,-12.447357,,,,,,,
1537671333.033437,-0.510182,0.290412,-3.135360,-2.480947,0.756661,1.655063,-0.467888,-0.286347,-0.836114,0.021476,-0.162582,0.059213,-36.841961,-11.642853,-12.447357,,,,,,,
1537671333.043386,-0.501147,0.262199,-3.131686,-2.237109,1.104599,1.695544,-0.464012,-0.259205,-0.847057,0.028724,-0.121517,0.136593,-36.836723,-9.474831,-13.248199,,,,,,,
1537671333.053365,-0.488624,0.236755,-3.126248,-1.903979,1.478603,1.663902,-0.456316,-0.234550,-0.858348,0.032900,-0.069314,0.205409,-36.836723,-9.474831,-13.248199,,,,,,,
,,,,,,,,,,,,,,,,42.293119,-71.262747,45.973755,0.530000,91.054688,1537671332.995870,
1537671333.063345,-0.473926,0.215202,-3.119584,-1.508728,1.647095,1.545279,-0.445856,-0.213545,-0.869259,0.033197,-0.024599,0.227901,-36.424225,-7.444101,-14.407227,,,,,,,
1537671333.073324,-0.459034,0.198444,-3.111968,-1.042025,1.642143,1.379188,-0.434387,-0.197144,-0.878887,0.030013,0.004120,0.210964,-36.424225,-7.444101,-14.407227,,,,,,,
1537671333.083303,-0.444838,0.187215,-3.103478,-0.511420,1.561027,1.202849,-0.422792,-0.186124,-0.886907,0.025926,0.040097,0.194082,-35.810135,-5.662268,-15.413391,,,,,,,
1537671333.093282,-0.432207,0.181626,-3.094019,0.019841,1.391331,1.044751,-0.411986,-0.180629,-0.893108,0.026640,0.079188,0.177852,-35.810135,-5.662268,-15.413391,,,,,,,
1537671333.103262,-0.421875,0.181213,-3.083681,0.502629,1.162171,0.918472,-0.402767,-0.180223,-0.897384,0.029980,0.097841,0.159072,-34.596909,-4.881351,-16.485229,,,,,,,
1537671333.113241,-0.414022,0.185061,-3.072497,0.891167,0.934660,0.832235,-0.395425,-0.184007,-0.899878,0.030023,0.095582,0.144690,-34.596909,-4.881351,-16.485229,,,,,,,
1537671333.123220,-0.408236,0.191896,-3.060468,1.164013,0.768764,0.814685,-0.389704,-0.190721,-0.900975,0.028604,0.086595,0.121816,-33.450027,-4.441669,-17.258453,,,,,,,
1537671333.133199,-0.403922,0.200386,-3.047362,1.323327,0.665535,0.862632,-0.385163,-0.199048,-0.901127,0.032960,0.073865,0.092853,-33.450027,-4.441669,-17.258453,,,,,,,
1537671333.143148,-0.400713,0.209357,-3.033409,1.373738,0.591742,0.928096,-0.381557,-0.207831,-0.900678,0.043972,0.059485,0.056089,-32.584080,-4.328665,-18.033142,,,,,,,
1537671333.153127,-0.398316,0.218021,-3.019037,1.333762,0.531174,0.964231,-0.378685,-0.216298,-0.899896,0.057304,0.048222,0.022241,-32.584080,-4.328665,-18.033142,,,,,,,
1537671333.163106,-0.396701,0.225942,-3.005051,1.232307,0.443055,0.948819,-0.376557,-0.224025,-0.898898,0.068666,0.039363,0.009845,-31.985832,-4.479670,-18.625885,,,,,,,
1537671333.173086,-0.396652,0.232757,-2.991909,1.085987,0.252621,0.908713,-0.375914,-0.230661,-0.897488,0.076827,0.029672,0.008526,-31.985832,-4.479670,-18.625885,,,,,,,
1537671333.183065,-0.398029,0.238280,-2.979678,0.937573,0.126292,0.882411,-0.376650,-0.236031,-0.895781,0.085940,0.018960,0.022749,-31.669777,-4.315138,-19.009186,,,,,,,
1537671333.193044,-0.399750,0.242476,-2.967894,0.796495,0.106793,0.903006,-0.377803,-0.240107,-0.894211,0.086925,0.019252,0.056763,-31.669777,-4.315138,-19.009186,,,,,,,
1537671333.203023,-0.401159,0.245035,-2.956118,0.644490,0.162198,0.973635,-0.378821,-0.242591,-0.893109,0.065910,0.016944,0.076123,-31.669777,-4.315138,-19.009186,,,,,,,
1537671333.213003,-0.401349,0.246010,-2.944387,0.500395,0.310406,1.023932,-0.378898,-0.243536,-0.892819,0.037666,0.012121,0.088162,-31.866518,-4.094156,-19.421295,,,,,,,
1537671333.222982,-0.399659,0.245518,-2.933045,0.343961,0.490617,1.034629,-0.377436,-0.243058,-0.893568,0.005030,0.011796,0.091948,-31.866518,-4.094156,-19.421295,,,,,,,
1537671333.232961,-0.396037,0.243495,-2.922422,0.169490,0.664490,1.031361,-0.374385,-0.241096,-0.895382,-0.036336,0.023658,0.084789,-32.097626,-3.691669,-20.194031,,,,,,,
1537671333.242910,-0.390583,0.239821,-2.912619,-0.025280,0.818180,1.023736,-0.369831,-0.237528,-0.898223,-0.073772,0.045298,0.075256,-32.097626,-3.691669,-20.194031,,,,,,,
1537671333.252889,-0.383916,0.234212,-2.903563,-0.241771,0.896218,1.036346,-0.364328,-0.232076,-0.901890,-0.090948,0.073400,0.054051,-32.162697,-3.190613,-20.872681,,,,,,,
1537671333.262868,-0.376785,0.226612,-2.894918,-0.442684,0.913377,1.077922,-0.358526,-0.224677,-0.906079,-0.092951,0.093360,0.036664,-32.162697,-3.190613,-20.872681,,,,,,,
1537671333.272848,-0.369857,0.217244,-2.886437,-0.609717,0.867388,1.128290,-0.352985,-0.215539,-0.910464,-0.086712,0.098428,0.034838,-32.160709,-2.589577,-21.527679,,,,,,,
1537671333.282827,-0.363685,0.206514,-2.877994,-0.737295,0.769913,1.166116,-0.348162,-0.205049,-0.914734,-0.083448,0.087648,0.038788,-32.160709,-2.589577,-21.527679,,,,,,,
1537671333.292806,-0.358264,0.194754,-2.869574,-0.829586,0.698945,1.203042,-0.344020,-0.193525,-0.918803,-0.094090,0.056821,0.040720,-32.399109,-1.796017,-22.508301,,,,,,,
1537671333.302785,-0.352968,0.182326,-2.861059,-0.889550,0.691833,1.224070,-0.339955,-0.181318,-0.922797,-0.124492,0.028608,0.046836,-32.399109,-1.796017,-22.508301,,,,,,,
1537671333.312765,-0.347668,0.169259,-2.852495,-0.959260,0.670918,1.256800,-0.335837,-0.168452,-0.926735,-0.166406,0.015956,0.043907,-32.671810,-0.964375,-23.407806,,,,,,,
1537671333.322744,-0.342934,0.155503,-2.843936,-1.021360,0.591168,1.256541,-0.332194,-0.154877,-0.930408,-0.208745,0.040635,0.019367,-32.671810,-0.964375,-23.407806,,,,,,,
1537671333.332723,-0.338774,0.142207,-2.836270,-0.982996,0.514869,1.123397,-0.328977,-0.141728,-0.933642,-0.211688,0.086568,0.027056,-33.008995,0.116344,-24.489990,,,,,,,
1537671333.342672,-0.334640,0.130689,-2.830286,-0.860232,0.496607,0.879643,-0.325628,-0.130318,-0.936474,-0.154047,0.097938,0.065716,-33.008995,0.116344,-24.489990,,,,,,,
1537671333.352651,-0.329658,0.121601,-2.826272,-0.681532,0.580505,0.616878,-0.321329,-0.121301,-0.939166,-0.093619,0.101282,0.107120,-33.473518,0.695215,-25.185516,,,,,,,
1537671333.362630,-0.322707,0.115111,-2.823788,-0.488941,0.783981,0.388224,-0.315036,-0.114857,-0.942104,-0.065122,0.091374,0.134212,-33.473518,0.695215,-25.185516,,,,,,,
1537671333.372610,-0.313124,0.110982,-2.822507,-0.307448,1.038902,0.220304,-0.306137,-0.110754,-0.945523,-0.049713,0.064978,0.136441,-34.024918,1.111984,-26.387299,,,,,,,
1537671333.382582,-0.300976,0.108601,-2.821679,-0.172627,1.286781,0.134335,-0.294706,-0.108388,-0.949421,-0.049105,0.034978,0.111714,-34.024918,1.111984,-26.387299,,,,,,,
1537671333.392561,-0.286935,0.107156,-2.821068,-0.106823,1.443314,0.102514,-0.281391,-0.106951,-0.953615,-0.058132,0.009752,0.058671,-34.292377,1.164087,-27.970154,,,,,,,
1537671333.402540,-0.272749,0.105781,-2.820372,-0.124029,1.409246,0.108854,-0.267874,-0.105584,-0.957651,-0.069162,-0.013770,-0.006460,-34.292377,1.164087,-27.970154,,,,,,,
1537671333.412520,-0.260012,0.103499,-2.819584,-0.228461,1.233737,0.158629,-0.255716,-0.103314,-0.961216,-0.075934,-0.032596,-0.068844,-34.031254,0.804165,-29.962769,,,,,,,
1537671333.422499,-0.249935,0.099726,-2.818416,-0.374968,0.942107,0.224302,-0.246112,-0.099561,-0.964114,-0.076337,-0.045840,-0.118741,-34.031254,0.804165,-29.962769,,,,,,,
1537671333.432478,-0.243427,0.094128,-2.816973,-0.552808,0.571676,0.309098,-0.239963,-0.093989,-0.966221,-0.074078,-0.057378,-0.151546,-33.980347,0.357986,-32.111450,,,,,,,
1537671333.442427,-0.240780,0.086491,-2.814955,-0.746791,0.190680,0.404494,-0.237568,-0.086383,-0.967522,-0.054927,-0.064847,-0.162254,-33.980347,0.357986,-32.111450,,,,,,,
1537671333.452406,-0.241533,0.076793,-2.812618,-0.930914,-0.132738,0.490275,-0.238487,-0.076717,-0.968111,-0.023690,-0.047398,-0.168242,-33.747421,0.448435,-34.344818,,,,,,,
1537671333.462385,-0.245143,0.065327,-2.810091,-1.094184,-0.415807,0.525957,-0.242178,-0.065281,-0.968033,0.008626,-0.024029,-0.176727,-33.747421,0.448435,-34.344818,,,,,,,
1537671333.472365,-0.251647,0.052627,-2.808103,-1.209940,-0.714218,0.494668,-0.248655,-0.052603,-0.967163,0.022199,-0.010843,-0.200242,-33.346786,0.949858,-36.512451,,,,,,,
1537671333.482344,-0.261120,0.039563,-2.806992,-1.241028,-1.023848,0.419022,-0.257961,-0.039553,-0.965346,0.022243,-0.012602,-0.222887,-33.346786,0.949858,-36.512451,,,,,,,
1537671333.492323,-0.273863,0.027149,-2.806872,-1.172662,-1.362901,0.309793,-0.270353,-0.027145,-0.962379,0.012510,-0.028091,-0.222848,-32.626354,2.111410,-38.087341,,,,,,,
1537671333.502302,-0.289774,0.016451,-2.807741,-1.008010,-1.668335,0.181845,-0.285697,-0.016450,-0.958179,0.002066,-0.045928,-0.198605,-32.626354,2.111410,-38.087341,,,,,,,
1537671333.512282,-0.318099,0.012679,-2.806285,-0.213168,-2.994140,0.253730,-0.312737,-0.012679,-0.949755,0.020439,-0.085420,-0.283521,-32.982910,2.841778,-38.660095,,,,,,,
1537671333.522261,-0.344510,0.008506,-2.806059,-0.457073,-2.496675,0.125924,-0.337724,-0.008506,-0.941207,0.038743,-0.112694,-0.342759,-32.982910,2.841778,-38.660095,,,,,,,
1537671333.532240,-0.369333,0.004812,-2.806293,-0.329809,-2.474980,0.099914,-0.360990,-0.004812,-0.932557,0.028806,-0.066141,-0.093383,-34.558540,2.893297,-38.422607,,,,,,,
1537671333.542189,-0.390285,0.000574,-2.807326,-0.430701,-2.016479,0.067945,-0.380452,-0.000574,-0.924801,0.047856,-0.108648,-0.109562,-34.558540,2.893297,-38.422607,,,,,,,
1537671333.552168,-0.408563,-0.003372,-2.807396,-0.370119,-1.741101,0.174744,-0.397289,0.003372,-0.917687,0.015102,-0.091629,-0.010749,-35.727577,3.273277,-38.253784,,,,,,,
1537671333.562147,-0.424013,-0.007594,-2.806065,-0.319708,-1.495449,0.333823,-0.411410,0.007594,-0.911419,-0.005293,-0.101176,-0.000813,-35.727577,3.273277,-38.253784,,,,,,,
1537671333.572127,-0.437186,-0.012173,-2.803461,-0.302085,-1.265719,0.457512,-0.423360,0.012173,-0.905880,-0.010966,-0.107754,0.010860,-36.963772,3.940228,-38.241669,,,,,,,
1537671333.582106,-0.447947,-0.016858,-2.800046,-0.268923,-1.016982,0.521490,-0.433054,0.016857,-0.901210,-0.011389,-0.112209,0.017238,-36.963772,3.940228,-38.241669,,,,,,,
1537671333.592085,-0.455611,-0.021347,-2.796405,-0.234951,-0.689384,0.521344,-0.439911,0.021345,-0.897788,-0.011734,-0.111845,0.038794,-37.607613,4.453569,-38.083160,,,,,,,
1537671333.602064,-0.460100,-0.024951,-2.792526,-0.117656,-0.383615,0.503532,-0.443900,0.024949,-0.895729,-0.019418,-0.100816,0.082481,-37.607613,4.453569,-38.083160,,,,,,,
1537671333.612044,-0.461454,-0.027091,-2.788007,0.052891,-0.065283,0.499875,-0.445087,0.027088,-0.895077,-0.029247,-0.071827,0.106259,-38.364452,4.733022,-38.175140,,,,,,,
1537671333.622023,-0.459407,-0.027638,-2.782875,0.219443,0.278645,0.474820,-0.443247,0.027634,-0.895973,-0.032202,-0.030976,0.120888,-38.364452,4.733022,-38.175140,,,,,,,
1537671333.632002,-0.453964,-0.026633,-2.777707,0.346962,0.613058,0.398324,-0.438376,0.026630,-0.898397,-0.030481,0.007275,0.122534,-39.329571,4.633560,-38.198517,,,,,,,
1537671333.641951,-0.445535,-0.024412,-2.773073,0.418056,0.905004,0.295943,-0.430812,0.024409,-0.902112,-0.030904,0.033040,0.108639,-39.329571,4.633560,-38.198517,,,,,,,
1537671333.651930,-0.434660,-0.021265,-2.769188,0.460192,1.134102,0.192396,-0.421006,0.021263,-0.906808,-0.033797,0.048927,0.088632,-39.736603,4.143804,-38.503387,,,,,,,
1537671333.661909,-0.422192,-0.017341,-2.765963,0.502918,1.271432,0.112433,-0.409699,0.017340,-0.912056,-0.048370,0.055505,0.069633,-39.736603,4.143804,-38.503387,,,,,,,
1537671333.671889,-0.409112,-0.012640,-2.763183,0.555864,1.310525,0.051839,-0.397763,0.012640,-0.917401,-0.063815,0.056849,0.059186,-39.839130,4.129785,-39.776306,,,,,,,
1537671333.681868,-0.396213,-0.007320,-2.760619,0.600834,1.277133,0.023303,-0.385918,0.007320,-0.922504,-0.068840,0.053807,0.056568,-39.839130,4.129785,-39.776306,,,,,,,
1537671333.691847,-0.386033,-0.000617,-2.757306,0.768199,0.932525,0.052324,-0.376516,0.000617,-0.926410,-0.056116,0.051507,0.020999,-39.839130,4.129785,-39.776306,,,,,,,
1537671333.701826,-0.377621,0.005730,-2.754130,0.699410,0.802663,0.070219,-0.368704,-0.005730,-0.929529,-0.034906,0.050423,-0.025000,-40.445343,3.808795,-40.770142,,,,,,,
1537671333.711806,-0.370192,0.010903,-2.750769,0.574737,0.735159,0.148595,-0.361773,-0.010903,-0.932203,-0.016950,0.055382,0.000257,-40.445343,3.808795,-40.770142,,,,,,,
1537671333.721785,-0.363423,0.014463,-2.747059,0.427511,0.661398,0.240732,-0.355438,-0.014462,-0.934588,0.001206,0.058347,-0.004606,-41.237663,3.218852,-42.027496,,,,,,,
1537671333.731764,-0.357770,0.016312,-2.743299,0.274144,0.555557,0.295505,-0.350140,-0.016312,-0.936555,-0.004230,0.062149,-0.005568,-41.237663,3.218852,-42.027496,,,,,,,
1537671333.741713,-0.353114,0.016886,-2.739944,0.148031,0.460119,0.289576,-0.345772,-0.016885,-0.938167,-0.018333,0.069467,-0.000951,-42.144741,3.250232,-43.115875,,,,,,,
1537671333.751692,-0.349149,0.016607,-2.737052,0.059424,0.403973,0.278472,-0.342052,-0.016606,-0.939534,-0.032109,0.074528,0.017888,-42.144741,3.250232,-43.115875,,,,,,,
1537671333.761671,-0.344972,0.015818,-2.734147,0.014403,0.437379,0.311281,-0.338128,-0.015817,-0.940967,-0.033134,0.073495,0.051716,-43.988354,3.333386,-44.688232,,,,,,,
1537671333.771650,-0.339646,0.014557,-2.730741,-0.009358,0.579666,0.384661,-0.333118,-0.014556,-0.942773,-0.037533,0.068633,0.075784,-43.988354,3.333386,-44.688232,,,,,,,
1537671333.781630,-0.332246,0.012803,-2.726461,-0.028924,0.808488,0.491068,-0.326140,-0.012802,-0.945235,-0.043779,0.054779,0.088103,-46.245041,3.865502,-46.755402,,,,,,,
1537671333.791609,-0.322232,0.010625,-2.721084,-0.034617,1.079970,0.610317,-0.316667,-0.010624,-0.948477,-0.038664,0.032826,0.102850,-46.245041,3.865502,-46.755402,,,,,,,
1537671333.801588,-0.309269,0.008336,-2.714748,-0.013188,1.381117,0.690186,-0.304352,-0.008336,-0.952523,-0.036621,0.015950,0.109429,-49.109337,4.043534,-48.505127,,,,,,,
1537671333.811567,-0.293084,0.006442,-2.708109,0.028295,1.706529,0.684747,-0.288900,-0.006442,-0.957338,-0.059931,0.012790,0.107347,-49.109337,4.043534,-48.505127,,,,,,,
1537671333.821547,-0.285733,0.004733,-2.702256,-0.020084,0.881271,0.595652,-0.281858,-0.004733,-0.959445,-0.020663,0.039965,-0.129636,-52.750549,4.092144,-49.617249,,,,,,,
1537671333.831495,-0.279545,0.002205,-2.697815,-0.143298,0.637131,0.463926,-0.275918,-0.002205,-0.961179,0.004799,0.089134,-0.214328,-52.750549,4.092144,-49.617249,,,,,,,
1537671333.841475,-0.274090,-0.000505,-2.694905,-0.188237,0.490779,0.317592,-0.270671,0.000505,-0.962672,-0.005544,0.106108,-0.012990,-57.931816,4.251699,-49.734009,,,,,,,
1537671333.851454,-0.270706,-0.002850,-2.693392,-0.183217,0.283309,0.174791,-0.267411,0.002850,-0.963578,0.022126,0.108448,-0.007964,-57.931816,4.251699,-49.734009,,,,,,,
1537671333.861433,-0.269843,-0.004801,-2.693009,-0.176511,0.016105,0.064079,-0.266577,0.004801,-0.963802,0.020300,0.106070,0.020839,-64.272339,4.255184,-51.181000,,,,,,,
1537671333.871412,-0.271101,-0.006463,-2.693268,-0.163690,-0.167727,0.007760,-0.267787,0.006462,-0.963457,0.031398,0.100563,0.032503,-64.272339,4.255184,-51.181000,,,,,,,
1537671333.881392,-0.273515,-0.007717,-2.693706,-0.120043,-0.267290,-0.012178,-0.270109,0.007717,-0.962799,0.039854,0.084187,0.052368,-71.603371,3.920179,-54.261993,,,,,,,
1537671333.891371,-0.277188,-0.008423,-2.694133,-0.066954,-0.403192,-0.024558,-0.273642,0.008422,-0.961795,0.039374,0.057999,0.088351,-71.603371,3.920179,-54.261993,,,,,,,
1537671333.901350,-0.281962,-0.008656,-2.694552,-0.020167,-0.497418,-0.034882,-0.278230,0.008656,-0.960475,0.027559,0.030056,0.112285,-79.658669,2.841625,-59.350281,,,,,,,
1537671333.911329,-0.284123,-0.005473,-2.693383,0.387741,-0.197293,0.017222,-0.280311,0.005473,-0.959893,0.022240,-0.020839,0.135034,-79.658669,2.841625,-59.350281,,,,,,,
1537671333.921309,-0.285475,-0.000768,-2.692087,0.490550,-0.172285,-0.016400,-0.281613,0.000768,-0.959528,-0.028675,-0.092519,0.244013,-91.142136,1.493381,-62.417236,,,,,,,
1537671333.931257,-0.288297,0.002469,-2.691117,0.323620,-0.191590,0.030739,-0.284319,-0.002469,-0.958727,-0.048124,-0.103381,0.098222,-91.142136,1.493381,-62.417236,,,,,,,
1537671333.941237,-0.289279,0.004253,-2.689471,0.188622,-0.057201,0.132336,-0.285258,-0.004253,-0.958441,-0.058247,-0.101032,0.096503,-107.574875,-0.279123,-65.590851,,,,,,,
1537671333.951216,-0.289546,0.004566,-2.687075,0.068115,-0.014660,0.254388,-0.285514,-0.004566,-0.958364,-0.048989,-0.117337,0.145192,-107.574875,-0.279123,-65.590851,,,,,,,
1537671333.961195,-0.289148,0.002927,-2.683656,-0.106017,0.075238,0.419866,-0.285135,-0.002927,-0.958483,-0.007270,-0.104449,0.104235,-125.563751,-1.617697,-69.235504,,,,,,,
1537671333.971174,-0.286863,-0.001215,-2.679304,-0.329791,0.298824,0.571058,-0.282945,0.001215,-0.959135,0.025499,-0.079066,0.089644,-125.563751,-1.617697,-69.235504,,,,,,,
1537671333.981154,-0.281066,-0.007781,-2.674442,-0.551608,0.673896,0.670869,-0.277372,0.007781,-0.960731,0.032453,-0.059646,0.091865,-141.679367,-2.981775,-73.640076,,,,,,,
1537671333.991133,-0.270607,-0.016410,-2.669503,-0.740647,1.172544,0.723766,-0.267280,0.016409,-0.963479,0.028206,-0.049964,0.100793,-141.679367,-2.981775,-73.640076,,,,,,,
1537671334.001112,-0.255194,-0.026461,-2.664639,-0.879208,1.648412,0.733201,-0.252344,0.026458,-0.967276,-0.016821,-0.053970,0.119452,-155.340759,-2.895485,-80.974243,,,,,,,
1537671334.011091,-0.234710,-0.036937,-2.659646,-0.886408,2.167362,0.742243,-0.232402,0.036929,-0.971918,-0.080540,-0.048312,0.130228,-155.340759,-2.895485,-80.974243,,,,,,,
1537671334.021071,-0.216782,-0.048794,-2.655454,-1.141076,1.550287,0.640061,-0.214832,0.048775,-0.975432,-0.093640,-0.023735,0.097701,-170.935440,-1.531755,-89.765808,,,,,,,
1537671334.031019,-0.213498,-0.062146,-2.652696,-1.309947,-0.129613,0.521282,-0.211471,0.062106,-0.975409,0.016280,0.041547,-0.332849,-170.935440,-1.531755,-89.765808,,,,,,,
1537671334.040999,-0.214094,-0.077973,-2.652163,-1.594976,-0.048457,0.331763,-0.211817,0.077894,-0.974200,0.057886,0.051501,-0.408002,-187.163406,-2.406441,-92.736877,,,,,,,
1537671334.050978,-0.215156,-0.093765,-2.653874,-1.551492,-0.101482,0.113228,-0.212562,0.093628,-0.972652,0.141929,-0.007691,-0.075093,-187.163406,-2.406441,-92.736877,,,,,,,
1537671334.060957,-0.215670,-0.107193,-2.657458,-1.334575,0.027133,-0.115215,-0.212774,0.106987,-0.971227,0.283468,-0.054009,0.003148,-198.307037,-3.894533,-93.842651,,,,,,,
,,,,,,,,,,,,,,,,42.293110,-71.262735,46.159424,0.330000,111.093750,1537671333.995857,
1537671334.070936,-0.215035,-0.118161,-2.663007,-1.148477,0.124898,-0.366211,-0.211894,0.117887,-0.970156,0.366191,-0.064359,0.024966,-198.307037,-3.894533,-93.842651,,,,,,,
1537671334.080916,-0.216698,-0.127081,-2.669487,-0.960655,-0.178447,-0.462007,-0.213273,0.126739,-0.968737,0.190110,-0.043121,-0.031873,-199.476120,-3.533762,-93.077148,,,,,,,
1537671334.090895,-0.222387,-0.133434,-2.676247,-0.697560,-0.577162,-0.532746,-0.218598,0.133038,-0.966703,0.055482,-0.048169,-0.049913,-199.476120,-3.533762,-93.077148,,,,,,,
1537671334.100874,-0.231171,-0.136486,-2.682864,-0.355388,-0.854527,-0.580759,-0.226987,0.136063,-0.964346,0.087765,-0.026825,-0.014291,-197.922424,-3.586798,-90.680237,,,,,,,
1537671334.110853,-0.241904,-0.136007,-2.688801,-0.005898,-1.031468,-0.582932,-0.237339,0.135588,-0.961918,0.070637,0.011781,0.013782,-197.922424,-3.586798,-90.680237,,,,,,,
1537671334.120833,-0.253601,-0.132541,-2.693702,0.286891,-1.127946,-0.543870,-0.248691,0.132153,-0.959525,0.034869,0.050785,0.021674,-194.608002,-3.999588,-86.179199,,,,,,,
1537671334.130781,-0.265782,-0.126934,-2.696473,0.534553,-1.208901,-0.351355,-0.260550,0.126593,-0.957125,-0.037042,0.087945,-0.002043,-194.608002,-3.999588,-86.179199,,,,,,,
1537671334.140761,-0.278674,-0.119528,-2.696150,0.789127,-1.327152,-0.109662,-0.273119,0.119244,-0.954561,-0.111815,0.047214,-0.021208,-189.036041,-3.977909,-80.026611,,,,,,,
1537671334.150740,-0.292351,-0.110373,-2.693973,0.980385,-1.410234,-0.048751,-0.286451,0.110149,-0.951742,-0.053133,0.010441,-0.022959,-189.036041,-3.977909,-80.026611,,,,,,,
1537671334.160719,-0.305571,-0.100398,-2.692209,0.999924,-1.300627,-0.168309,-0.299323,0.100229,-0.948873,0.071936,0.058767,-0.045435,-183.061127,-3.393164,-73.797668,,,,,,,
1537671334.170698,-0.316533,-0.090384,-2.692773,0.910314,-1.018870,-0.432746,-0.310003,0.090261,-0.946441,0.169500,0.109659,-0.083130,-183.061127,-3.393164,-73.797668,,,,,,,
1537671334.180678,-0.324813,-0.080709,-2.695675,0.804954,-0.737906,-0.608673,-0.318092,0.080621,-0.944625,0.186775,0.125555,-0.115372,-183.061127,-3.393164,-73.797668,,,,,,,
1537671334.190657,-0.331355,-0.071361,-2.698409,0.814908,-0.642703,-0.503037,-0.324497,0.071301,-0.943196,0.017338,0.067676,-0.149868,-180.140717,-4.388000,-69.950256,,,,,,,
1537671334.200636,-0.340415,-0.062387,-2.695964,0.971547,-1.035116,0.094927,-0.333229,0.062347,-0.940782,-0.229637,-0.066497,-0.178938,-180.140717,-4.388000,-69.950256,,,,,,,
1537671334.210615,-0.352010,-0.054580,-2.688340,0.978634,-1.219944,0.543482,-0.344272,0.054553,-0.937284,-0.369962,-0.247271,-0.135379,-174.287033,-3.443031,-66.254486,,,,,,,
1537671334.220595,-0.361853,-0.049142,-2.679568,0.755568,-0.944179,0.632715,-0.353581,0.049122,-0.934113,-0.190334,-0.154484,-0.153610,-174.287033,-3.443031,-66.254486,,,,,,,
1537671334.230543,-0.368724,-0.045316,-2.672309,0.588959,-0.669199,0.501293,-0.360055,0.045301,-0.931830,-0.002524,0.003650,-0.153634,-163.527390,0.090805,-62.498596,,,,,,,
1537671334.240523,-0.374301,-0.041246,-2.666969,0.581525,-0.562839,0.298328,-0.365311,0.041234,-0.929972,0.100266,0.122035,-0.128820,-163.527390,0.090805,-62.498596,,,,,,,
1537671334.250502,-0.379432,-0.035985,-2.663081,0.652559,-0.512331,0.131077,-0.370153,0.035977,-0.928274,0.144125,0.151050,-0.117518,-154.593445,3.541234,-61.029541,,,,,,,
1537671334.260481,-0.383576,-0.030076,-2.659453,0.688150,-0.389748,0.126875,-0.374070,0.030071,-0.926913,0.086152,0.124470,-0.091718,-154.593445,3.541234,-61.029541,,,,,,,
1537671334.270460,-0.386041,-0.024673,-2.654922,0.661899,-0.215312,0.248244,-0.376409,0.024670,-0.926125,-0.024897,0.074359,-0.072685,-147.698761,5.992982,-61.262238,,,,,,,
1537671334.280440,-0.386924,-0.020125,-2.649916,0.594661,-0.060036,0.294692,-0.377265,0.020123,-0.925886,-0.102181,0.009555,-0.053819,-147.698761,5.992982,-61.262238,,,,,,,
1537671334.290419,-0.386191,-0.015970,-2.645754,0.527752,0.116270,0.198075,-0.376614,0.015970,-0.926232,-0.093463,-0.008127,-0.045051,-140.993317,9.233451,-63.485901,,,,,,,
1537671334.300398,-0.383001,-0.011370,-2.643138,0.533336,0.390243,0.022762,-0.373682,0.011370,-0.927487,-0.045370,0.022734,-0.031345,-140.993317,9.233451,-63.485901,,,,,,,
1537671334.310377,-0.376494,-0.005544,-2.641878,0.608330,0.742899,-0.137302,-0.367657,0.005544,-0.929945,-0.038990,0.050181,0.014479,-134.870361,11.972443,-66.587585,,,,,,,
1537671334.320357,-0.366352,0.001278,-2.641571,0.657248,1.104348,-0.242016,-0.358212,-0.001278,-0.933639,-0.042408,0.052456,0.057831,-134.870361,11.972443,-66.587585,,,,,,,
1537671334.330305,-0.352829,0.008669,-2.641805,0.688558,1.444654,-0.296629,-0.345541,-0.008669,-0.938364,-0.028208,0.048098,0.089471,-129.744568,14.383718,-71.462952,,,,,,,
1537671334.340285,-0.335719,0.015849,-2.642880,0.609115,1.807930,-0.368946,-0.329407,-0.015849,-0.944055,-0.004242,0.051646,0.106241,-129.744568,14.383718,-71.462952,,,,,,,
1537671334.350264,-0.315104,0.022326,-2.645106,0.512501,2.131788,-0.440256,-0.309838,-0.022324,-0.950527,0.027840,0.065827,0.088146,-125.022385,16.711359,-78.396912,,,,,,,
1537671334.360243,-0.295286,0.028751,-2.648571,0.489001,1.746236,-0.552074,-0.290894,-0.028747,-0.956323,0.019470,0.076660,0.060800,-125.022385,16.711359,-78.396912,,,,,,,
1537671334.370222,-0.299686,0.035963,-2.651778,0.453140,-0.454069,-0.555380,-0.295029,-0.035955,-0.954811,0.064851,0.086950,-0.518394,-123.149612,18.697361,-82.248657,,,,,,,
1537671334.380181,-0.296347,0.039653,-2.657180,0.102668,0.586409,-0.653359,-0.291799,-0.039642,-0.955658,0.065419,0.006943,-0.390503,-123.149612,18.697361,-82.248657,,,,,,,
1537671334.390160,-0.284865,0.042011,-2.664089,0.017924,1.221884,-0.762280,-0.280780,-0.041998,-0.958853,-0.010220,-0.041650,0.188284,-120.539688,19.936464,-82.238953,,,,,,,
1537671334.400139,-0.273139,0.044996,-2.671399,0.111544,1.071882,-0.776562,-0.269483,-0.044981,-0.961954,-0.009128,-0.000857,0.153925,-120.539688,19.936464,-82.238953,,,,,,,
1537671334.410118,-0.270200,0.048586,-2.677002,0.262795,0.066823,-0.584708,-0.266609,-0.048567,-0.962580,0.033043,0.070937,0.020396,-118.445602,21.094292,-83.156189,,,,,,,
1537671334.420098,-0.268150,0.052296,-2.681870,0.238251,0.134260,-0.563564,-0.264585,-0.052272,-0.962945,0.025648,0.067271,-0.085777,-118.445602,21.094292,-83.156189,,,,,,,
1537671334.430046,-0.268729,0.056371,-2.686616,0.255933,-0.099698,-0.583511,-0.265084,-0.056341,-0.962578,0.068444,0.080481,-0.013909,-116.668472,22.113892,-83.253479,,,,,,,
1537671334.440025,-0.271172,0.060527,-2.691918,0.267416,-0.348629,-0.630163,-0.267370,-0.060490,-0.961693,0.102590,0.089985,-0.016715,-116.668472,22.113892,-83.253479,,,,,,,
1537671334.450005,-0.274966,0.064903,-2.697443,0.273853,-0.418115,-0.654609,-0.270943,-0.064858,-0.960408,0.083168,0.097603,0.005254,-115.422119,22.984631,-83.254822,,,,,,,
1537671334.459984,-0.279453,0.069792,-2.702791,0.336525,-0.479277,-0.642462,-0.275158,-0.069735,-0.958866,0.030728,0.098803,0.033879,-115.422119,22.984631,-83.254822,,,,,,,
1537671334.469963,-0.284522,0.075031,-2.707670,0.371186,-0.570140,-0.610156,-0.279909,-0.074960,-0.957096,-0.001829,0.097925,0.055057,-114.639923,23.628878,-83.028015,,,,,,,
1537671334.479942,-0.291169,0.080133,-2.712742,0.338949,-0.764360,-0.643226,-0.286151,-0.080047,-0.954835,0.024768,0.105621,0.050416,-114.639923,23.628878,-83.028015,,,,,,,
1537671334.489922,-0.299810,0.084994,-2.718840,0.266915,-0.961753,-0.757638,-0.294272,-0.084892,-0.951944,0.061072,0.105491,0.013345,-114.347046,23.932829,-82.655029,,,,,,,
1537671334.499901,-0.309766,0.089384,-2.726237,0.178763,-1.093863,-0.841247,-0.303619,-0.089265,-0.948603,0.078003,0.104814,-0.014380,-114.347046,23.932829,-82.655029,,,,,,,
1537671334.509880,-0.319426,0.093604,-2.733989,0.154773,-1.001987,-0.873495,-0.312647,-0.093467,-0.945260,0.008890,0.056068,0.004983,-114.912598,23.374575,-82.216248,,,,,,,
1537671334.519859,-0.325826,0.097682,-2.741580,0.144839,-0.592924,-0.831268,-0.318565,-0.097527,-0.942870,-0.047112,0.024697,0.061736,-114.912598,23.374575,-82.216248,,,,,,,
1537671334.529808,-0.327192,0.101434,-2.748345,0.142178,-0.083424,-0.738930,-0.319733,-0.101260,-0.942081,-0.101562,0.021777,0.120777,-115.202805,22.762526,-82.040344,,,,,,,
1537671334.539787,-0.324768,0.105313,-2.754407,0.197042,0.243100,-0.689861,-0.317321,-0.105118,-0.942474,-0.165131,0.030335,0.138626,-115.202805,22.762526,-82.040344,,,,,,,
1537671334.549767,-0.320840,0.108785,-2.759855,0.149532,0.341775,-0.599488,-0.313500,-0.108571,-0.943361,-0.198646,0.040486,0.075472,-115.034653,22.406612,-82.028992,,,,,,,
1537671334.559746,-0.317134,0.111636,-2.764791,0.100898,0.296242,-0.547398,-0.309903,-0.111404,-0.944219,-0.221591,0.038467,-0.003093,-115.034653,22.406612,-82.028992,,,,,,,
1537671334.569725,-0.314135,0.113571,-2.770060,-0.008973,0.230575,-0.569283,-0.307003,-0.113327,-0.944937,-0.179890,0.073761,-0.002756,-114.959824,22.063797,-82.092041,,,,,,,
1537671334.579704,-0.311035,0.114448,-2.776815,-0.159155,0.249210,-0.705697,-0.304042,-0.114198,-0.945789,-0.130025,0.105608,0.004230,-114.959824,22.063797,-82.092041,,,,,,,
1537671334.589684,-0.306651,0.115105,-2.785251,-0.197917,0.369716,-0.862947,-0.299870,-0.114851,-0.947041,-0.098476,0.146483,0.032002,-114.708588,21.783760,-82.314087,,,,,,,
1537671334.599663,-0.300496,0.116223,-2.795298,-0.183156,0.546525,-1.024224,-0.293997,-0.115961,-0.948746,-0.076913,0.149393,0.027801,-114.708588,21.783760,-82.314087,,,,,,,
1537671334.609642,-0.293063,0.118290,-2.806491,-0.107961,0.640840,-1.166946,-0.286868,-0.118014,-0.950673,-0.074781,0.139682,0.038991,-114.381668,21.109627,-82.322876,,,,,,,
1537671334.619591,-0.285196,0.121645,-2.818802,0.005472,0.668753,-1.309395,-0.279266,-0.121345,-0.952515,-0.066956,0.139274,0.055176,-114.381668,21.109627,-82.322876,,,,,,,
1537671334.629570,-0.276643,0.126502,-2.831705,0.150410,0.741494,-1.385530,-0.270946,-0.126165,-0.954291,-0.062306,0.139028,0.095297,-113.542450,20.433559,-81.961792,,,,,,,
1537671334.639549,-0.265984,0.132949,-2.844626,0.325192,0.966865,-1.414683,-0.260539,-0.132558,-0.956320,-0.077123,0.130788,0.163824,-113.542450,20.433559,-81.961792,,,,,,,
1537671334.649529,-0.252359,0.141318,-2.857235,0.548040,1.268891,-1.425508,-0.247200,-0.140848,-0.958673,-0.094856,0.111460,0.232980,-113.542450,20.433559,-81.961792,,,,,,,
1537671334.659508,-0.235751,0.151726,-2.869211,0.785396,1.555983,-1.392479,-0.230890,-0.151144,-0.961169,-0.104926,0.075659,0.266497,-113.038116,19.468672,-82.622803,,,,,,,
1537671334.669487,-0.217365,0.163825,-2.880340,0.978229,1.683241,-1.324301,-0.212770,-0.163093,-0.963395,-0.107207,0.074150,0.236832,-113.038116,19.468672,-82.622803,,,,,,,
1537671334.679466,-0.199723,0.176986,-2.890479,1.123423,1.631430,-1.234851,-0.195299,-0.176064,-0.964811,-0.100829,0.090172,0.125974,-112.116638,18.756237,-83.555420,,,,,,,
1537671334.689446,-0.177501,0.190234,-2.900614,1.117400,2.133253,-1.242864,-0.173385,-0.189089,-0.966531,-0.102769,0.086748,0.156244,-112.116638,18.756237,-83.555420,,,,,,,
1537671334.699425,-0.151210,0.203487,-2.912132,1.127040,2.502343,-1.369142,-0.147526,-0.202085,-0.968193,-0.083660,0.069746,0.230675,-110.915863,17.626968,-84.261536,,,,,,,
1537671334.709404,-0.123999,0.216180,-2.926147,1.049891,2.425397,-1.587248,-0.120803,-0.214500,-0.969225,-0.018540,0.045204,0.194505,-110.915863,17.626968,-84.261536,,,,,,,
1537671334.719353,-0.094249,0.227097,-2.941490,0.888680,2.695244,-1.610824,-0.091694,-0.225150,-0.970000,0.059391,0.053870,0.100478,-109.217880,16.372023,-85.126526,,,,,,,
1537671334.729332,-0.076243,0.232716,-2.955025,0.198079,0.757605,-1.228368,-0.074116,-0.230621,-0.970217,0.052540,0.041244,0.044725,-109.217880,16.372023,-85.126526,,,,,,,
1537671334.739311,-0.083054,0.231062,-2.964107,-0.384907,-1.070524,-0.797399,-0.080754,-0.229012,-0.970068,0.048406,-0.076149,-0.498529,-114.670212,16.171532,-87.616089,,,,,,,
1537671334.749291,-0.089178,0.226961,-2.970422,-0.432293,-0.604105,-0.496043,-0.086776,-0.225018,-0.970483,0.004760,-0.119800,-0.398398,-114.670212,16.171532,-87.616089,,,,,,,
1537671334.759270,-0.094971,0.224068,-2.973506,-0.269059,-0.785822,-0.203546,-0.092458,-0.222198,-0.970608,0.095876,-0.111161,-0.012012,-163.183258,19.279881,-98.229431,,,,,,,
1537671334.769249,-0.105426,0.224367,-2.974455,0.142843,-1.121896,-0.079256,-0.102594,-0.222489,-0.969522,0.149682,-0.032455,-0.028891,-163.183258,19.279881,-98.229431,,,,,,,
1537671334.779228,-0.116901,0.229262,-2.975595,0.575966,-1.203475,-0.213430,-0.113583,-0.227259,-0.967188,0.209240,-0.049490,0.039164,-248.784332,19.259789,-108.445557,,,,,,,
1537671334.789208,-0.129961,0.237787,-2.978301,0.881325,-1.420129,-0.416486,-0.125949,-0.235553,-0.963666,0.246723,-0.072232,0.142987,-248.784332,19.259789,-108.445557,,,,,,,
1537671334.799187,-0.144071,0.248499,-2.982155,1.043366,-1.520563,-0.546794,-0.139163,-0.245950,-0.959240,0.273547,-0.090156,0.085141,-342.164001,16.114897,-109.139709,,,,,,,
1537671334.809166,-0.156835,0.259720,-2.986711,1.030715,-1.321000,-0.619652,-0.150954,-0.256810,-0.954600,0.240218,-0.098918,0.034526,-342.164001,16.114897,-109.139709,,,,,,,
1537671334.819115,-0.164681,0.269120,-2.991710,0.778364,-0.766631,-0.626934,-0.158037,-0.265883,-0.950963,0.171587,-0.088304,0.034810,-421.281555,11.752481,-101.292236,,,,,,,
1537671334.829094,-0.169170,0.276457,-2.996357,0.578919,-0.449361,-0.540819,-0.161971,-0.272949,-0.948295,0.115798,-0.073578,0.037117,-421.281555,11.752481,-101.292236,,,,,,,
1537671334.839073,-0.168058,0.281236,-3.000484,0.363081,0.129585,-0.449723,-0.160697,-0.277543,-0.947178,0.047507,-0.061629,0.042851,-469.917480,8.814603,-92.143005,,,,,,,
1537671334.849053,-0.159843,0.284904,-3.004653,0.283207,0.894418,-0.470150,-0.152747,-0.281066,-0.947455,-0.000711,-0.061372,0.130148,-469.917480,8.814603,-92.143005,,,,,,,
1537671334.859032,-0.146240,0.287749,-3.009061,0.182756,1.315669,-0.443375,-0.139728,-0.283794,-0.948650,-0.047558,-0.056111,0.212261,-485.610199,9.675071,-88.761597,,,,,,,
1537671334.869011,-0.131236,0.288840,-3.012330,0.026885,1.426809,-0.284225,-0.125438,-0.284840,-0.950332,-0.085545,-0.042980,0.119842,-485.610199,9.675071,-88.761597,,,,,,,
1537671334.878990,-0.117073,0.288408,-3.014169,-0.094261,1.325275,-0.136409,-0.111981,-0.284426,-0.952136,-0.065753,-0.041502,0.087389,-490.658142,13.765335,-87.653076,,,,,,,
1537671334.888970,-0.106080,0.286538,-3.014919,-0.228530,0.989912,-0.022589,-0.101564,-0.282633,-0.953836,-0.016798,-0.039908,0.072336,-490.658142,13.765335,-87.653076,,,,,,,
1537671334.898949,-0.099297,0.283008,-3.014878,-0.398996,0.563911,0.054836,-0.095190,-0.279245,-0.955490,-0.004022,-0.003393,0.041610,-491.902893,17.780308,-87.407532,,,,,,,
1537671334.908928,-0.097176,0.277375,-3.014792,-0.614741,0.107020,0.059452,-0.093315,-0.273832,-0.957240,0.005790,0.017454,0.050242,-491.902893,17.780308,-87.407532,,,,,,,
1537671334.918877,-0.098475,0.269470,-3.015352,-0.862686,-0.224913,0.008251,-0.094768,-0.266221,-0.959242,0.032726,0.045716,0.041167,-493.538177,23.413254,-86.848816,,,,,,,
1537671334.928856,-0.100822,0.259318,-3.016746,-1.073521,-0.270912,-0.050502,-0.097286,-0.256421,-0.961657,0.049541,0.098676,0.040697,-493.538177,23.413254,-86.848816,,,,,,,
1537671334.938835,-0.103267,0.248879,-3.019207,-1.036330,-0.304444,-0.160209,-0.099907,-0.246318,-0.964026,0.068444,0.097972,0.096091,-495.504089,30.616293,-86.121643,,,,,,,
1537671334.948815,-0.104327,0.240676,-3.022768,-0.778593,-0.145941,-0.294522,-0.101137,-0.238359,-0.965897,0.075136,0.095232,0.233948,-495.504089,30.616293,-86.121643,,,,,,,
1537671334.958794,-0.103307,0.236131,-3.027477,-0.398993,0.042849,-0.445275,-0.100261,-0.233943,-0.967067,0.087276,0.116770,0.335429,-496.798767,36.567055,-85.692322,,,,,,,
1537671334.968773,-0.098931,0.235835,-3.033116,0.020367,0.417259,-0.571447,-0.096036,-0.233655,-0.967565,0.079755,0.115735,0.367101,-496.798767,36.567055,-85.692322,,,,,,,
1537671334.978752,-0.089874,0.239247,-3.039074,0.361269,0.874481,-0.610605,-0.087197,-0.236971,-0.967596,0.023583,0.108568,0.384206,-496.804626,38.518860,-85.927917,,,,,,,
1537671334.988732,-0.075488,0.244413,-3.043816,0.481042,1.548998,-0.440906,-0.073175,-0.241986,-0.967516,-0.041312,0.080655,0.366686,-496.804626,38.518860,-85.927917,,,,,,,
1537671334.998711,-0.055982,0.247655,-3.045732,0.213574,1.942927,-0.130007,-0.054246,-0.245131,-0.967971,-0.126083,-0.054796,0.349593,-495.540405,37.067898,-86.544434,,,,,,,
1537671335.008690,-0.042767,0.246579,-3.044305,-0.209381,1.102513,0.247469,-0.041461,-0.244088,-0.968866,-0.225507,-0.127952,-0.044638,-495.540405,37.067898,-86.544434,,,,,,,
1537671335.018639,-0.039888,0.241233,-3.039872,-0.619725,0.181696,0.505544,-0.038723,-0.238900,-0.970272,-0.196094,-0.090339,-0.404255,-494.864227,36.377956,-86.959351,,,,,,,
1537671335.028618,-0.044583,0.232490,-3.033466,-0.913646,-0.477197,0.712751,-0.043369,-0.230401,-0.972129,-0.030697,0.034021,-0.381066,-494.864227,36.377956,-86.959351,,,,,,,
1537671335.038597,-0.054971,0.221822,-3.025150,-1.052278,-0.961834,0.908891,-0.053597,-0.220007,-0.974025,-0.040199,0.009192,-0.267415,-495.422668,36.942791,-87.040710,,,,,,,
1537671335.048577,-0.068250,0.210676,-3.015859,-1.049282,-1.159197,0.988098,-0.066689,-0.209121,-0.975613,-0.030739,-0.019669,-0.200870,-495.422668,36.942791,-87.040710,,,,,,,
,,,,,,,,,,,,,,,,42.293101,-71.262723,45.984192,0.520000,113.906250,1537671334.995847,
1537671335.058556,-0.080742,0.200726,-3.006832,-0.874438,-1.004357,0.933391,-0.079035,-0.199381,-0.976730,-0.028738,0.008432,-0.092973,-495.927612,37.953133,-86.754822,,,,,,,
1537671335.068535,-0.089524,0.193314,-2.999564,-0.605709,-0.648593,0.707138,-0.087739,-0.192112,-0.977443,-0.067427,0.026356,0.028026,-495.927612,37.953133,-86.754822,,,,,,,
1537671335.078514,-0.090923,0.187923,-2.995475,-0.451080,0.102546,0.360304,-0.089199,-0.186819,-0.978337,-0.098179,0.032308,0.087208,-495.700226,38.454933,-86.291748,,,,,,,
1537671335.088494,-0.086107,0.184660,-2.994519,-0.270826,0.609142,0.054422,-0.084539,-0.183612,-0.979357,-0.088939,0.048984,0.083605,-495.700226,38.454933,-86.291748,,,,,,,
1537671335.098473,-0.077371,0.183558,-2.995399,-0.063574,0.931200,-0.111286,-0.075996,-0.182529,-0.980259,-0.065743,0.061420,-0.008770,-495.314423,38.664825,-86.773743,,,,,,,
1537671335.108452,-0.065648,0.184531,-2.997248,0.123778,1.218270,-0.210890,-0.064488,-0.183486,-0.980905,-0.060329,0.056868,-0.070044,-495.314423,38.664825,-86.773743,,,,,,,
1537671335.118401,-0.052353,0.187207,-2.999685,0.301654,1.299414,-0.267645,-0.051415,-0.186115,-0.981182,-0.045326,0.031864,-0.140721,-494.425232,38.582550,-87.120361,,,,,,,
1537671335.128380,-0.038232,0.191540,-3.002700,0.454090,1.390271,-0.341623,-0.037524,-0.190371,-0.980995,-0.025022,0.001909,-0.157540,-494.425232,38.582550,-87.120361,,,,,,,
1537671335.138359,-0.022121,0.196720,-3.007039,0.513486,1.578638,-0.479187,-0.021693,-0.195453,-0.980473,-0.028112,0.003940,-0.125026,-494.425232,38.582550,-87.120361,,,,,,,
1537671335.148338,-0.004163,0.201685,-3.012830,0.476617,1.715217,-0.605487,-0.004079,-0.200321,-0.979722,-0.026622,0.007984,-0.117904,-493.311462,37.602875,-87.295593,,,,,,,
1537671335.158318,0.014910,0.205705,-3.019667,0.380424,1.783888,-0.684003,0.014595,-0.204258,-0.978808,-0.024910,-0.001354,-0.158979,-493.311462,37.602875,-87.295593,,,,,,,
1537671335.168297,0.033661,0.208739,-3.026667,0.303255,1.705317,-0.669402,0.032924,-0.207226,-0.977739,-0.028423,-0.002048,-0.200087,-492.018707,37.171715,-87.941711,,,,,,,
1537671335.178276,0.050264,0.211024,-3.032987,0.241007,1.463461,-0.584109,0.049129,-0.209461,-0.976582,-0.038387,-0.013088,-0.219966,-492.018707,37.171715,-87.941711,,,,,,,
1537671335.188255,0.063998,0.212644,-3.038296,0.173251,1.203517,-0.487079,0.062514,-0.211045,-0.975475,-0.025924,-0.037993,-0.219822,-490.910919,36.746048,-88.089661,,,,,,,
1537671335.198235,0.075694,0.213417,-3.042695,0.082428,1.044024,-0.404155,0.073906,-0.211801,-0.974514,0.002800,-0.053824,-0.176090,-490.910919,36.746048,-88.089661,,,,,,,
1537671335.208214,0.085886,0.213113,-3.045923,-0.039569,0.925348,-0.284083,0.083840,-0.211504,-0.973775,0.025031,-0.086333,-0.117275,-489.963409,36.420143,-88.089417,,,,,,,
1537671335.218163,0.094222,0.211480,-3.047177,-0.192316,0.768584,-0.081941,0.091987,-0.209907,-0.973384,0.040216,-0.137551,-0.070423,-489.963409,36.420143,-88.089417,,,,,,,
1537671335.228142,0.100362,0.208495,-3.046059,-0.355848,0.589466,0.127631,0.098024,-0.206988,-0.973420,0.060377,-0.196622,-0.033355,-489.994202,36.599468,-87.535767,,,,,,,
1537671335.238121,0.103937,0.203630,-3.042942,-0.569227,0.366735,0.292140,0.101606,-0.202225,-0.974054,0.044253,-0.153259,0.001413,-489.994202,36.599468,-87.535767,,,,,,,
1537671335.248100,0.105838,0.196575,-3.038627,-0.815469,0.258189,0.351744,0.103606,-0.195312,-0.975253,-0.000136,-0.039216,0.000903,-515.955322,27.686401,-80.616638,,,,,,,
1537671335.258080,0.106101,0.187254,-3.034562,-1.023269,0.078667,0.270729,0.104051,-0.186162,-0.976994,0.004561,-0.032252,0.058232,-515.955322,27.686401,-80.616638,,,,,,,
1537671335.268059,0.107499,0.175647,-3.031536,-1.244498,0.263172,0.134829,0.105642,-0.174745,-0.978930,0.043238,-0.051390,0.055209,-556.840881,8.260075,-69.467682,,,,,,,
1537671335.278038,0.112383,0.161696,-3.030422,-1.445100,0.575435,-0.117438,0.110684,-0.160993,-0.980729,0.077609,-0.048861,0.118425,-556.840881,8.260075,-69.467682,,,,,,,
1537671335.288017,0.118692,0.145892,-3.032464,-1.577307,0.576415,-0.473626,0.117155,-0.145375,-0.982416,0.159014,0.000035,0.156610,-592.545349,-8.965218,-57.163940,,,,,,,
1537671335.297997,0.123034,0.128802,-3.037186,-1.656911,0.278402,-0.721413,0.121708,-0.128447,-0.984220,0.266903,-0.025423,0.169004,-592.545349,-8.965218,-57.163940,,,,,,,
1537671335.307945,0.122718,0.111783,-3.042634,-1.613199,-0.207676,-0.746299,0.121647,-0.111550,-0.986285,0.247403,-0.142967,0.161868,-605.364258,-16.307186,-52.972290,,,,,,,
1537671335.317925,0.118271,0.096797,-3.047471,-1.351787,-0.569656,-0.623877,0.117443,-0.096646,-0.988366,0.150348,-0.134143,0.155297,-605.364258,-16.307186,-52.972290,,,,,,,
1537671335.327904,0.111672,0.085006,-3.051947,-1.030789,-0.841354,-0.572738,0.111038,-0.084903,-0.990183,0.090744,-0.136563,0.219034,-607.253235,-16.242474,-52.779541,,,,,,,
1537671335.337883,0.098714,0.078211,-3.055148,-0.512080,-1.424304,-0.302440,0.098252,-0.078131,-0.992090,-0.024399,-0.036126,0.242746,-607.253235,-16.242474,-52.779541,,,,,,,
1537671335.347862,0.082853,0.075972,-3.055234,-0.154191,-1.620793,0.050914,0.082520,-0.075898,-0.993695,-0.173447,0.020891,0.298657,-608.379272,-15.884644,-52.790802,,,,,,,
1537671335.357842,0.068152,0.074582,-3.053390,-0.186758,-1.340574,0.193493,0.067910,-0.074513,-0.994905,-0.253198,-0.006908,0.285051,-608.379272,-15.884644,-52.790802,,,,,,,
1537671335.367821,0.059896,0.070997,-3.051019,-0.446400,-0.615269,0.218020,0.059709,-0.070937,-0.995692,-0.205828,-0.018541,0.129481,-609.419922,-15.838928,-53.074646,,,,,,,
1537671335.377789,0.059322,0.064280,-3.048717,-0.761864,0.151824,0.176019,0.059165,-0.064236,-0.996179,-0.196189,-0.005924,0.010370,-609.419922,-15.838928,-53.074646,,,,,,,
1537671335.387768,0.064916,0.055142,-3.046747,-0.963806,0.675950,0.131682,0.064772,-0.055114,-0.996377,-0.137450,0.023422,-0.042411,-608.584778,-15.437923,-53.048706,,,,,,,
1537671335.397748,0.072876,0.045432,-3.045037,-0.975834,0.822195,0.091969,0.072736,-0.045416,-0.996317,-0.068571,0.036093,-0.003561,-608.584778,-15.437923,-53.048706,,,,,,,
1537671335.407696,0.079831,0.036453,-3.043665,-0.884325,0.640149,0.064902,0.079693,-0.036445,-0.996153,0.004932,0.041053,0.028486,-605.698242,-16.429947,-54.926453,,,,,,,
1537671335.417676,0.083460,0.028350,-3.041956,-0.806972,0.269397,0.128680,0.083329,-0.028347,-0.996119,0.077193,0.071499,0.014490,-605.698242,-16.429947,-54.926453,,,,,,,
1537671335.427655,0.083255,0.020716,-3.038876,-0.773154,-0.119084,0.279770,0.083141,-0.020715,-0.996322,0.131000,0.096291,-0.032440,-576.503052,-25.348343,-67.914551,,,,,,,
1537671335.437634,0.078807,0.013753,-3.035059,-0.710785,-0.530344,0.336037,0.078718,-0.013753,-0.996802,0.130145,0.094365,-0.077310,-576.503052,-25.348343,-67.914551,,,,,,,
1537671335.447613,0.072114,0.007516,-3.031261,-0.632250,-0.702665,0.330237,0.072049,-0.007516,-0.997373,0.085605,0.058587,-0.076266,-494.922150,-40.131664,-99.785400,,,,,,,
1537671335.457593,0.063787,0.001802,-3.026932,-0.612270,-0.847746,0.434038,0.063744,-0.001802,-0.997965,0.045769,-0.002623,-0.062872,-494.922150,-40.131664,-99.785400,,,,,,,
1537671335.467572,0.054261,-0.003182,-3.022148,-0.511388,-0.944316,0.457106,0.054234,0.003182,-0.998523,-0.010441,-0.022027,-0.028500,-393.249573,-43.176994,-130.417542,,,,,,,
1537671335.477551,0.045978,-0.007566,-3.017386,-0.438227,-0.783522,0.439196,0.045960,0.007566,-0.998915,-0.032243,-0.005780,0.000639,-393.249573,-43.176994,-130.417542,,,,,,,
1537671335.487530,0.039888,-0.011066,-3.014087,-0.331817,-0.613582,0.289097,0.039875,0.011066,-0.999143,-0.039615,-0.040470,0.030485,-322.580841,-38.790497,-136.504211,,,,,,,
1537671335.497510,0.033744,-0.013693,-3.012212,-0.258820,-0.601506,0.129366,0.033734,0.013693,-0.999337,-0.044705,-0.060201,0.067361,-322.580841,-38.790497,-136.504211,,,,,,,
1537671335.507458,0.028088,-0.016135,-3.012037,-0.242413,-0.561344,-0.017893,0.028081,0.016134,-0.999475,-0.028813,-0.039449,0.039179,-301.338745,-37.158340,-136.901855,,,,,,,
1537671335.517438,0.023038,-0.018378,-3.012286,-0.217588,-0.486755,-0.027437,0.023032,0.018377,-0.999566,-0.004218,-0.017324,0.007714,-301.338745,-37.158340,-136.901855,,,,,,,
1537671335.527417,0.018582,-0.020025,-3.012415,-0.136513,-0.446580,-0.014223,0.018577,0.020023,-0.999627,0.020028,0.032086,-0.000648,-299.083282,-37.056492,-137.156677,,,,,,,
1537671335.537396,0.014882,-0.020640,-3.012642,-0.047550,-0.344582,-0.027717,0.014878,0.020638,-0.999676,0.038939,0.061469,-0.004962,-299.083282,-37.056492,-137.156677,,,,,,,
1537671335.547375,0.012402,-0.020989,-3.012855,-0.048359,-0.211093,-0.016115,0.012399,0.020988,-0.999703,0.036033,0.046227,-0.036384,-298.264984,-37.270214,-137.371155,,,,,,,
1537671335.557355,0.011833,-0.022224,-3.012874,-0.154644,-0.006571,0.000174,0.011830,0.022223,-0.999683,-0.009175,0.041101,-0.076840,-298.264984,-37.270214,-137.371155,,,,,,,
1537671335.567334,0.012908,-0.024249,-3.012909,-0.207510,0.138891,-0.008803,0.012904,0.024246,-0.999623,-0.030467,0.065857,-0.091045,-298.183441,-37.088573,-137.195190,,,,,,,
1537671335.577313,0.014641,-0.025800,-3.013165,-0.129281,0.174723,-0.035097,0.014636,0.025797,-0.999560,-0.015109,0.079977,-0.082898,-298.183441,-37.088573,-137.195190,,,,,,,
1537671335.587292,0.015947,-0.026097,-3.013612,0.006145,0.114199,-0.044967,0.015941,0.026094,-0.999532,0.012776,0.082945,-0.066401,-298.054352,-37.134884,-137.449829,,,,,,,
1537671335.597272,0.016575,-0.025118,-3.013885,0.126296,0.050631,-0.018626,0.016569,0.025115,-0.999547,0.019518,0.058076,-0.071681,-298.054352,-37.134884,-137.449829,,,,,,,
1537671335.607220,0.016873,-0.023218,-3.013929,0.209244,0.024619,0.003204,0.016868,0.023215,-0.999588,0.004357,0.020257,-0.080597,-298.112701,-37.284515,-137.356567,,,,,,,
1537671335.617200,0.016753,-0.020826,-3.013829,0.246319,-0.026794,0.016271,0.016749,0.020825,-0.999643,-0.006144,-0.008343,-0.080496,-298.112701,-37.284515,-137.356567,,,,,,,
1537671335.627179,0.016030,-0.018389,-3.013743,0.238755,-0.083355,0.009882,0.016027,0.018388,-0.999702,-0.018438,-0.023194,-0.074776,-298.112701,-37.284515,-137.356567,,,,,,,
1537671335.637158,0.014991,-0.016400,-3.013875,0.190927,-0.109856,-0.018106,0.014988,0.016400,-0.999753,-0.030445,-0.018582,-0.062793,-298.170807,-37.710396,-137.230164,,,,,,,
1537671335.647137,0.013863,-0.015085,-3.014287,0.123978,-0.103158,-0.045166,0.013861,0.015085,-0.999790,-0.037985,-0.012155,-0.047787,-298.170807,-37.710396,-137.230164,,,,,,,
1537671335.657117,0.013108,-0.014467,-3.014926,0.056042,-0.065489,-0.072262,0.013106,0.014466,-0.999809,-0.046584,-0.007157,-0.022514,-298.175659,-37.522366,-137.256287,,,,,,,
1537671335.667096,0.012448,-0.014421,-3.016120,0.005409,-0.070703,-0.136581,0.012447,0.014420,-0.999819,-0.039607,0.003570,-0.010969,-298.175659,-37.522366,-137.256287,,,,,,,
1537671335.677075,0.011795,-0.014587,-3.017961,-0.007860,-0.056889,-0.196449,0.011794,0.014587,-0.999824,-0.014464,0.013215,-0.006875,-298.436188,-37.836842,-137.016052,,,,,,,
1537671335.687054,0.011075,-0.014648,-3.019852,0.003584,-0.087862,-0.173938,0.011073,0.014647,-0.999831,-0.003536,-0.000442,0.006072,-298.436188,-37.836842,-137.016052,,,,,,,
1537671335.697034,0.008717,-0.014348,-3.020938,0.040851,-0.286505,-0.108420,0.008716,0.014347,-0.999859,-0.058674,-0.022434,-0.000156,-300.357880,-38.167320,-137.343445,,,,,,,
1537671335.706982,0.004774,-0.013688,-3.023332,0.072140,-0.420553,-0.301321,0.004774,0.013687,-0.999895,-0.126981,0.015167,-0.013609,-300.357880,-38.167320,-137.343445,,,,,,,
1537671335.716962,0.000128,-0.013006,-3.027592,0.069110,-0.445401,-0.444346,0.000128,0.013005,-0.999915,-0.073401,0.063792,-0.002785,-334.246429,-46.165710,-138.918884,,,,,,,
1537671335.726941,-0.002992,-0.012031,-3.031450,0.096560,-0.270263,-0.361111,-0.002992,0.012030,-0.999923,-0.017974,0.069024,0.005752,-334.246429,-46.165710,-138.918884,,,,,,,
1537671335.736920,-0.005021,-0.011094,-3.033903,0.090009,-0.179128,-0.202190,-0.005020,0.011094,-0.999926,0.079010,0.005340,0.026293,-386.780090,-60.235943,-135.394897,,,,,,,
