timestamp(unix),attitude_roll(radians),attitude_pitch(radians),attitude_yaw(radians),rotation_rate_x(radians/s),rotation_rate_y(radians/s),rotation_rate_z(radians/s),gravity_x(G),gravity_y(G),gravity_z(G),user_acc_x(G),user_acc_y(G),user_acc_z(G),magnetic_field_x(microteslas),magnetic_field_y(microteslas),magnetic_field_z(microteslas),latitude(degree),longitude(degree),altitude(meter),speed(m/s),course(degree),timestamp(unix),User Mark
,,,,,,,,,,,,,,,,42.293053,-71.262183,48.286621,1.110000,95.625000,1537388292.998927,
1537388376.635285,0.025350,0.456869,3.122738,-0.360487,-0.330604,-0.146012,0.022748,-0.441141,-0.897149,-0.028531,0.049692,0.020486,-1.502653,-34.690914,-47.356628,,,,,,,
,,,,,,,,,,,,,,,,42.293044,-71.262766,56.948860,-1.000000,-1.000000,1537388347.028566,
1537388376.645264,0.023138,0.453837,3.120982,-0.275864,-0.290539,-0.172272,0.020794,-0.438417,-0.898530,-0.027020,0.046205,0.018113,-1.718393,-34.614185,-47.169312,,,,,,,
1537388376.655244,0.021379,0.451732,3.118925,-0.183802,-0.260113,-0.196349,0.019233,-0.436524,-0.899486,-0.025275,0.041367,0.019146,-1.718393,-34.614185,-47.169312,,,,,,,
1537388376.665223,0.020104,0.450440,3.116599,-0.106661,-0.219987,-0.217319,0.018098,-0.435362,-0.900073,-0.022645,0.036726,0.020221,-1.506180,-34.400913,-47.351746,,,,,,,
1537388376.675202,0.019408,0.449672,3.114053,-0.063672,-0.166869,-0.235284,0.017477,-0.434670,-0.900420,-0.022299,0.031990,0.020186,-1.506180,-34.400913,-47.351746,,,,,,,
1537388376.685151,0.019324,0.449138,3.111305,-0.045233,-0.116830,-0.254445,0.017406,-0.434189,-0.900653,-0.023082,0.025940,0.019336,-1.596218,-34.422215,-47.244232,,,,,,,
1537388376.695130,0.019753,0.448628,3.108374,-0.048197,-0.077341,-0.268378,0.017797,-0.433730,-0.900866,-0.022711,0.020873,0.015338,-1.596218,-34.422215,-47.244232,,,,,,,
1537388376.705109,0.020449,0.447963,3.105339,-0.066164,-0.059114,-0.279174,0.018430,-0.433130,-0.901142,-0.019971,0.016855,0.005406,-1.618668,-34.706940,-47.291718,,,,,,,
,,,,,,,,,,,,,,,,42.293044,-71.262766,56.948860,-1.000000,-1.000000,1537388376.680519,
1537388376.715089,0.021177,0.447028,3.102217,-0.094934,-0.064313,-0.284664,0.019094,-0.432288,-0.901533,-0.014685,0.012762,-0.003466,-1.618668,-34.706940,-47.291718,,,,,,,
,,,,,,,,,,,,,,,,42.293044,-71.262766,56.948860,-1.000000,-1.000000,1537388376.683372,
1537388376.725068,0.021788,0.445797,3.099026,-0.123719,-0.080195,-0.292277,0.019657,-0.431178,-0.902052,-0.011494,0.006251,-0.008928,-1.766303,-34.530903,-47.347382,,,,,,,
1537388376.735047,0.022249,0.444293,3.095795,-0.148251,-0.096093,-0.297733,0.020087,-0.429820,-0.902691,-0.008750,0.000758,-0.011433,-1.766303,-34.530903,-47.347382,,,,,,,
,,,,,,,,,,,,,,,,42.293044,-71.262766,56.948860,-1.000000,-1.000000,1537388376.728986,
1537388376.745026,0.022593,0.442691,3.092517,-0.153581,-0.105681,-0.300955,0.020413,-0.428373,-0.903371,-0.003506,-0.002459,-0.012645,-1.510039,-34.371201,-47.289185,,,,,,,
,,,,,,,,,,,,,,,,42.293044,-71.262766,56.948860,-1.000000,-1.000000,1537388376.738762,
1537388376.754975,0.022919,0.441203,3.089161,-0.136446,-0.114333,-0.310459,0.020723,-0.427028,-0.904000,0.003432,-0.004735,-0.008674,-1.510039,-34.371201,-47.289185,,,,,,,
1537388376.764954,0.023340,0.439977,3.085799,-0.107640,-0.098461,-0.306047,0.021115,-0.425919,-0.904514,0.008670,-0.005813,-0.003872,-1.481892,-34.419510,-47.415436,,,,,,,
1537388376.774933,0.023841,0.439061,3.082562,-0.075718,-0.082583,-0.292011,0.021578,-0.425090,-0.904893,0.012633,-0.009938,-0.001372,-1.481892,-34.419510,-47.415436,,,,,,,
1537388376.784913,0.024389,0.438422,3.079445,-0.051252,-0.074140,-0.280146,0.022080,-0.424511,-0.905153,0.015441,-0.017307,-0.000044,-1.318588,-34.606987,-47.511597,,,,,,,
1537388376.794892,0.025049,0.437981,3.076500,-0.032148,-0.052849,-0.262983,0.022682,-0.424112,-0.905325,0.019051,-0.017706,-0.000635,-1.318588,-34.606987,-47.511597,,,,,,,
1537388376.804871,0.025701,0.437756,3.073798,-0.008912,-0.048652,-0.238305,0.023275,-0.423908,-0.905406,0.018488,-0.018749,-0.001424,-1.190720,-34.400276,-47.479065,,,,,,,
1537388376.814850,0.026212,0.437837,3.071390,0.021769,-0.053025,-0.211446,0.023737,-0.423982,-0.905359,0.015173,-0.018386,-0.003043,-1.190720,-34.400276,-47.479065,,,,,,,
1537388376.824830,0.026409,0.438236,3.069273,0.052397,-0.077683,-0.184567,0.023910,-0.424343,-0.905185,0.013916,-0.013447,-0.004376,-1.195556,-34.399063,-47.338715,,,,,,,
1537388376.834778,0.026246,0.438760,3.067399,0.056407,-0.103283,-0.164237,0.023757,-0.424817,-0.904967,0.012696,-0.009219,-0.006288,-1.195556,-34.399063,-47.338715,,,,,,,
1537388376.844758,0.025757,0.439155,3.065704,0.039134,-0.127716,-0.149363,0.023310,-0.425175,-0.904810,0.009679,-0.007839,-0.008489,-1.295289,-34.735958,-47.407104,,,,,,,
1537388376.854737,0.024976,0.439292,3.064139,0.009101,-0.149956,-0.138831,0.022602,-0.425299,-0.904770,0.004787,-0.006479,-0.005951,-1.295289,-34.735958,-47.407104,,,,,,,
1537388376.864716,0.023997,0.439087,3.062669,-0.026223,-0.164705,-0.131536,0.021719,-0.425113,-0.904879,0.000589,-0.003735,-0.000913,-1.188377,-35.123478,-47.270264,,,,,,,
1537388376.874695,0.022947,0.438489,3.061236,-0.066774,-0.164490,-0.130691,0.020774,-0.424572,-0.905155,-0.000892,-0.000477,0.002232,-1.188377,-35.123478,-47.270264,,,,,,,
1537388376.884675,0.021926,0.437510,3.059799,-0.103004,-0.163231,-0.133030,0.019859,-0.423685,-0.905591,0.003212,0.002115,0.004026,-1.386733,-34.825100,-47.417053,,,,,,,
1537388376.894654,0.020977,0.436357,3.058428,-0.114784,-0.150338,-0.124568,0.019010,-0.422640,-0.906097,0.000140,0.002673,0.007828,-1.386733,-34.825100,-47.417053,,,,,,,
1537388376.904603,0.020248,0.435236,3.057149,-0.108381,-0.119397,-0.117089,0.018359,-0.421624,-0.906584,-0.001040,0.004342,0.012633,-1.295490,-34.686077,-47.305389,,,,,,,
1537388376.914582,0.019790,0.434278,3.055956,-0.088114,-0.088520,-0.107403,0.017952,-0.420755,-0.906996,-0.003273,0.006967,0.014357,-1.295490,-34.686077,-47.305389,,,,,,,
1537388376.924561,0.019621,0.433583,3.054895,-0.060413,-0.052331,-0.092343,0.017804,-0.420125,-0.907291,-0.005261,0.009862,0.012943,-1.173386,-34.797112,-47.465881,,,,,,,
1537388376.934540,0.019599,0.433217,3.054099,-0.026450,-0.034304,-0.067624,0.017787,-0.419792,-0.907445,-0.010555,0.008034,0.007955,-1.173386,-34.797112,-47.465881,,,,,,,
1537388376.944520,0.019272,0.433144,3.053493,-0.002159,-0.071774,-0.053572,0.017491,-0.419727,-0.907481,-0.008122,0.009082,0.001201,-1.140470,-34.645142,-47.485291,,,,,,,
1537388376.954499,0.018434,0.433118,3.052858,-0.004377,-0.124093,-0.059936,0.016731,-0.419703,-0.907507,0.003746,0.017039,-0.005411,-1.140470,-34.645142,-47.485291,,,,,,,
1537388376.964478,0.017176,0.432893,3.052073,-0.028889,-0.170970,-0.074971,0.015591,-0.419498,-0.907622,0.014683,0.021625,-0.003450,-1.140470,-34.645142,-47.485291,,,,,,,
1537388376.974427,0.015586,0.432392,3.051206,-0.055612,-0.203937,-0.079354,0.014151,-0.419043,-0.907855,0.016367,0.018607,0.004001,-1.030417,-34.732841,-47.449463,,,,,,,
1537388376.984406,0.013612,0.431678,3.050519,-0.074046,-0.234756,-0.057006,0.012363,-0.418395,-0.908180,0.010037,0.008636,0.010796,-1.030417,-34.732841,-47.449463,,,,,,,
1537388376.994385,0.011226,0.430954,3.050167,-0.070132,-0.256059,-0.024940,0.010199,-0.417737,-0.908510,0.005731,0.001996,0.018373,-1.136650,-34.770397,-47.462036,,,,,,,
1537388377.004365,0.008824,0.430417,3.050297,-0.048097,-0.225104,0.024252,0.008019,-0.417250,-0.908756,0.000175,0.000486,0.029163,-1.136650,-34.770397,-47.462036,,,,,,,
1537388377.014344,0.006267,0.430251,3.050977,-0.005892,-0.234829,0.072529,0.005696,-0.417099,-0.908843,-0.006047,0.000336,0.034468,-1.382558,-34.674099,-47.339447,,,,,,,
1537388377.024323,0.003143,0.430411,3.052084,0.020345,-0.275455,0.109005,0.002856,-0.417244,-0.908789,-0.001681,0.004906,0.032492,-1.382558,-34.674099,-47.339447,,,,,,,
1537388377.034302,-0.000172,0.430643,3.053525,0.023281,-0.267929,0.139970,-0.000156,-0.417455,-0.908697,0.000492,0.013433,0.042150,-1.241543,-34.627960,-47.352386,,,,,,,
1537388377.044282,-0.003155,0.430836,3.055323,0.021039,-0.199520,0.170846,-0.002867,-0.417631,-0.908612,-0.009752,0.019575,0.062634,-1.241543,-34.627960,-47.352386,,,,,,,
1537388377.054230,-0.005407,0.431045,3.057448,0.020941,-0.120437,0.204924,-0.004913,-0.417821,-0.908516,-0.019852,0.022496,0.087074,-1.582579,-34.601032,-47.299377,,,,,,,
1537388377.064210,-0.007063,0.431154,3.060329,0.011962,-0.017708,0.285892,-0.006417,-0.417920,-0.908461,-0.042534,0.021100,0.081327,-1.582579,-34.601032,-47.299377,,,,,,,
1537388377.074189,-0.008068,0.431504,3.064585,0.049438,0.106249,0.423674,-0.007329,-0.418237,-0.908308,-0.088863,0.000986,0.103269,-1.862814,-34.468861,-47.224884,,,,,,,
1537388377.084168,-0.008598,0.432382,3.070421,0.106057,0.223697,0.563706,-0.007807,-0.419035,-0.907936,-0.117559,-0.003221,0.127189,-1.862814,-34.468861,-47.224884,,,,,,,
1537388377.094147,-0.008123,0.433730,3.077476,0.150406,0.390240,0.663054,-0.007371,-0.420258,-0.907374,-0.123458,0.033890,0.146266,-1.770816,-34.488518,-47.333893,,,,,,,
1537388377.104127,-0.005926,0.435351,3.085265,0.172904,0.603775,0.716333,-0.005373,-0.421729,-0.906705,-0.139249,0.075705,0.154188,-1.770816,-34.488518,-47.333893,,,,,,,
1537388377.114106,-0.001951,0.437207,3.093048,0.193792,0.760570,0.696007,-0.001767,-0.423411,-0.905936,-0.150851,0.110285,0.148596,-1.464793,-34.282955,-47.609283,,,,,,,
1537388377.124055,0.003267,0.439146,3.099956,0.192725,0.834033,0.600926,0.002957,-0.425167,-0.905110,-0.145581,0.140193,0.134297,-1.464793,-34.282955,-47.609283,,,,,,,
1537388377.134034,0.009700,0.440740,3.105303,0.137758,0.884159,0.444726,0.008772,-0.426609,-0.904393,-0.133681,0.160831,0.115452,-0.689411,-34.296566,-47.961578,,,,,,,
1537388377.144013,0.017201,0.441312,3.108751,0.022068,0.900398,0.269012,0.015553,-0.427126,-0.904057,-0.118504,0.163149,0.081914,-0.689411,-34.296566,-47.961578,,,,,,,
1537388377.153992,0.024906,0.440434,3.110387,-0.129258,0.812222,0.108153,0.022527,-0.426333,-0.904285,-0.104344,0.145433,0.041920,0.583344,-34.404720,-48.420502,,,,,,,
1537388377.163972,0.031418,0.437930,3.110577,-0.294005,0.605686,-0.018505,0.028449,-0.424065,-0.905184,-0.084327,0.116555,0.009066,0.583344,-34.404720,-48.420502,,,,,,,
,,,,,,,,,,,,,,,,42.293155,-71.262873,59.066177,-1.000000,-1.000000,1537388377.147094,
1537388377.173951,0.036045,0.433644,3.109941,-0.471101,0.381187,-0.086499,0.032701,-0.420181,-0.906850,-0.063341,0.087615,-0.011744,2.355932,-34.076233,-48.899567,,,,,,,
1537388377.183930,0.038815,0.427751,3.108988,-0.621802,0.194001,-0.114887,0.035309,-0.414825,-0.909215,-0.045425,0.067093,-0.015162,2.355932,-34.076233,-48.899567,,,,,,,
1537388377.193879,0.040430,0.420841,3.107932,-0.707301,0.103673,-0.125939,0.036892,-0.408528,-0.911999,-0.030926,0.049169,0.003079,3.946044,-33.574772,-49.409882,,,,,,,
1537388377.203858,0.042114,0.413572,3.106853,-0.724249,0.142198,-0.127140,0.038552,-0.401883,-0.914878,-0.024270,0.030698,0.026878,3.946044,-33.574772,-49.409882,,,,,,,
1537388377.213837,0.045026,0.406594,3.105881,-0.679102,0.297863,-0.117443,0.041341,-0.395484,-0.917542,-0.010900,-0.001565,0.041946,5.843490,-32.683716,-50.011108,,,,,,,
1537388377.223817,0.050265,0.400659,3.105140,-0.551688,0.572731,-0.083933,0.046265,-0.390025,-0.919641,0.058044,-0.065297,0.057901,5.843490,-32.683716,-50.011108,,,,,,,
1537388377.233796,0.057791,0.396685,3.105659,-0.346541,0.834655,0.077045,0.053274,-0.386363,-0.920806,0.105677,-0.126103,0.078384,7.826941,-31.791698,-50.596924,,,,,,,
1537388377.243775,0.066633,0.395078,3.108596,-0.122071,1.056097,0.326772,0.061454,-0.384880,-0.920918,0.119667,-0.171852,0.079228,7.826941,-31.791698,-50.596924,,,,,,,
1537388377.253754,0.076421,0.395677,3.114311,0.064782,1.245759,0.598738,0.070447,-0.385433,-0.920042,0.134844,-0.204640,0.073530,9.510792,-31.029991,-51.129242,,,,,,,
1537388377.263734,0.086502,0.397934,3.122596,0.190939,1.360924,0.835221,0.079644,-0.387514,-0.918416,0.127647,-0.206129,0.043813,9.510792,-31.029991,-51.129242,,,,,,,
1537388377.273682,0.096666,0.401170,3.132552,0.249507,1.420725,0.980656,0.088853,-0.390496,-0.916306,0.126540,-0.175163,0.016694,10.672687,-30.615353,-51.874207,,,,,,,
1537388377.283662,0.106111,0.404588,-3.139667,0.221898,1.331349,1.055316,0.097361,-0.393640,-0.914093,0.097829,-0.119772,-0.027832,10.672687,-30.615353,-51.874207,,,,,,,
1537388377.293641,0.113921,0.407215,-3.129110,0.134838,1.166107,0.960003,0.104379,-0.396053,-0.912275,0.072775,-0.030384,-0.087496,10.681517,-30.510227,-53.220734,,,,,,,
1537388377.303620,0.120908,0.408836,-3.119991,0.036491,1.022192,0.824040,0.110673,-0.397542,-0.910885,0.086272,-0.002773,-0.093373,10.681517,-30.510227,-53.220734,,,,,,,
1537388377.313599,0.126152,0.409690,-3.111584,-0.019039,0.805616,0.765245,0.115405,-0.398325,-0.909955,0.045575,-0.020315,-0.106387,10.030027,-30.123283,-54.796600,,,,,,,
1537388377.323579,0.130590,0.410778,-3.103952,0.053219,0.797569,0.678120,0.119386,-0.399323,-0.909003,0.045363,-0.002151,-0.045541,10.030027,-30.123283,-54.796600,,,,,,,
1537388377.333558,0.148275,0.415901,-3.099702,0.540356,2.155768,0.436038,0.135138,-0.404014,-0.904715,0.119027,0.069496,0.421423,9.785473,-29.957653,-57.013824,,,,,,,
1537388377.343506,0.162809,0.425091,-3.094205,1.090488,1.451003,0.734385,0.147664,-0.412404,-0.898953,-0.122655,-0.037120,0.222272,9.785473,-29.957653,-57.013824,,,,,,,
1537388377.353459,0.171017,0.434078,-3.086290,0.739578,1.116792,0.854488,0.154401,-0.420574,-0.894022,-0.097379,-0.090534,-0.218587,10.293285,-30.652809,-59.222015,,,,,,,
1537388377.363438,0.178981,0.442634,-3.079401,0.757593,1.080143,0.740408,0.160869,-0.428321,-0.889191,0.071629,0.000937,-0.076522,10.293285,-30.652809,-59.222015,,,,,,,
1537388377.373417,0.192081,0.440082,-3.070847,-0.542341,1.504302,0.679474,0.172712,-0.426013,-0.888077,-0.005781,-0.032498,0.137986,12.110666,-30.598743,-61.169678,,,,,,,
1537388377.383396,0.190278,0.435873,-3.063782,-0.840401,-0.328740,0.525981,0.171448,-0.422202,-0.890140,0.061233,-0.005716,-0.281125,12.110666,-30.598743,-61.169678,,,,,,,
1537388377.393376,0.175404,0.427655,-3.057871,-1.048367,-1.376556,0.322018,0.158790,-0.414738,-0.895978,0.138573,0.124974,-0.380847,14.738132,-29.980145,-62.816376,,,,,,,
1537388377.403355,0.157199,0.415970,-3.054391,-1.247434,-1.726307,0.052286,0.143202,-0.404078,-0.903445,0.101183,0.170343,-0.204328,14.738132,-29.980145,-62.816376,,,,,,,
1537388377.413304,0.144173,0.402129,-3.053859,-1.445496,-0.928298,-0.215405,0.132213,-0.391379,-0.910682,0.038060,0.178961,0.017142,14.738132,-29.980145,-62.816376,,,,,,,
1537388377.423283,0.150482,0.391217,-3.056195,-0.921429,0.792797,-0.421357,0.138588,-0.381314,-0.913998,-0.106407,0.100888,0.553341,19.507574,-29.116077,-65.158173,,,,,,,
1537388377.433262,0.163659,0.387432,-3.060613,-0.141145,1.275534,-0.432510,0.150854,-0.377812,-0.913510,-0.227147,-0.007549,0.234494,19.507574,-29.116077,-65.158173,,,,,,,
1537388377.443241,0.178699,0.390148,-3.063493,0.438001,1.419419,-0.135932,0.164392,-0.380326,-0.910124,-0.176508,0.026291,0.174330,29.610588,-27.171959,-70.222931,,,,,,,
1537388377.453221,0.185267,0.394443,-3.063205,0.407313,0.598142,0.171090,0.170063,-0.384294,-0.907411,-0.049336,0.025331,-0.070250,29.610588,-27.171959,-70.222931,,,,,,,
1537388377.463200,0.186991,0.397576,-3.060968,0.236733,0.177513,0.264514,0.171403,-0.387184,-0.905929,0.056319,-0.012413,-0.156037,43.743210,-23.931023,-76.232941,,,,,,,
1537388377.473179,0.188251,0.398175,-3.058402,-0.048600,0.273954,0.227625,0.172501,-0.387737,-0.905485,-0.009476,-0.066029,-0.139666,43.743210,-23.931023,-76.232941,,,,,,,
1537388377.483158,0.191432,0.396734,-3.056119,-0.218304,0.448744,0.168878,0.175487,-0.386408,-0.905479,-0.001903,0.032160,-0.076195,61.841778,-21.101486,-81.721375,,,,,,,
1537388377.493107,0.195259,0.394547,-3.054200,-0.266994,0.453181,0.128043,0.179114,-0.384390,-0.905627,0.041604,0.012320,-0.018857,61.841778,-21.101486,-81.721375,,,,,,,
1537388377.503086,0.197655,0.392438,-3.051675,-0.244834,0.276028,0.218010,0.181442,-0.382443,-0.905988,0.044144,-0.038868,-0.033343,91.935951,-18.421654,-85.549988,,,,,,,
1537388377.513067,0.197800,0.390742,-3.048211,-0.231085,0.102094,0.295118,0.181701,-0.380874,-0.906597,0.088548,-0.049698,-0.055897,91.935951,-18.421654,-85.549988,,,,,,,
1537388377.523045,0.197159,0.389207,-3.044460,-0.223917,0.057256,0.314417,0.181234,-0.379455,-0.907285,0.108912,-0.047608,-0.057955,124.722626,-17.680408,-84.168457,,,,,,,
1537388377.533024,0.195399,0.387365,-3.040761,-0.257158,-0.050436,0.300466,0.179772,-0.377750,-0.908287,0.090385,-0.043546,-0.067787,124.722626,-17.680408,-84.168457,,,,,,,
1537388377.543003,0.193986,0.385439,-3.035995,-0.281591,0.074919,0.441110,0.178628,-0.375966,-0.909252,0.073660,-0.100230,-0.024051,155.909988,-19.769028,-77.969910,,,,,,,
1537388377.552984,0.193539,0.383747,-3.029196,-0.287186,0.255819,0.638374,0.178344,-0.374398,-0.909955,0.063935,-0.166816,0.019559,155.909988,-19.769028,-77.969910,,,,,,,
1537388377.562931,0.192860,0.382361,-3.020743,-0.291626,0.209126,0.757953,0.177826,-0.373112,-0.910584,0.066544,-0.152523,0.018601,182.455963,-24.424133,-69.432892,,,,,,,
1537388377.572912,0.190352,0.380995,-3.012647,-0.275597,0.002839,0.694203,0.175637,-0.371845,-0.911527,0.129691,-0.066266,-0.059496,182.455963,-24.424133,-69.432892,,,,,,,
1537388377.582891,0.187061,0.379435,-3.005372,-0.286802,-0.063471,0.616286,0.172745,-0.370396,-0.912669,0.108505,-0.018688,-0.056844,198.110397,-30.516987,-63.256287,,,,,,,
1537388377.592870,0.184554,0.377176,-2.998757,-0.358492,0.029650,0.550684,0.170609,-0.368297,-0.913919,0.051879,-0.030034,-0.016150,198.110397,-30.516987,-63.256287,,,,,,,
1537388377.602849,0.184887,0.373580,-2.992663,-0.494502,0.330209,0.467433,0.171155,-0.364950,-0.915159,0.005358,-0.015390,0.071790,205.199402,-35.986023,-61.257996,,,,,,,
1537388377.612828,0.187550,0.368909,-2.988409,-0.610726,0.517260,0.284072,0.173908,-0.360598,-0.916364,-0.032230,0.034929,0.110166,205.199402,-35.986023,-61.257996,,,,,,,
1537388377.622808,0.193988,0.362425,-2.984655,-0.695522,0.839961,0.202156,0.180251,-0.354543,-0.917501,-0.132353,0.029470,0.106222,206.777191,-39.727745,-62.267944,,,,,,,
1537388377.632756,0.203067,0.356020,-2.981624,-0.698540,1.083269,0.138913,0.189028,-0.348547,-0.918032,-0.092943,0.072378,0.168962,206.777191,-39.727745,-62.267944,,,,,,,
1537388377.642735,0.212370,0.349860,-2.978979,-0.647345,0.979374,0.110477,0.198008,-0.342766,-0.918315,-0.096171,0.063805,0.101146,207.663910,-42.272854,-63.097534,,,,,,,
1537388377.652714,0.218515,0.343965,-2.976623,-0.623570,0.596953,0.080039,0.204082,-0.337222,-0.919038,-0.053753,0.067905,-0.021468,207.663910,-42.272854,-63.097534,,,,,,,
1537388377.662694,0.221957,0.337950,-2.974846,-0.624770,0.350192,0.020507,0.207687,-0.331554,-0.920292,-0.000503,0.087596,-0.043697,207.658554,-42.338810,-63.906281,,,,,,,
1537388377.672673,0.224215,0.332007,-2.973170,-0.613267,0.268991,0.021719,0.210199,-0.325941,-0.921725,-0.016916,0.072554,-0.007886,207.658554,-42.338810,-63.906281,,,,,,,
1537388377.682652,0.227509,0.326512,-2.971528,-0.546769,0.424548,0.031531,0.213634,-0.320741,-0.922759,-0.032940,0.064836,0.056411,208.079239,-42.083828,-64.237549,,,,,,,
1537388377.692631,0.230950,0.321798,-2.970429,-0.453683,0.356689,-0.016992,0.217152,-0.316273,-0.923480,-0.017384,0.082203,0.044131,208.079239,-42.083828,-64.237549,,,,,,,
1537388377.702580,0.233145,0.318752,-2.969992,-0.252344,0.190105,-0.032798,0.219401,-0.313382,-0.923934,-0.025843,0.105633,0.020598,209.155151,-42.140747,-64.119904,,,,,,,
1537388377.712559,0.233910,0.317807,-2.970255,-0.030655,0.044765,-0.050648,0.220175,-0.312484,-0.924054,-0.051291,0.120193,0.011792,209.155151,-42.140747,-64.119904,,,,,,,
1537388377.722538,0.234916,0.318664,-2.971249,0.144684,0.099304,-0.075357,0.221043,-0.313299,-0.923571,-0.035801,0.107869,0.017870,210.046356,-42.329853,-64.105011,,,,,,,
1537388377.732518,0.237696,0.320789,-2.972587,0.264655,0.285525,-0.071685,0.223452,-0.315315,-0.922304,-0.035281,0.082649,0.048479,210.046356,-42.329853,-64.105011,,,,,,,
1537388377.742497,0.242248,0.324074,-2.973924,0.379998,0.453702,-0.032797,0.227398,-0.318431,-0.920266,-0.056240,0.058254,0.073678,211.635834,-42.859928,-63.611023,,,,,,,
1537388377.752476,0.248408,0.328605,-2.974762,0.484225,0.640198,0.058319,0.232706,-0.322723,-0.917440,-0.075708,0.051391,0.088018,211.635834,-42.859928,-63.611023,,,,,,,
1537388377.762455,0.256306,0.334145,-2.974793,0.555318,0.845043,0.160978,0.239487,-0.327962,-0.913830,-0.074967,0.046834,0.088162,215.242874,-43.832096,-63.106476,,,,,,,
1537388377.772435,0.266211,0.340434,-2.973948,0.598700,1.066055,0.265602,0.247979,-0.333896,-0.909405,-0.071115,0.039554,0.087094,215.242874,-43.832096,-63.106476,,,,,,,
1537388377.782383,0.277837,0.347239,-2.972244,0.616559,1.290388,0.362610,0.257906,-0.340302,-0.904255,-0.065187,0.029771,0.075886,221.748184,-45.310146,-62.054871,,,,,,,
1537388377.792363,0.292290,0.354218,-2.969560,0.592022,1.632396,0.463537,0.270257,-0.346857,-0.898137,-0.070260,0.016870,0.080693,221.748184,-45.310146,-62.054871,,,,,,,
1537388377.802342,0.308491,0.361146,-2.966089,0.560744,1.727721,0.527318,0.284035,-0.353347,-0.891329,-0.071664,-0.001435,0.044680,232.127563,-47.713013,-60.333130,,,,,,,
1537388377.812321,0.322081,0.367916,-2.962695,0.541928,1.390375,0.500870,0.295357,-0.359672,-0.885098,-0.020180,0.014747,-0.076618,232.127563,-47.713013,-60.333130,,,,,,,
1537388377.822300,0.333447,0.374127,-2.959665,0.478898,1.231537,0.462257,0.304661,-0.365460,-0.879556,0.035000,0.017590,-0.101065,251.476547,-50.708870,-57.976288,,,,,,,
1537388377.832280,0.344659,0.379383,-2.956426,0.358614,1.305820,0.454050,0.313851,-0.370347,-0.874265,0.023018,-0.028762,-0.056811,251.476547,-50.708870,-57.976288,,,,,,,
1537388377.842259,0.355862,0.383015,-2.953115,0.194617,1.228618,0.397721,0.323154,-0.373719,-0.869427,-0.053852,-0.052047,-0.022708,286.542145,-53.416164,-55.304657,,,,,,,
1537388377.852208,0.365052,0.384793,-2.949753,0.007720,0.989260,0.346768,0.330892,-0.375367,-0.865799,-0.003194,-0.071319,-0.019287,286.542145,-53.416164,-55.304657,,,,,,,
1537388377.862187,0.371067,0.385092,-2.946009,-0.112689,0.625800,0.339001,0.336053,-0.375644,-0.863688,0.079016,-0.082196,-0.017980,286.542145,-53.416164,-55.304657,,,,,,,
1537388377.872166,0.374359,0.385016,-2.941670,-0.165908,0.476731,0.396502,0.338905,-0.375574,-0.862604,0.064003,-0.105933,-0.006216,334.693604,-54.048084,-50.986145,,,,,,,
1537388377.882145,0.374588,0.385396,-2.934751,-0.208899,0.132709,0.675220,0.339051,-0.375926,-0.862393,0.037200,-0.097661,0.023831,334.693604,-54.048084,-50.986145,,,,,,,
1537388377.892125,0.370679,0.384867,-2.926786,-0.366366,-0.141954,0.661825,0.335748,-0.375436,-0.863897,0.125158,-0.086249,-0.021479,374.958069,-52.863987,-45.489288,,,,,,,
1537388377.902104,0.365156,0.382558,-2.918635,-0.521980,-0.277930,0.603468,0.331281,-0.373295,-0.866546,0.137026,-0.065197,-0.093385,374.958069,-52.863987,-45.489288,,,,,,,
1537388377.912083,0.358314,0.378995,-2.911308,-0.585354,-0.465784,0.478419,0.325809,-0.369987,-0.870032,0.119824,-0.067575,-0.129937,406.037659,-50.457573,-39.239227,,,,,,,
1537388377.922032,0.350474,0.374978,-2.905549,-0.551240,-0.601902,0.323966,0.319485,-0.366252,-0.873949,0.109424,-0.054707,-0.123457,406.037659,-50.457573,-39.239227,,,,,,,
1537388377.932011,0.342425,0.371339,-2.901966,-0.416441,-0.699105,0.140135,0.312887,-0.362863,-0.877742,0.107554,-0.029089,-0.081639,435.895447,-48.015358,-31.956482,,,,,,,
1537388377.941990,0.335138,0.368896,-2.900798,-0.214391,-0.669515,-0.006101,0.306773,-0.360586,-0.880833,0.104696,-0.021616,-0.046718,435.895447,-48.015358,-31.956482,,,,,,,
1537388377.951969,0.329107,0.368208,-2.900629,-0.024315,-0.581878,0.002325,0.301535,-0.359945,-0.882901,0.066583,-0.033412,-0.024707,462.795166,-49.006809,-25.822296,,,,,,,
1537388377.961949,0.321857,0.369138,-2.899981,0.084753,-0.812770,0.138724,0.295020,-0.360811,-0.884746,0.095712,-0.054868,-0.072483,462.795166,-49.006809,-25.822296,,,,,,,
1537388377.971928,0.313681,0.371084,-2.898290,0.142842,-0.703961,0.235003,0.287559,-0.362626,-0.886460,0.113747,-0.105575,-0.082535,491.835632,-56.037243,-19.320740,,,,,,,
1537388377.981907,0.307216,0.373196,-2.895699,0.126723,-0.485913,0.309420,0.281590,-0.364594,-0.887568,0.084453,-0.101227,-0.037298,491.835632,-56.037243,-19.320740,,,,,,,
1537388377.991886,0.302203,0.375162,-2.892755,0.099280,-0.367250,0.312351,0.276923,-0.366423,-0.888282,0.085992,-0.070421,-0.050225,516.245483,-65.714676,-11.740784,,,,,,,
1537388378.001835,0.298298,0.376702,-2.890327,0.074576,-0.276517,0.242738,0.273287,-0.367856,-0.888816,0.057936,-0.070224,-0.054680,516.245483,-65.714676,-11.740784,,,,,,,
1537388378.011814,0.295084,0.378042,-2.888707,0.087088,-0.262879,0.162734,0.270285,-0.369101,-0.889218,0.024820,-0.044931,-0.041934,558.948608,-74.700714,5.356110,,,,,,,
1537388378.021794,0.291528,0.379235,-2.887961,0.098367,-0.337876,0.073208,0.266995,-0.370210,-0.889751,0.031986,-0.029143,-0.054127,558.948608,-74.700714,5.356110,,,,,,,
1537388378.031773,0.288028,0.380297,-2.888412,0.118525,-0.371328,-0.039798,0.263767,-0.371196,-0.890302,0.022656,-0.016148,-0.054369,616.771973,-90.222816,33.042450,,,,,,,
1537388378.041752,0.284757,0.381421,-2.889888,0.154393,-0.397308,-0.117501,0.260736,-0.372240,-0.890760,0.018118,0.000871,-0.049899,616.771973,-90.222816,33.042450,,,,,,,
1537388378.051731,0.281104,0.382635,-2.892085,0.178149,-0.462671,-0.167475,0.257355,-0.373366,-0.891271,0.032791,-0.009004,-0.052927,669.707214,-109.587608,63.279999,,,,,,,
1537388378.061711,0.274679,0.383981,-2.894566,0.198645,-0.866428,-0.196840,0.251486,-0.374615,-0.892422,0.064157,-0.012592,-0.052280,669.707214,-109.587608,63.279999,,,,,,,
1537388378.071659,0.265527,0.384830,-2.897470,0.132438,-1.054100,-0.246116,0.243225,-0.375402,-0.894379,0.087967,0.002538,-0.036133,697.596130,-122.584480,81.279144,,,,,,,
1537388378.081640,0.255968,0.384683,-2.899946,0.013741,-1.049134,-0.214751,0.234678,-0.375265,-0.896716,0.073183,-0.040186,0.002261,697.596130,-122.584480,81.279144,,,,,,,
1537388378.091618,0.246325,0.383330,-2.902153,-0.111863,-1.056022,-0.248524,0.226145,-0.374010,-0.899429,0.063818,-0.035185,0.002991,714.208496,-136.747086,92.803314,,,,,,,
1537388378.101597,0.236416,0.380594,-2.904800,-0.238304,-1.103566,-0.320686,0.217460,-0.371472,-0.902617,0.064019,-0.004550,-0.004304,714.208496,-136.747086,92.803314,,,,,,,
1537388378.111576,0.226596,0.376625,-2.908237,-0.335422,-1.107576,-0.434365,0.208915,-0.367784,-0.906139,0.067238,0.015993,-0.012364,729.700928,-161.750488,103.578888,,,,,,,
1537388378.121557,0.217864,0.372032,-2.912639,-0.367416,-0.996541,-0.515784,0.201359,-0.363509,-0.909568,0.049694,0.042571,0.012336,729.700928,-161.750488,103.578888,,,,,,,
1537388378.131536,0.208164,0.367568,-2.917678,-0.324837,-1.222168,-0.571897,0.192859,-0.359347,-0.913057,-0.003086,0.039858,0.016939,744.165955,-188.136047,113.973602,,,,,,,
1537388378.141484,0.197130,0.363602,-2.923883,-0.256952,-1.335938,-0.679219,0.183051,-0.355643,-0.916520,-0.000174,0.046164,0.033586,744.165955,-188.136047,113.973602,,,,,,,
1537388378.151464,0.187437,0.359813,-2.931490,-0.235180,-1.201795,-0.801993,0.174408,-0.352099,-0.919569,0.017761,0.034686,0.067411,747.069397,-195.340973,116.375427,,,,,,,
1537388378.161443,0.178977,0.355849,-2.940027,-0.250371,-1.141014,-0.872588,0.166869,-0.348387,-0.922377,0.034028,0.020979,0.036269,747.069397,-195.340973,116.375427,,,,,,,
1537388378.171422,0.170088,0.351788,-2.948396,-0.269085,-1.200607,-0.827798,0.158902,-0.344577,-0.925211,0.023944,0.016620,-0.001028,746.974670,-195.243210,116.859406,,,,,,,
1537388378.181401,0.160139,0.347731,-2.955800,-0.290427,-1.261131,-0.728583,0.149912,-0.340765,-0.928119,0.012457,0.007178,-0.015821,746.974670,-195.243210,116.859406,,,,,,,
1537388378.191381,0.149853,0.343879,-2.962295,-0.280515,-1.238567,-0.639953,0.140552,-0.337142,-0.930902,0.038174,0.007415,0.002604,746.109009,-194.882156,116.572845,,,,,,,
1537388378.201360,0.140253,0.340801,-2.967776,-0.207581,-1.107380,-0.527602,0.131753,-0.334242,-0.933232,0.033194,-0.012560,0.045247,746.109009,-194.882156,116.572845,,,,,,,
1537388378.211308,0.132159,0.338986,-2.972102,-0.096190,-0.902687,-0.398037,0.124275,-0.332531,-0.934868,0.000679,-0.028492,0.085121,745.618042,-194.700317,116.918976,,,,,,,
1537388378.221287,0.126059,0.338535,-2.975379,0.026154,-0.659661,-0.288730,0.118589,-0.332105,-0.935757,-0.029249,-0.026354,0.109646,745.618042,-194.700317,116.918976,,,,,,,
1537388378.231266,0.121925,0.339334,-2.977969,0.133818,-0.451871,-0.216831,0.114688,-0.332859,-0.935976,-0.047763,-0.018734,0.113756,745.662842,-195.000381,117.288757,,,,,,,
1537388378.241246,0.119330,0.341053,-2.980044,0.209471,-0.293062,-0.160000,0.112190,-0.334479,-0.935701,-0.057915,-0.015771,0.102357,745.662842,-195.000381,117.288757,,,,,,,
1537388378.251225,0.116658,0.342741,-2.981788,0.154688,-0.403797,-0.152716,0.109624,-0.336070,-0.935435,-0.047780,-0.010060,0.041651,745.628174,-195.177887,117.363190,,,,,,,
1537388378.261204,0.109929,0.342206,-2.983531,-0.095834,-0.820002,-0.181425,0.103347,-0.335566,-0.936330,-0.037688,0.027247,-0.132777,745.628174,-195.177887,117.363190,,,,,,,
1537388378.271183,0.100083,0.338944,-2.986028,-0.368806,-1.164759,-0.301061,0.094232,-0.332492,-0.938386,-0.010156,0.052874,-0.125243,745.043518,-195.054901,117.761536,,,,,,,
1537388378.281163,0.087363,0.332862,-2.989377,-0.641842,-1.440065,-0.395145,0.082463,-0.326749,-0.941506,-0.022130,0.058011,-0.125922,745.043518,-195.054901,117.761536,,,,,,,
1537388378.291111,0.073620,0.324465,-2.993440,-0.861194,-1.529827,-0.468844,0.069715,-0.318802,-0.945254,-0.024976,0.041550,-0.081983,744.122620,-194.669006,117.827759,,,,,,,
1537388378.301091,0.059818,0.314418,-2.997872,-1.009237,-1.509869,-0.488895,0.056851,-0.309263,-0.949275,-0.035352,0.017683,-0.036854,744.122620,-194.669006,117.827759,,,,,,,
1537388378.311070,0.046820,0.303509,-3.002233,-1.083857,-1.404791,-0.464859,0.044664,-0.298871,-0.953247,-0.046464,-0.004932,-0.000488,744.122620,-194.669006,117.827759,,,,,,,
1537388378.321049,0.035185,0.292465,-3.006195,-1.086044,-1.235966,-0.409534,0.033684,-0.288313,-0.956943,-0.053383,-0.019594,0.030628,743.511658,-194.262131,117.745148,,,,,,,
1537388378.331028,0.025308,0.281928,-3.009554,-1.027494,-1.031115,-0.334699,0.024307,-0.278208,-0.960213,-0.056075,-0.027410,0.055123,743.511658,-194.262131,117.745148,,,,,,,
1537388378.341008,0.017519,0.272446,-3.012189,-0.912370,-0.790248,-0.253183,0.016872,-0.269088,-0.962968,-0.058376,-0.034898,0.075944,742.780518,-193.447968,117.952606,,,,,,,
1537388378.350993,0.012289,0.264480,-3.013767,-0.754706,-0.490807,-0.138404,0.011861,-0.261408,-0.965155,-0.070714,-0.050817,0.095923,742.780518,-193.447968,117.952606,,,,,,,
1537388378.360942,0.009607,0.258425,-3.014679,-0.556042,-0.233355,-0.085270,0.009288,-0.255558,-0.966749,-0.044612,-0.031185,0.099958,739.678406,-193.674835,115.516327,,,,,,,
1537388378.370921,0.009261,0.254476,-3.014884,-0.337466,0.030487,0.008531,0.008963,-0.251739,-0.967753,-0.015219,-0.020097,0.098033,739.678406,-193.674835,115.516327,,,,,,,
1537388378.380900,0.011255,0.252903,-3.013798,-0.095647,0.280376,0.123820,0.010897,-0.250216,-0.968129,0.005491,-0.066618,0.107853,736.823608,-193.986282,113.304382,,,,,,,
1537388378.390879,0.014414,0.253913,-3.012366,0.163643,0.359135,0.144377,0.013951,-0.251194,-0.967836,0.029170,-0.061734,0.083299,736.823608,-193.986282,113.304382,,,,,,,
1537388378.400859,0.017162,0.257091,-3.010623,0.359431,0.301605,0.183939,0.016597,-0.254268,-0.966991,0.008839,-0.034215,0.039867,736.676880,-193.957535,112.949799,,,,,,,
1537388378.410838,0.019402,0.261618,-3.008886,0.476838,0.262516,0.167543,0.018741,-0.258644,-0.965791,0.003873,-0.001839,0.013291,736.676880,-193.957535,112.949799,,,,,,,
1537388378.420817,0.021663,0.266767,-3.007664,0.518941,0.261111,0.114402,0.020895,-0.263614,-0.964402,0.021265,0.010685,0.004593,736.734192,-194.292694,113.048431,,,,,,,
1537388378.430766,0.024231,0.271808,-3.006956,0.494876,0.282493,0.069415,0.023339,-0.268473,-0.963004,0.024222,0.012858,0.001395,736.734192,-194.292694,113.048431,,,,,,,
1537388378.440745,0.026883,0.276319,-3.006546,0.434244,0.272080,0.045611,0.025860,-0.272816,-0.961718,0.019916,0.014897,-0.003522,736.930603,-194.733994,113.305206,,,,,,,
1537388378.450724,0.029260,0.280125,-3.006236,0.361653,0.238283,0.039910,0.028116,-0.276475,-0.960609,0.017233,0.018465,-0.009148,736.930603,-194.733994,113.305206,,,,,,,
1537388378.460704,0.031341,0.283181,-3.005882,0.286893,0.213063,0.042723,0.030087,-0.279411,-0.959700,0.013690,0.020699,-0.012163,737.168579,-194.800308,113.287231,,,,,,,
1537388378.470683,0.033182,0.285549,-3.005580,0.220743,0.186702,0.034915,0.031833,-0.281685,-0.958979,0.006665,0.021461,-0.012365,737.168579,-194.800308,113.287231,,,,,,,
1537388378.480662,0.034835,0.287301,-3.005431,0.161098,0.164551,0.016465,0.033401,-0.283365,-0.958430,-0.002898,0.022943,-0.009283,737.241638,-195.066315,113.375458,,,,,,,
1537388378.490641,0.036431,0.288544,-3.005414,0.112139,0.160507,0.002323,0.034917,-0.284557,-0.958023,-0.009573,0.025127,-0.003525,737.241638,-195.066315,113.375458,,,,,,,
1537388378.500620,0.038074,0.289417,-3.005514,0.080225,0.161716,-0.008526,0.036482,-0.285394,-0.957715,-0.009794,0.024316,0.005063,737.431335,-195.065094,113.505280,,,,,,,
1537388378.510569,0.039611,0.290074,-3.005625,0.063089,0.144727,-0.006467,0.037946,-0.286024,-0.957471,-0.009199,0.020215,0.009808,737.431335,-195.065094,113.505280,,,,,,,
1537388378.520548,0.040845,0.290652,-3.005573,0.055387,0.119185,0.011662,0.039121,-0.286577,-0.957258,-0.002988,0.012620,0.008588,737.347229,-195.080093,113.462067,,,,,,,
1537388378.530528,0.041923,0.291176,-3.005308,0.049844,0.114990,0.032985,0.040146,-0.287079,-0.957065,0.004089,0.006577,0.009799,737.347229,-195.080093,113.462067,,,,,,,
1537388378.540507,0.043154,0.291616,-3.004834,0.041217,0.147107,0.052120,0.041319,-0.287501,-0.956888,0.004900,0.001536,0.016443,737.524475,-195.249954,113.326508,,,,,,,
1537388378.550486,0.044851,0.291991,-3.004153,0.034789,0.205907,0.072306,0.042938,-0.287860,-0.956709,0.001007,-0.003095,0.028273,737.524475,-195.249954,113.326508,,,,,,,
1537388378.560465,0.047127,0.292452,-3.003231,0.048597,0.265679,0.096873,0.045109,-0.288301,-0.956476,-0.010563,-0.002623,0.059260,737.737854,-195.286850,113.484039,,,,,,,
1537388378.570445,0.049680,0.293007,-3.002036,0.050554,0.294557,0.124608,0.047543,-0.288833,-0.956198,-0.016919,-0.002885,0.090353,737.737854,-195.286850,113.484039,,,,,,,
1537388378.580393,0.052032,0.293600,-3.000631,0.054587,0.263608,0.140674,0.049783,-0.289400,-0.955913,-0.009286,0.000459,0.062083,737.854614,-195.144135,113.474976,,,,,,,
1537388378.590373,0.053348,0.294188,-2.999260,0.050060,0.136557,0.131170,0.051032,-0.289963,-0.955676,-0.001594,0.008713,0.021182,737.854614,-195.144135,113.474976,,,,,,,
1537388378.600352,0.053310,0.294466,-2.998122,0.010479,-0.003161,0.102271,0.050991,-0.290229,-0.955597,0.009144,0.019675,-0.018890,737.902344,-195.186035,113.366425,,,,,,,
1537388378.610331,0.052358,0.294164,-2.997296,-0.051334,-0.090459,0.068930,0.050086,-0.289940,-0.955733,0.012368,0.019051,-0.022966,737.902344,-195.186035,113.366425,,,,,,,
1537388378.620310,0.050759,0.293187,-2.996798,-0.116314,-0.162801,0.034491,0.048572,-0.289005,-0.956094,0.009411,0.015842,-0.023078,737.768433,-195.166962,113.503571,,,,,,,
1537388378.630290,0.048678,0.291618,-2.996448,-0.172886,-0.205232,0.024617,0.046605,-0.287502,-0.956645,0.011684,0.006664,-0.022404,737.768433,-195.166962,113.503571,,,,,,,
1537388378.640269,0.046560,0.289612,-2.995981,-0.210324,-0.193256,0.039342,0.044605,-0.285580,-0.957316,0.011105,-0.003162,-0.008627,737.818665,-195.119049,113.430878,,,,,,,
1537388378.650218,0.044870,0.287473,-2.995310,-0.218895,-0.134442,0.060585,0.043014,-0.283530,-0.957998,0.010453,-0.003778,0.015935,737.818665,-195.119049,113.430878,,,,,,,
1537388378.660197,0.043807,0.285460,-2.994475,-0.198568,-0.069394,0.073440,0.042021,-0.281599,-0.958611,0.006853,-0.003923,0.029855,737.692383,-194.716644,113.336609,,,,,,,
1537388378.670176,0.043158,0.283747,-2.993660,-0.166422,-0.036476,0.068246,0.041419,-0.279955,-0.959119,0.006127,0.004000,0.023419,737.692383,-194.716644,113.336609,,,,,,,
1537388378.680155,0.042688,0.282351,-2.992987,-0.135340,-0.027053,0.056664,0.040985,-0.278615,-0.959528,0.004135,0.011021,0.016672,737.521240,-194.722015,113.152496,,,,,,,
1537388378.690135,0.042208,0.281148,-2.992434,-0.118174,-0.031440,0.045020,0.040538,-0.277459,-0.959881,-0.000133,0.013009,0.014920,737.521240,-194.722015,113.152496,,,,,,,
1537388378.700114,0.041666,0.280037,-2.992006,-0.110630,-0.046455,0.032268,0.040032,-0.276392,-0.960211,0.000191,0.014444,0.014181,737.583984,-194.523590,113.154572,,,,,,,
1537388378.710093,0.041075,0.278986,-2.991765,-0.103012,-0.052941,0.014169,0.039475,-0.275381,-0.960524,0.004958,0.013647,0.012251,737.583984,-194.523590,113.154572,,,,,,,
1537388378.720042,0.040359,0.278107,-2.991746,-0.082623,-0.076583,-0.005976,0.038798,-0.274536,-0.960794,0.008077,0.010864,0.014642,737.665344,-194.453735,113.078827,,,,,,,
1537388378.730021,0.039485,0.277483,-2.991881,-0.056946,-0.093828,-0.018627,0.037965,-0.273935,-0.960998,0.007049,0.009104,0.017944,737.665344,-194.453735,113.078827,,,,,,,
1537388378.740000,0.038733,0.277030,-2.992040,-0.041993,-0.077889,-0.016425,0.037247,-0.273500,-0.961150,0.008804,0.004869,0.031097,737.665344,-194.453735,113.078827,,,,,,,
1537388378.749980,0.037900,0.276735,-2.992182,-0.026051,-0.092915,-0.014187,0.036450,-0.273216,-0.961262,0.002567,-0.002236,0.030628,737.541931,-194.302719,113.265594,,,,,,,
1537388378.759959,0.037058,0.276443,-2.992330,-0.031325,-0.082212,-0.016364,0.035643,-0.272935,-0.961372,-0.004790,-0.000624,0.028846,737.541931,-194.302719,113.265594,,,,,,,
1537388378.769938,0.036700,0.275933,-2.992515,-0.057792,-0.025498,-0.021904,0.035304,-0.272445,-0.961523,-0.008601,0.002334,0.038321,737.547302,-194.436295,113.340485,,,,,,,
1537388378.779917,0.036976,0.275192,-2.992815,-0.077816,0.033296,-0.033811,0.035576,-0.271732,-0.961715,-0.011681,-0.002026,0.047118,737.547302,-194.436295,113.340485,,,,,,,
1537388378.789897,0.037703,0.274243,-2.993164,-0.100098,0.070777,-0.036106,0.036285,-0.270818,-0.961946,-0.011917,-0.006129,0.046465,737.302612,-194.462234,113.331268,,,,,,,
1537388378.799845,0.038575,0.273093,-2.993422,-0.119339,0.081582,-0.026619,0.037136,-0.269711,-0.962225,-0.009914,-0.008365,0.035986,737.302612,-194.462234,113.331268,,,,,,,
1537388378.809825,0.039421,0.271769,-2.993535,-0.136543,0.079567,-0.012835,0.037965,-0.268435,-0.962549,-0.007417,-0.010999,0.030725,737.489563,-194.449158,113.330566,,,,,,,
1537388378.819804,0.040147,0.270331,-2.993532,-0.145198,0.072162,-0.002200,0.038679,-0.267050,-0.962906,-0.004408,-0.012628,0.027206,737.489563,-194.449158,113.330566,,,,,,,
1537388378.829783,0.040867,0.268810,-2.993347,-0.154944,0.080795,0.015884,0.039388,-0.265584,-0.963282,-0.004385,-0.012446,0.026225,737.358765,-194.026550,113.280731,,,,,,,
1537388378.839762,0.041721,0.267245,-2.992867,-0.160519,0.105452,0.048920,0.040229,-0.264075,-0.963663,-0.007209,-0.013620,0.024347,737.358765,-194.026550,113.280731,,,,,,,
1537388378.849742,0.042798,0.265603,-2.992013,-0.170348,0.137609,0.082992,0.041285,-0.262491,-0.964051,-0.011255,-0.011847,0.016663,737.570557,-193.999863,113.069702,,,,,,,
1537388378.859721,0.044037,0.263962,-2.990875,-0.169465,0.157946,0.108596,0.042498,-0.260907,-0.964428,-0.012575,-0.006472,0.012279,737.570557,-193.999863,113.069702,,,,,,,
1537388378.869670,0.045378,0.262363,-2.989510,-0.164285,0.177186,0.131021,0.043810,-0.259364,-0.964785,-0.016268,-0.001882,0.015704,737.725403,-193.844482,112.969727,,,,,,,
1537388378.879649,0.047078,0.260868,-2.987862,-0.154804,0.230583,0.159841,0.045469,-0.257919,-0.965096,-0.021039,-0.000214,0.022972,737.725403,-193.844482,112.969727,,,,,,,
1537388378.889628,0.049456,0.259573,-2.985852,-0.133592,0.310630,0.197237,0.047780,-0.256668,-0.965318,-0.024418,0.000076,0.034654,737.799011,-193.739624,112.832001,,,,,,,
1537388378.899607,0.052659,0.258547,-2.983438,-0.109169,0.407753,0.238903,0.050885,-0.255677,-0.965422,-0.032391,-0.000244,0.038618,737.799011,-193.739624,112.832001,,,,,,,
1537388378.909587,0.056902,0.257790,-2.980627,-0.084638,0.527284,0.275209,0.054992,-0.254944,-0.965390,-0.036071,0.002915,0.036405,737.996277,-193.493820,112.777100,,,,,,,
1537388378.919566,0.062336,0.257442,-2.977516,-0.040830,0.655243,0.306276,0.060242,-0.254608,-0.965166,-0.036378,0.008804,0.036455,737.996277,-193.493820,112.777100,,,,,,,
1537388378.929545,0.068905,0.257764,-2.974131,0.028561,0.775595,0.337491,0.066576,-0.254919,-0.964667,-0.044664,0.014288,0.035850,738.464172,-193.489258,112.695496,,,,,,,
1537388378.939494,0.076556,0.258891,-2.970504,0.106486,0.891624,0.366624,0.073933,-0.256009,-0.963843,-0.053150,0.025403,0.030264,738.464172,-193.489258,112.695496,,,,,,,
1537388378.949473,0.085189,0.260852,-2.966718,0.184452,0.983075,0.385106,0.082207,-0.257904,-0.962667,-0.061226,0.041626,0.019200,739.268005,-193.397095,112.628265,,,,,,,
1537388378.959452,0.094392,0.263508,-2.962824,0.246325,1.036179,0.403535,0.090999,-0.260469,-0.961184,-0.071864,0.056597,0.003649,739.268005,-193.397095,112.628265,,,,,,,
1537388378.969432,0.103956,0.266741,-2.958890,0.296472,1.070103,0.413383,0.100099,-0.263590,-0.959427,-0.077425,0.070764,-0.005539,739.761841,-193.649490,112.222015,,,,,,,
1537388378.979411,0.113848,0.270410,-2.954907,0.330573,1.105191,0.428478,0.109474,-0.267127,-0.957423,-0.084633,0.084906,-0.012457,739.761841,-193.649490,112.222015,,,,,,,
1537388378.989390,0.123839,0.274380,-2.950655,0.349496,1.121185,0.463792,0.118902,-0.270950,-0.955221,-0.097402,0.088364,-0.023874,740.575378,-193.640167,112.388275,,,,,,,
1537388378.999369,0.134809,0.278487,-2.945935,0.347246,1.278268,0.521266,0.129223,-0.274901,-0.952749,-0.091671,0.087386,-0.003306,740.575378,-193.640167,112.388275,,,,,,,
1537388379.009318,0.147372,0.282781,-2.940496,0.360869,1.454536,0.600153,0.141007,-0.279027,-0.949874,-0.098115,0.069829,0.036193,741.346375,-193.984177,112.290985,,,,,,,
1537388379.019297,0.161612,0.287800,-2.934372,0.424718,1.658303,0.679287,0.154291,-0.283844,-0.946375,-0.116800,0.053802,0.052927,741.346375,-193.984177,112.290985,,,,,,,
1537388379.029277,0.177826,0.293989,-2.927249,0.520063,1.883390,0.819418,0.169300,-0.289773,-0.942002,-0.120610,0.037484,0.072404,742.013428,-194.218597,112.027954,,,,,,,
1537388379.039256,0.195556,0.301761,-2.919097,0.659200,2.050550,0.938497,0.185531,-0.297202,-0.936615,-0.115997,0.017509,0.065018,742.013428,-194.218597,112.027954,,,,,,,
1537388379.049235,0.212512,0.312054,-2.910424,0.897992,1.952374,1.046652,0.200730,-0.307014,-0.930295,-0.115998,-0.015953,0.049024,743.546021,-194.850891,111.839874,,,,,,,
1537388379.059214,0.229557,0.324475,-2.901103,1.041153,2.042636,1.166903,0.215673,-0.318811,-0.922954,-0.079732,-0.004599,0.039363,743.546021,-194.850891,111.839874,,,,,,,
1537388379.069193,0.248375,0.337686,-2.891508,1.079795,2.253915,1.204262,0.231945,-0.331304,-0.914569,0.009693,0.027792,0.030491,745.056702,-195.761505,112.145569,,,,,,,
1537388379.079173,0.269565,0.351339,-2.882066,1.104951,2.494025,1.209492,0.250043,-0.344156,-0.905005,0.024249,-0.029440,0.036825,745.056702,-195.761505,112.145569,,,,,,,
1537388379.089121,0.293142,0.365492,-2.873600,1.158535,2.729543,1.138028,0.269875,-0.357409,-0.894106,0.078972,-0.029905,0.044237,739.522217,-199.437103,106.776947,,,,,,,
1537388379.099101,0.313678,0.379857,-2.868092,1.257190,1.860312,0.825621,0.286565,-0.370788,-0.883400,0.101802,0.019851,0.043816,739.522217,-199.437103,106.776947,,,,,,,
1537388379.109080,0.329209,0.392613,-2.865586,1.078863,1.743256,0.576046,0.298696,-0.382604,-0.874296,0.110331,0.015936,0.103254,729.259216,-198.190216,106.837585,,,,,,,
1537388379.119059,0.344372,0.401234,-2.863257,0.628815,1.442159,0.466068,0.310792,-0.390555,-0.866529,0.150466,0.023367,0.051771,729.259216,-198.190216,106.837585,,,,,,,
1537388379.129038,0.351171,0.405135,-2.860647,0.154120,0.563479,0.311708,0.316150,-0.394142,-0.862959,0.054181,-0.050865,-0.035005,725.385437,-197.104645,105.627899,,,,,,,
1537388379.139018,0.351198,0.403134,-2.857575,-0.435007,0.018556,0.172389,0.316444,-0.392303,-0.863690,0.105171,0.024917,-0.041736,725.385437,-197.104645,105.627899,,,,,,,
1537388379.148997,0.347597,0.396168,-2.851946,-0.952960,-0.159974,0.288216,0.314255,-0.385886,-0.867372,0.107193,0.063178,-0.042449,684.785950,-178.953613,72.372345,,,,,,,
1537388379.158946,0.344133,0.385788,-2.843262,-1.353904,0.061340,0.442711,0.312584,-0.376289,-0.872179,-0.028755,0.046639,-0.052992,684.785950,-178.953613,72.372345,,,,,,,
1537388379.168925,0.343269,0.372331,-2.832542,-1.673557,0.365269,0.486550,0.313506,-0.363788,-0.877138,-0.075377,0.091754,-0.044478,577.745728,-138.739456,4.683899,,,,,,,
1537388379.178904,0.342701,0.356931,-2.821926,-1.797630,0.250358,0.370701,0.314853,-0.349400,-0.882488,-0.032932,0.117253,-0.051319,577.745728,-138.739456,4.683899,,,,,,,
1537388379.188883,0.341158,0.340610,-2.814050,-1.774948,0.072315,0.057175,0.315357,-0.334062,-0.888229,0.006054,0.107957,-0.024567,577.745728,-138.739456,4.683899,,,,,,,
1537388379.198863,0.340720,0.324181,-2.810214,-1.624669,0.100712,-0.264399,0.316759,-0.318533,-0.893420,0.024931,0.101385,0.079180,494.909058,-112.360023,-33.454041,,,,,,,
1537388379.208842,0.341059,0.309246,-2.808311,-1.419206,0.075982,-0.337968,0.318618,-0.304340,-0.897696,0.073960,0.035831,0.139319,494.909058,-112.360023,-33.454041,,,,,,,
1537388379.218821,0.340527,0.296393,-2.806429,-1.229575,-0.013369,-0.218350,0.319421,-0.292072,-0.901478,0.030769,-0.036617,0.109944,480.435364,-106.739525,-39.719421,,,,,,,
1537388379.228770,0.339611,0.285542,-2.802828,-1.123998,0.022921,0.028774,0.319632,-0.281678,-0.904705,-0.030233,-0.053817,0.077450,480.435364,-106.739525,-39.719421,,,,,,,
1537388379.238749,0.338108,0.275956,-2.797064,-1.080283,-0.000292,0.257469,0.319153,-0.272467,-0.907690,-0.024109,-0.031900,0.035239,478.672852,-105.356552,-40.853882,,,,,,,
1537388379.248728,0.336650,0.267518,-2.789776,-1.009002,0.091516,0.422155,0.318577,-0.264339,-0.910292,-0.014439,-0.017033,0.021666,478.672852,-105.356552,-40.853882,,,,,,,
1537388379.258708,0.338569,0.260828,-2.781136,-0.866647,0.543892,0.619961,0.320904,-0.257880,-0.911327,-0.054546,0.034003,0.020214,479.548584,-103.375832,-40.929047,,,,,,,
1537388379.268687,0.344974,0.256910,-2.771268,-0.626050,1.009632,0.815085,0.327073,-0.254093,-0.910197,-0.132035,0.040912,-0.002034,479.548584,-103.375832,-40.929047,,,,,,,
1537388379.278666,0.356817,0.255697,-2.760882,-0.405566,1.613016,0.920291,0.337937,-0.252920,-0.906548,-0.106766,0.010885,0.000466,485.523621,-95.939552,-37.631927,,,,,,,
1537388379.288645,0.376198,0.256692,-2.750897,-0.203075,2.394615,0.945161,0.355350,-0.253882,-0.899594,-0.067996,0.020270,0.024243,485.523621,-95.939552,-37.631927,,,,,,,
1537388379.298625,0.403693,0.259514,-2.742099,-0.013643,3.158991,0.876044,0.379664,-0.256611,-0.888822,-0.047144,0.011707,0.028608,492.445892,-85.892326,-32.419922,,,,,,,
1537388379.308573,0.439778,0.263892,-2.735168,0.181784,4.031090,0.768420,0.411000,-0.260840,-0.873522,-0.087239,0.070028,0.040453,492.445892,-85.892326,-32.419922,,,,,,,
1537388379.318553,0.482710,0.270644,-2.729631,0.453742,4.448226,0.786572,0.447284,-0.267352,-0.853498,-0.062350,0.023058,0.092649,522.150757,-68.457115,-15.421844,,,,,,,
1537388379.328532,0.524401,0.280287,-2.725532,0.723868,4.199151,0.807521,0.481155,-0.276631,-0.831843,0.091156,-0.165050,0.077113,522.150757,-68.457115,-15.421844,,,,,,,
1537388379.338511,0.560461,0.291792,-2.723372,0.902759,3.503061,0.760096,0.509106,-0.287669,-0.811206,0.055011,-0.172994,0.043628,534.737671,-43.672638,-1.139832,,,,,,,
1537388379.348490,0.589104,0.303854,-2.722761,0.993013,2.687775,0.681358,0.530163,-0.299200,-0.793350,-0.039120,-0.100107,0.049545,534.737671,-43.672638,-1.139832,,,,,,,
1537388379.358434,0.609615,0.314179,-2.724178,0.892030,1.806801,0.378542,0.544525,-0.309036,-0.779735,-0.094803,-0.066574,0.087413,525.737122,-27.336140,0.468811,,,,,,,
1537388379.368413,0.624608,0.319987,-2.728166,0.619734,1.278680,-0.099568,0.555095,-0.314555,-0.770015,-0.122874,0.010783,0.062800,525.737122,-27.336140,0.468811,,,,,,,
1537388379.378362,0.638290,0.320169,-2.734468,0.291050,1.156542,-0.591206,0.565544,-0.314727,-0.762302,-0.123161,0.046370,-0.029293,506.788513,-20.587044,-5.240753,,,,,,,
1537388379.388341,0.652127,0.316016,-2.742526,0.092494,1.119456,-0.937045,0.576825,-0.310783,-0.755436,-0.117994,0.058738,-0.075268,506.788513,-20.587044,-5.240753,,,,,,,
1537388379.398320,0.665253,0.310170,-2.751833,0.091438,0.995273,-1.090637,0.587802,-0.305221,-0.749217,-0.145114,0.048385,0.007853,479.107513,-16.916328,-14.285919,,,,,,,
1537388379.408299,0.677488,0.304699,-2.762355,0.239844,0.891905,-1.132417,0.597963,-0.300006,-0.743259,-0.198183,0.017520,0.105212,479.107513,-16.916328,-14.285919,,,,,,,
1537388379.418279,0.689905,0.300835,-2.773910,0.456021,0.904754,-1.084275,0.607879,-0.296318,-0.736665,-0.233825,0.006019,0.156587,459.054047,-13.529674,-19.689819,,,,,,,
1537388379.428258,0.703060,0.298654,-2.786912,0.689042,0.947230,-1.118266,0.617933,-0.294235,-0.729096,-0.217085,0.055389,0.159730,459.054047,-13.529674,-19.689819,,,,,,,
1537388379.438237,0.717636,0.296573,-2.802621,0.860906,1.012037,-1.339419,0.628896,-0.292244,-0.720472,-0.183309,0.157814,0.110212,451.203186,-10.346974,-21.621613,,,,,,,
1537388379.448186,0.733688,0.293145,-2.820731,0.896604,1.124473,-1.590188,0.641047,-0.288964,-0.711024,-0.131327,0.197320,0.053508,451.203186,-10.346974,-21.621613,,,,,,,
1537388379.458165,0.752066,0.287713,-2.839201,0.753018,1.347094,-1.687274,0.655067,-0.283760,-0.700260,-0.081962,0.162010,0.007648,444.544739,-6.118014,-22.091400,,,,,,,
1537388379.468144,0.770724,0.280238,-2.855885,0.493729,1.405087,-1.667406,0.669477,-0.276584,-0.689419,-0.050519,0.084446,-0.057804,444.544739,-6.118014,-22.091400,,,,,,,
1537388379.478124,0.787063,0.271111,-2.868795,0.122218,1.234524,-1.463253,0.682411,-0.267802,-0.680143,-0.031517,-0.028600,-0.151797,435.302307,-0.424782,-22.498352,,,,,,,
1537388379.488103,0.797061,0.261775,-2.874893,-0.369756,0.663877,-0.926312,0.690935,-0.258795,-0.675003,-0.090685,-0.140405,-0.308105,435.302307,-0.424782,-22.498352,,,,,,,
1537388379.498082,0.798959,0.252248,-2.872455,-1.001353,0.123842,-0.396571,0.693950,-0.249582,-0.675380,-0.027904,-0.159461,-0.511860,422.342590,3.153939,-23.937134,,,,,,,
1537388379.508061,0.795245,0.241099,-2.861545,-1.715815,-0.170368,0.052407,0.693381,-0.238770,-0.679859,0.107812,-0.152801,-0.666973,422.342590,3.153939,-23.937134,,,,,,,
1537388379.518010,0.787430,0.228134,-2.844200,-2.224755,-0.460734,0.313570,0.690183,-0.226160,-0.687383,0.144549,-0.242849,-0.810252,415.268677,4.358973,-24.892242,,,,,,,
1537388379.527989,0.775887,0.214039,-2.823980,-2.430542,-0.795713,0.431268,0.684367,-0.212409,-0.697510,0.236714,-0.328622,-0.960845,415.268677,4.358973,-24.892242,,,,,,,
1537388379.537969,0.760918,0.200061,-2.803594,-2.361604,-1.200637,0.471552,0.675831,-0.198729,-0.709757,0.283336,-0.428865,-1.140401,417.524536,2.403760,-26.123230,,,,,,,
1537388379.547948,0.741437,0.188316,-2.784962,-2.002244,-1.723338,0.569056,0.663408,-0.187205,-0.724460,0.354827,-0.518545,-1.287992,417.524536,2.403760,-26.123230,,,,,,,
1537388379.557927,0.716609,0.182024,-2.769095,-1.314898,-2.367016,0.814722,0.645979,-0.181020,-0.741579,0.416994,-0.590907,-1.375395,425.321625,-2.404683,-27.555084,,,,,,,
1537388379.567906,0.686418,0.184508,-2.756828,-0.331792,-2.924443,1.177209,0.623012,-0.183463,-0.760391,0.493412,-0.625604,-1.365784,425.321625,-2.404683,-27.555084,,,,,,,
1537388379.577886,0.653556,0.197025,-2.748204,0.716325,-3.176897,1.521599,0.596250,-0.195752,-0.778566,0.595980,-0.591678,-1.372130,427.199860,-5.809709,-28.510651,,,,,,,
1537388379.587865,0.620339,0.218250,-2.743080,1.624592,-3.229314,1.703832,0.567521,-0.216522,-0.794378,0.738372,-0.515122,-1.401881,427.199860,-5.809709,-28.510651,,,,,,,
1537388379.597814,0.587592,0.245561,-2.740388,2.246847,-3.227045,1.794774,0.537728,-0.243100,-0.807309,0.848472,-0.466113,-1.443881,424.212158,-8.158868,-28.719452,,,,,,,
1537388379.607793,0.555036,0.276802,-2.738147,2.586226,-3.197615,1.908689,0.506914,-0.273280,-0.817529,0.911040,-0.446751,-1.485510,424.212158,-8.158868,-28.719452,,,,,,,
1537388379.617772,0.521481,0.310671,-2.734089,2.748166,-3.274825,2.142360,0.474316,-0.305698,-0.825573,0.921115,-0.435925,-1.495884,420.027344,-10.018048,-28.037048,,,,,,,
1537388379.627751,0.484876,0.346961,-2.726142,2.848779,-3.460312,2.514573,0.438323,-0.340042,-0.832011,0.889909,-0.423859,-1.463353,420.027344,-10.018048,-28.037048,,,,,,,
1537388379.637730,0.444028,0.385724,-2.713372,2.972594,-3.695005,2.900841,0.398017,-0.376230,-0.836679,0.844018,-0.381918,-1.382407,420.027344,-10.018048,-28.037048,,,,,,,
1537388379.647710,0.398628,0.426672,-2.696419,3.155212,-3.939903,3.156144,0.353355,-0.413844,-0.838971,0.800362,-0.292623,-1.254825,416.442627,-11.845595,-27.352234,,,,,,,
1537388379.657689,0.348991,0.469135,-2.676523,3.355504,-4.161785,3.237527,0.305005,-0.452115,-0.838190,0.765735,-0.177173,-1.103277,416.442627,-11.845595,-27.352234,,,,,,,
1537388379.667638,0.296133,0.512217,-2.654646,3.534710,-4.309085,3.198096,0.254371,-0.490111,-0.833718,0.737786,-0.051683,-0.946434,412.968201,-14.200213,-26.005035,,,,,,,
1537388379.677617,0.239945,0.555785,-2.630425,3.696850,-4.422110,3.168144,0.201880,-0.527610,-0.825149,0.721720,0.032066,-0.806199,412.968201,-14.200213,-26.005035,,,,,,,
1537388379.687596,0.179480,0.599863,-2.602322,3.873852,-4.556308,3.255715,0.147351,-0.564529,-0.812153,0.707309,0.106918,-0.652691,411.548767,-16.553577,-24.183838,,,,,,,
1537388379.697575,0.113391,0.644291,-2.568630,4.045043,-4.681808,3.398750,0.090465,-0.600632,-0.794390,0.700536,0.234299,-0.482649,411.548767,-16.553577,-24.183838,,,,,,,
1537388379.707555,0.041543,0.688111,-2.528994,4.156312,-4.762340,3.457084,0.032080,-0.635079,-0.771779,0.712427,0.383233,-0.327205,409.481812,-17.843105,-21.372040,,,,,,,
1537388379.717534,-0.034542,0.729752,-2.485361,4.151599,-4.774471,3.270267,-0.025740,-0.666685,-0.744894,0.721144,0.561338,-0.187739,409.481812,-17.843105,-21.372040,,,,,,,
1537388379.727513,-0.112767,0.768080,-2.440634,4.036619,-4.791781,2.891776,-0.080935,-0.694756,-0.714675,0.746752,0.717507,-0.064393,405.218323,-18.625591,-18.092529,,,,,,,
1537388379.737462,-0.192320,0.802547,-2.395717,3.863671,-4.801225,2.553523,-0.132816,-0.719128,-0.682064,0.763340,0.806149,0.074230,405.218323,-18.625591,-18.092529,,,,,,,
1537388379.747441,-0.273629,0.833201,-2.349059,3.682184,-4.702463,2.363488,-0.181730,-0.740088,-0.647488,0.760191,0.880439,0.223110,400.946472,-18.938568,-14.419281,,,,,,,
1537388379.757420,-0.355757,0.860114,-2.299852,3.545264,-4.467128,2.239743,-0.227213,-0.757917,-0.611500,0.759836,0.938825,0.367512,400.946472,-18.938568,-14.419281,,,,,,,
1537388379.767400,-0.437648,0.884222,-2.248490,3.502713,-4.201416,2.073785,-0.268649,-0.773422,-0.574145,0.775668,1.025268,0.533495,396.029449,-18.670143,-10.670563,,,,,,,
1537388379.777379,-0.519304,0.906897,-2.195206,3.577932,-3.943899,1.861514,-0.305800,-0.787595,-0.534954,0.790373,1.170164,0.721492,396.029449,-18.670143,-10.670563,,,,,,,
1537388379.787358,-0.600488,0.929108,-2.139768,3.711269,-3.648347,1.605758,-0.338205,-0.801086,-0.493835,0.786859,1.358520,0.928985,389.382721,-18.803783,-7.669708,,,,,,,
1537388379.797337,-0.681582,0.951817,-2.083088,3.859284,-3.517589,1.214681,-0.365539,-0.814471,-0.450570,0.788802,1.566363,1.138909,389.382721,-18.803783,-7.669708,,,,,,,
1537388379.807317,-0.762603,0.975075,-2.026658,3.867803,-3.463090,0.770612,-0.387612,-0.827744,-0.405699,0.829735,1.787659,1.343412,381.141052,-18.432308,-4.938049,,,,,,,
1537388379.817265,-0.841222,0.997313,-1.973090,3.602857,-3.389981,0.367723,-0.404453,-0.840016,-0.361642,0.918048,1.990910,1.548119,381.141052,-18.432308,-4.938049,,,,,,,
1537388379.827245,-0.914348,1.016292,-1.925482,3.003819,-3.257136,0.113451,-0.417087,-0.850162,-0.321336,1.035053,2.141116,1.772310,373.083618,-16.259296,-1.867859,,,,,,,
1537388379.837224,-0.975596,1.029576,-1.888768,2.085875,-2.884137,0.034383,-0.426585,-0.857080,-0.288846,1.222468,2.270105,1.993863,373.083618,-16.259296,-1.867859,,,,,,,
1537388379.847203,-1.018070,1.035996,-1.867321,0.990510,-2.228081,0.072542,-0.433772,-0.860371,-0.267578,1.396922,2.351353,2.275939,364.296600,-12.223632,0.693756,,,,,,,
1537388379.857182,-1.036154,1.035816,-1.864662,-0.190414,-1.348497,0.082253,-0.438673,-0.860279,-0.259769,1.582914,2.437198,2.535769,364.296600,-12.223632,0.693756,,,,,,,
1537388379.867162,-1.026106,1.030448,-1.882334,-1.339431,-0.199260,-0.046904,-0.439985,-0.857529,-0.266553,1.766294,2.529176,2.758649,355.702911,-8.056705,1.191895,,,,,,,
1537388379.877141,-0.984434,1.020990,-1.920579,-2.465659,1.279395,-0.349201,-0.435234,-0.852626,-0.289126,1.868202,2.542781,2.939517,355.702911,-8.056705,1.191895,,,,,,,
1537388379.887090,-0.911963,1.007216,-1.977847,-3.545108,2.762923,-0.749448,-0.422404,-0.845348,-0.327041,1.901835,2.568691,2.962020,350.732941,-5.461703,-0.936432,,,,,,,
1537388379.897069,-0.813029,0.987148,-2.050479,-4.559842,4.143638,-1.139630,-0.400280,-0.834458,-0.378749,1.853161,2.681427,2.853358,350.732941,-5.461703,-0.936432,,,,,,,
1537388379.907048,-0.694231,0.958657,-2.133447,-5.518279,5.285865,-1.574093,-0.367636,-0.818420,-0.441619,1.739172,2.793274,2.630111,349.286499,-3.978256,-5.799835,,,,,,,
1537388379.917027,-0.565860,0.919933,-2.221579,-6.431067,5.833067,-2.046128,-0.324832,-0.795561,-0.511432,1.614169,2.845671,2.283313,349.286499,-3.978256,-5.799835,,,,,,,
1537388379.927007,-0.439365,0.869179,-2.308614,-7.294964,5.837841,-2.425548,-0.274552,-0.763799,-0.584148,1.492204,2.836324,1.846416,351.931641,-1.612295,-11.505310,,,,,,,
1537388379.936986,-0.324579,0.805498,-2.388138,-8.105165,5.465869,-2.608947,-0.220925,-0.721176,-0.656578,1.391594,2.770904,1.395958,351.931641,-1.612295,-11.505310,,,,,,,
1537388379.946965,-0.227535,0.729270,-2.454898,-8.837275,4.927538,-2.516347,-0.168204,-0.666326,-0.726440,1.316412,2.572515,0.945373,360.146820,2.124064,-16.978485,,,,,,,
1537388379.956914,-0.150408,0.642719,-2.505612,-9.422675,4.394413,-2.133670,-0.119943,-0.599374,-0.791430,1.294809,2.268960,0.476474,360.146820,2.124064,-16.978485,,,,,,,
1537388379.966893,-0.087952,0.548342,-2.540482,-9.823466,4.307957,-1.622337,-0.074960,-0.521273,-0.850090,1.366998,2.003283,-0.046333,373.460388,7.757768,-20.733948,,,,,,,
1537388379.976872,-0.030888,0.449865,-2.562500,-9.993864,4.812496,-1.274728,-0.027810,-0.434844,-0.900076,1.495736,1.797698,-0.652903,373.460388,7.757768,-20.733948,,,,,,,
1537388379.986852,0.027720,0.351410,-2.576570,-9.797369,5.508560,-1.319188,0.026023,-0.344222,-0.938527,1.615441,1.630309,-1.409831,389.975616,13.073412,-23.414093,,,,,,,
1537388379.996831,0.091019,0.257262,-2.587567,-9.170036,6.142881,-1.707075,0.087903,-0.254434,-0.963087,1.603504,1.469857,-2.160921,389.975616,13.073412,-23.414093,,,,,,,
1537388380.006810,0.152915,0.171274,-2.596184,-8.192617,5.877848,-1.912799,0.150091,-0.170438,-0.973870,1.365412,1.107358,-2.908332,409.217010,17.187006,-23.912445,,,,,,,
1537388380.016789,0.201984,0.095478,-2.600323,-7.155515,4.445494,-1.648403,0.199700,-0.095333,-0.975208,1.094062,0.768413,-3.730495,409.217010,17.187006,-23.912445,,,,,,,
1537388380.026738,0.231658,0.029331,-2.596812,-6.400845,2.501118,-0.875863,0.229493,-0.029327,-0.972868,0.834899,0.494384,-4.303102,423.705353,22.687767,-22.150818,,,,,,,
1537388380.036717,0.244370,-0.029140,-2.584253,-5.860251,0.914870,0.077673,0.241842,0.029136,-0.969878,0.698176,0.081658,-4.424684,423.705353,22.687767,-22.150818,,,,,,,
1537388380.046697,0.248494,-0.080153,-2.564588,-5.285533,0.174650,0.821320,0.245155,0.080067,-0.966172,0.728753,-0.288380,-4.188613,424.575134,27.204037,-20.493347,,,,,,,
