timestamp(unix),attitude_roll(radians),attitude_pitch(radians),attitude_yaw(radians),rotation_rate_x(radians/s),rotation_rate_y(radians/s),rotation_rate_z(radians/s),gravity_x(G),gravity_y(G),gravity_z(G),user_acc_x(G),user_acc_y(G),user_acc_z(G),magnetic_field_x(microteslas),magnetic_field_y(microteslas),magnetic_field_z(microteslas),latitude(degree),longitude(degree),altitude(meter),speed(m/s),course(degree),timestamp(unix),User Mark
1537388376.647704,0.102681,0.373113,-2.680144,-0.091005,-0.025077,-0.389095,0.095448,-0.364516,-0.926292,-0.021291,0.040556,0.024727,-11.302116,26.851799,-13.539734,,,,,,,
1537388376.657713,0.103247,0.371805,-2.684153,-0.091927,-0.106191,-0.383433,0.096022,-0.363298,-0.926711,-0.015868,0.030061,0.023879,-11.302116,26.851799,-13.539734,,,,,,,
1537388376.667754,0.103043,0.370604,-2.688021,-0.075859,-0.174393,-0.364909,0.095878,-0.362179,-0.927164,-0.009818,0.017299,0.024805,-10.888573,26.721931,-13.422058,,,,,,,
1537388376.677794,0.102295,0.369799,-2.691680,-0.032135,-0.214780,-0.341006,0.095214,-0.361428,-0.927526,-0.005630,0.006859,0.025548,-10.888573,26.721931,-13.422058,,,,,,,
,,,,,,,,,,,,,,,,42.293371,-71.263568,62.313869,0.941011,284.818233,1537388375.998579,
1537388376.687804,0.101204,0.369629,-2.695135,0.032880,-0.238056,-0.315990,0.094208,-0.361269,-0.927690,-0.002914,0.005038,0.028184,-10.786827,26.550903,-13.260620,,,,,,,
1537388376.697844,0.100016,0.370093,-2.698382,0.090361,-0.232493,-0.287922,0.093089,-0.361702,-0.927634,-0.005061,0.007454,0.030173,-10.786827,26.550903,-13.260620,,,,,,,
1537388376.707884,0.098892,0.370876,-2.701350,0.107293,-0.213101,-0.257985,0.092018,-0.362432,-0.927456,-0.010093,0.006155,0.034359,-10.787392,26.299934,-13.019165,,,,,,,
1537388376.717925,0.097913,0.371533,-2.704033,0.081578,-0.187386,-0.235778,0.091087,-0.363044,-0.927309,-0.011863,0.003593,0.034944,-10.787392,26.299934,-13.019165,,,,,,,
1537388376.727934,0.097116,0.371621,-2.706417,0.013204,-0.158524,-0.214876,0.090345,-0.363126,-0.927349,-0.007871,-0.001177,0.031261,-10.518715,26.327072,-12.962158,,,,,,,
1537388376.737975,0.096556,0.370993,-2.708560,-0.061560,-0.122235,-0.200451,0.089847,-0.362541,-0.927626,-0.007038,-0.004494,0.027388,-10.518715,26.327072,-12.962158,,,,,,,
1537388376.748015,0.096256,0.369776,-2.710560,-0.112822,-0.097693,-0.195474,0.089611,-0.361407,-0.928092,-0.005398,-0.008558,0.020865,-10.634857,26.366936,-13.063721,,,,,,,
1537388376.758055,0.096056,0.368415,-2.712500,-0.116052,-0.087003,-0.192327,0.089473,-0.360138,-0.928598,0.003285,-0.014878,0.015116,-10.634857,26.366936,-13.063721,,,,,,,
1537388376.768065,0.095927,0.367304,-2.714394,-0.083036,-0.078382,-0.184707,0.089392,-0.359100,-0.929008,0.006220,-0.014786,0.015174,-10.637268,26.385277,-13.248169,,,,,,,
1537388376.778105,0.095853,0.366683,-2.716227,-0.032967,-0.072917,-0.172709,0.089344,-0.358521,-0.929236,0.007275,-0.014068,0.016211,-10.637268,26.385277,-13.248169,,,,,,,
1537388376.788146,0.095702,0.366507,-2.717985,0.007539,-0.080290,-0.162848,0.089209,-0.358357,-0.929312,0.010934,-0.017635,0.013236,-10.660774,26.401703,-13.500610,,,,,,,
1537388376.798186,0.095496,0.366597,-2.719728,0.027797,-0.084518,-0.159519,0.089015,-0.358441,-0.929299,0.014440,-0.023472,0.008065,-10.660774,26.401703,-13.500610,,,,,,,
1537388376.808196,0.095198,0.366740,-2.721487,0.028898,-0.095216,-0.162677,0.088733,-0.358574,-0.929274,0.016217,-0.027000,0.002135,-10.617508,26.372551,-13.666687,,,,,,,
1537388376.818236,0.094892,0.366831,-2.723322,0.021466,-0.097407,-0.171257,0.088446,-0.358659,-0.929269,0.013818,-0.028472,-0.001243,-10.617508,26.372551,-13.666687,,,,,,,
1537388376.828276,0.094476,0.366854,-2.725208,0.017248,-0.113454,-0.174421,0.088058,-0.358680,-0.929297,0.012879,-0.030434,-0.002191,-10.691170,26.239586,-13.504517,,,,,,,
1537388376.838316,0.093913,0.366829,-2.727044,0.011917,-0.124102,-0.167994,0.087536,-0.358657,-0.929356,0.008686,-0.028993,-0.000957,-10.691170,26.239586,-13.504517,,,,,,,
1537388376.848326,0.093251,0.366762,-2.728751,0.004427,-0.129389,-0.156256,0.086923,-0.358595,-0.929437,0.000158,-0.027254,0.004434,-10.989006,26.066612,-13.414795,,,,,,,
1537388376.858367,0.092588,0.366552,-2.730387,-0.011594,-0.122979,-0.152091,0.086314,-0.358399,-0.929570,-0.003962,-0.027145,0.004200,-10.989006,26.066612,-13.414795,,,,,,,
1537388376.868407,0.091969,0.366190,-2.731991,-0.025464,-0.117664,-0.152185,0.085750,-0.358060,-0.929752,-0.006542,-0.030581,0.003055,-10.920013,26.198738,-13.391602,,,,,,,
1537388376.878447,0.091421,0.365808,-2.733658,-0.022249,-0.113431,-0.159666,0.085254,-0.357704,-0.929935,-0.006839,-0.034234,0.000843,-10.920013,26.198738,-13.391602,,,,,,,
1537388376.888457,0.090927,0.365621,-2.735448,0.002306,-0.115577,-0.170217,0.084800,-0.357529,-0.930044,-0.004737,-0.032348,0.000661,-10.830139,26.309074,-13.588623,,,,,,,
1537388376.898497,0.090431,0.365738,-2.737339,0.034321,-0.119837,-0.175375,0.084335,-0.357639,-0.930044,-0.003631,-0.027737,0.003194,-10.830139,26.309074,-13.588623,,,,,,,
1537388376.908537,0.089848,0.366178,-2.739253,0.066310,-0.130435,-0.170891,0.083778,-0.358049,-0.929936,-0.006218,-0.019835,0.003285,-10.791817,26.356621,-13.527649,,,,,,,
1537388376.918578,0.089014,0.366880,-2.741068,0.088718,-0.157034,-0.158911,0.082980,-0.358705,-0.929755,-0.007419,-0.014388,0.005683,-10.791817,26.356621,-13.527649,,,,,,,
1537388376.928587,0.087757,0.367764,-2.742740,0.105820,-0.196453,-0.142632,0.081784,-0.359530,-0.929542,-0.005856,-0.012998,0.009590,-10.467934,26.185707,-13.494263,,,,,,,
1537388376.938628,0.085972,0.368835,-2.744240,0.122912,-0.241174,-0.124195,0.080091,-0.360529,-0.929303,-0.002455,-0.012671,0.010830,-10.467934,26.185707,-13.494263,,,,,,,
1537388376.948668,0.083852,0.370100,-2.745493,0.137796,-0.259168,-0.098395,0.078083,-0.361709,-0.929015,-0.001179,-0.012422,0.009521,-10.144142,26.004784,-13.524109,,,,,,,
1537388376.958724,0.081817,0.371535,-2.746435,0.152556,-0.224814,-0.067460,0.076150,-0.363046,-0.928654,-0.003884,-0.011282,0.009708,-10.144142,26.004784,-13.524109,,,,,,,
1537388376.968735,0.080230,0.373059,-2.747049,0.154453,-0.164825,-0.036695,0.074631,-0.364465,-0.928221,-0.008958,-0.007117,0.016524,-10.219231,25.759842,-13.466614,,,,,,,
1537388376.978775,0.079167,0.374409,-2.747341,0.126505,-0.099574,-0.008245,0.073606,-0.365723,-0.927808,-0.008298,-0.002304,0.017545,-10.219231,25.759842,-13.466614,,,,,,,
1537388376.988816,0.078658,0.375468,-2.747224,0.095321,-0.028945,0.029786,0.073103,-0.366708,-0.927459,-0.005796,0.000192,0.018249,-10.240425,25.709511,-13.339600,,,,,,,
1537388376.998825,0.078656,0.376262,-2.746605,0.069443,0.038543,0.076408,0.073078,-0.367447,-0.927169,-0.009022,0.000763,0.031112,-10.240425,25.709511,-13.339600,,,,,,,
1537388377.008866,0.078947,0.376813,-2.745579,0.038379,0.070662,0.103905,0.073332,-0.367959,-0.926945,-0.012724,0.007287,0.046773,-9.943642,25.714500,-13.452698,,,,,,,
1537388377.018906,0.079203,0.376928,-2.744414,-0.011741,0.065285,0.107939,0.073566,-0.368066,-0.926884,-0.013263,0.011667,0.062535,-9.943642,25.714500,-13.452698,,,,,,,
1537388377.028945,0.079292,0.376363,-2.743235,-0.085283,0.047045,0.103349,0.073665,-0.367541,-0.927085,-0.010112,0.008074,0.071189,-9.805740,25.661598,-13.630920,,,,,,,
1537388377.038955,0.079344,0.374968,-2.742026,-0.170598,0.056530,0.099657,0.073754,-0.366243,-0.927591,-0.011529,0.004411,0.076014,-9.805740,25.661598,-13.630920,,,,,,,
1537388377.048995,0.080064,0.372653,-2.740640,-0.266820,0.154730,0.115862,0.074489,-0.364087,-0.928381,-0.009441,-0.000735,0.079596,-9.853989,25.917412,-13.697205,,,,,,,
1537388377.059036,0.082289,0.369342,-2.738778,-0.365426,0.339542,0.156290,0.076654,-0.361002,-0.929409,-0.018930,0.008966,0.072414,-9.853989,25.917412,-13.697205,,,,,,,
1537388377.069077,0.086862,0.365280,-2.736071,-0.446262,0.633514,0.240197,0.081029,-0.357211,-0.930502,-0.028188,0.031802,0.076925,-9.618050,26.322174,-13.754456,,,,,,,
1537388377.079087,0.096318,0.360172,-2.732694,-0.564900,1.250664,0.271319,0.089999,-0.352436,-0.931498,-0.006792,0.063007,0.074336,-9.618050,26.322174,-13.754456,,,,,,,
1537388377.089127,0.112838,0.354933,-2.728644,-0.543028,1.919477,0.348929,0.105581,-0.347528,-0.931706,0.102183,0.077051,0.090382,-8.433022,26.818878,-14.441345,,,,,,,
1537388377.099167,0.129512,0.350651,-2.723112,-0.473888,1.763438,0.499541,0.121291,-0.343509,-0.931284,0.103760,-0.004498,0.060434,-8.433022,26.818878,-14.441345,,,,,,,
1537388377.109207,0.142250,0.347628,-2.716561,-0.338047,1.430916,0.578529,0.133290,-0.340669,-0.930687,0.103785,-0.068023,-0.085213,-6.389771,27.678497,-15.707642,,,,,,,
1537388377.119217,0.156031,0.347338,-2.710329,-0.035640,1.674627,0.562046,0.146119,-0.340396,-0.928859,0.191390,-0.096707,-0.032674,-6.389771,27.678497,-15.707642,,,,,,,
1537388377.129258,0.173504,0.349319,-2.705669,0.163626,1.960276,0.426221,0.162208,-0.342258,-0.925498,0.220680,-0.101132,0.074989,-2.972221,28.204613,-18.053589,,,,,,,
1537388377.139297,0.194819,0.352347,-2.702299,0.255833,2.351854,0.357814,0.181696,-0.345102,-0.920810,0.167136,-0.024527,0.021304,-2.972221,28.204613,-18.053589,,,,,,,
1537388377.149338,0.220475,0.355623,-2.699080,0.247546,2.760770,0.361487,0.205009,-0.348174,-0.914738,0.082222,-0.014710,0.030109,3.711708,28.863022,-21.062073,,,,,,,
,,,,,,,,,,,,,,,,42.293370,-71.263537,62.263293,0.913352,284.231164,1537388376.998568,
1537388377.159348,0.247565,0.358133,-2.695934,0.143051,2.806385,0.330832,0.229497,-0.350526,-0.907999,-0.028890,0.028871,0.039819,3.711708,28.863022,-21.062073,,,,,,,
1537388377.169388,0.273715,0.359044,-2.693295,-0.016290,2.658317,0.231189,0.253073,-0.351379,-0.901380,-0.081244,0.059127,0.014081,16.041359,29.557693,-22.798767,,,,,,,
1537388377.179428,0.298675,0.358425,-2.691637,-0.125380,2.505828,0.095489,0.275554,-0.350800,-0.894991,-0.072551,0.034424,0.048830,16.041359,29.557693,-22.798767,,,,,,,
1537388377.189469,0.321509,0.357080,-2.691078,-0.144661,2.206210,-0.020984,0.296066,-0.349540,-0.888913,-0.042969,-0.033914,0.126477,32.892021,30.323792,-20.039673,,,,,,,
1537388377.199478,0.340017,0.355714,-2.691537,-0.100712,1.688002,-0.099916,0.312625,-0.348260,-0.883731,-0.010424,-0.094184,0.150393,32.892021,30.323792,-20.039673,,,,,,,
1537388377.209519,0.352634,0.355000,-2.692728,0.004089,1.059091,-0.134270,0.323835,-0.347591,-0.879949,0.005098,-0.117330,0.122198,51.605423,32.227608,-10.618164,,,,,,,
1537388377.219558,0.359678,0.355765,-2.694364,0.170331,0.525642,-0.099211,0.329932,-0.348308,-0.877397,-0.019446,-0.083180,0.117845,51.605423,32.227608,-10.618164,,,,,,,
1537388377.229599,0.362641,0.358657,-2.695273,0.341077,0.183005,0.072983,0.332171,-0.351017,-0.875470,-0.086978,-0.023617,0.145505,67.905182,36.731682,7.155762,,,,,,,
1537388377.239609,0.361725,0.364034,-2.694176,0.505026,-0.141942,0.358361,0.330697,-0.356047,-0.873996,-0.182900,-0.002169,0.175800,67.905182,36.731682,7.155762,,,,,,,
1537388377.249649,0.355733,0.371105,-2.691331,0.575840,-0.620355,0.524159,0.324569,-0.362646,-0.873580,-0.216308,-0.020182,0.176467,79.486320,42.944916,28.139008,,,,,,,
1537388377.259690,0.344436,0.378109,-2.687635,0.519090,-1.108108,0.569622,0.313814,-0.369164,-0.874778,-0.181750,0.012261,0.127708,79.486320,42.944916,28.139008,,,,,,,
1537388377.269730,0.328441,0.384292,-2.683514,0.436866,-1.557785,0.554949,0.299040,-0.374903,-0.877509,-0.176146,0.038675,0.093772,89.709282,49.439926,44.827515,,,,,,,
1537388377.279740,0.307532,0.389691,-2.679826,0.398758,-2.088948,0.468155,0.280012,-0.379903,-0.881627,-0.128966,0.024114,0.084126,89.709282,49.439926,44.827515,,,,,,,
1537388377.289780,0.281111,0.395078,-2.676886,0.455594,-2.671137,0.403439,0.256052,-0.384880,-0.886738,-0.048990,0.007134,0.065189,105.948555,57.128571,54.946320,,,,,,,
1537388377.299819,0.249133,0.401385,-2.674545,0.582680,-3.232804,0.363591,0.226967,-0.390694,-0.892101,0.001412,-0.006721,0.080608,105.948555,57.128571,54.946320,,,,,,,
1537388377.309829,0.212424,0.408883,-2.671867,0.700575,-3.656100,0.441778,0.193450,-0.397584,-0.896941,0.061097,-0.008849,0.088500,132.208252,69.098885,61.646179,,,,,,,
1537388377.319870,0.172857,0.417177,-2.667545,0.734505,-3.775971,0.576029,0.157246,-0.405181,-0.900611,0.052303,0.003341,0.085853,132.208252,69.098885,61.646179,,,,,,,
1537388377.329911,0.133626,0.424474,-2.661197,0.567270,-3.586339,0.729367,0.121405,-0.411841,-0.903132,0.090265,0.062171,0.082987,175.867706,89.655167,75.904785,,,,,,,
1537388377.339951,0.097385,0.426441,-2.650193,-0.028060,-2.905128,1.061261,0.088524,-0.413633,-0.906129,0.006676,0.032652,-0.064177,175.867706,89.655167,75.904785,,,,,,,
1537388377.349961,0.081112,0.421646,-2.639545,-0.918867,-0.272213,0.868688,0.073927,-0.409263,-0.909416,0.012316,0.049201,-0.006233,242.550140,123.893547,127.905334,,,,,,,
1537388377.360001,0.076430,0.413454,-2.630620,-0.951199,0.072016,0.760272,0.069922,-0.401774,-0.913065,0.231348,0.166789,0.105219,242.550140,123.893547,127.905334,,,,,,,
1537388377.370041,0.073968,0.403039,-2.620620,-1.188644,0.283622,0.851166,0.067979,-0.392216,-0.917358,0.104354,0.034702,0.080810,278.655396,148.761078,316.563049,,,,,,,
1537388377.380082,0.090706,0.400986,-2.613493,-0.197212,1.323487,0.619240,0.083397,-0.390326,-0.916891,0.036370,0.046653,0.112600,278.655396,148.761078,316.563049,,,,,,,
1537388377.390090,0.104568,0.395383,-2.605839,-0.559171,2.109851,0.606728,0.096325,-0.385162,-0.917808,0.076100,0.054229,-0.096658,289.868713,47.626419,310.970398,,,,,,,
1537388377.400131,0.124010,0.387652,-2.599072,-0.816392,2.422761,0.483362,0.114515,-0.378016,-0.918689,0.048602,0.071863,-0.065976,289.868713,47.626419,310.970398,,,,,,,
1537388377.410172,0.146689,0.378569,-2.592041,-1.065253,2.485917,0.567305,0.135814,-0.369591,-0.919215,0.044804,0.111977,0.039882,397.617279,-95.292633,197.962036,,,,,,,
1537388377.420212,0.166527,0.369872,-2.582430,-0.861810,2.250335,0.785202,0.154548,-0.361496,-0.919475,-0.069084,-0.016540,-0.110264,397.617279,-95.292633,197.962036,,,,,,,
1537388377.430222,0.176214,0.361884,-2.568807,-0.876811,1.077107,1.209820,0.163949,-0.354037,-0.920749,-0.181268,-0.222150,-0.367597,830.977783,-271.452209,231.691345,,,,,,,
1537388377.440262,0.179406,0.358767,-2.554731,-0.373839,0.749833,1.190250,0.167084,-0.351120,-0.921302,-0.005737,-0.276840,0.020301,830.977783,-271.452209,231.691345,,,,,,,
1537388377.450302,0.181844,0.360767,-2.544850,0.156540,0.551139,0.855025,0.169202,-0.352992,-0.920199,0.163730,-0.108693,0.245303,1582.081909,-915.340820,1246.449097,,,,,,,
1537388377.460343,0.187931,0.366285,-2.539116,0.467625,0.641710,0.558111,0.174433,-0.358149,-0.917225,0.087332,-0.024449,0.060017,1582.081909,-915.340820,1246.449097,,,,,,,
1537388377.470353,0.189947,0.370333,-2.534105,0.210233,0.310414,0.559148,0.176007,-0.361926,-0.915440,-0.091855,-0.055142,-0.220409,0.000000,0.000000,0.000000,,,,,,,
1537388377.480392,0.191585,0.371293,-2.528328,-0.083084,0.396365,0.527340,0.177440,-0.362821,-0.914809,-0.104168,-0.028400,-0.256929,0.000000,0.000000,0.000000,,,,,,,
1537388377.490433,0.195206,0.370095,-2.523636,-0.227893,0.558626,0.359206,0.180836,-0.361704,-0.914586,0.083309,-0.015371,-0.066142,0.000000,0.000000,0.000000,,,,,,,
1537388377.500473,0.199678,0.368104,-2.520153,-0.277623,0.521730,0.261834,0.185066,-0.359847,-0.914473,0.136727,-0.048311,-0.005632,0.000000,0.000000,0.000000,,,,,,,
1537388377.510483,0.203418,0.365729,-2.519205,-0.240037,0.354595,-0.046177,0.188657,-0.357630,-0.914608,0.098101,-0.001898,-0.054660,0.000000,0.000000,0.000000,,,,,,,
1537388377.520523,0.206076,0.363047,-2.521057,-0.217664,0.179409,-0.261253,0.191283,-0.355124,-0.915039,0.048860,0.160224,-0.078613,0.000000,0.000000,0.000000,,,,,,,
1537388377.530564,0.207176,0.360289,-2.522791,-0.244250,0.014324,-0.179509,0.192490,-0.352545,-0.915783,-0.056519,0.099112,-0.084629,0.000000,0.000000,0.000000,,,,,,,
1537388377.540604,0.206186,0.357885,-2.521971,-0.256704,-0.082357,0.105102,0.191756,-0.350294,-0.916800,-0.128875,-0.033205,-0.076898,0.000000,0.000000,0.000000,,,,,,,
1537388377.550614,0.204615,0.355824,-2.517751,-0.292058,0.017578,0.421943,0.190463,-0.348363,-0.917805,-0.140307,-0.122584,-0.034023,0.000000,0.000000,0.000000,,,,,,,
1537388377.560653,0.201469,0.353711,-2.511063,-0.343485,-0.142748,0.596520,0.187721,-0.346381,-0.919119,-0.101402,-0.155175,-0.011530,0.000000,0.000000,0.000000,,,,,,,
1537388377.570693,0.196954,0.351933,-2.503984,-0.287982,-0.215124,0.625957,0.183689,-0.344713,-0.920560,-0.051990,-0.104384,-0.064700,0.000000,0.000000,0.000000,,,,,,,
1537388377.580734,0.192502,0.350596,-2.496966,-0.253852,-0.192749,0.610015,0.179677,-0.343457,-0.921820,-0.059682,-0.041415,0.006781,0.000000,0.000000,0.000000,,,,,,,
1537388377.590744,0.189511,0.348995,-2.490630,-0.282735,-0.021317,0.533299,0.177022,-0.341954,-0.922892,-0.056981,-0.019206,0.031077,0.000000,0.000000,0.000000,,,,,,,
1537388377.600785,0.189426,0.346368,-2.485338,-0.379850,0.239389,0.394949,0.177113,-0.339483,-0.923786,-0.067677,-0.026499,0.065785,0.000000,0.000000,0.000000,,,,,,,
1537388377.610825,0.191622,0.341644,-2.481609,-0.591718,0.360931,0.212731,0.179444,-0.335036,-0.924959,-0.114716,-0.037812,0.071413,0.000000,0.000000,0.000000,,,,,,,
1537388377.620865,0.196595,0.334202,-2.479143,-0.829521,0.667101,0.024298,0.184524,-0.328015,-0.926475,-0.175216,-0.045794,0.027030,0.000000,0.000000,0.000000,,,,,,,
1537388377.630875,0.206716,0.325957,-2.477946,-0.829153,1.162006,-0.066378,0.194440,-0.320216,-0.927175,-0.132367,0.011073,0.174108,0.000000,0.000000,0.000000,,,,,,,
1537388377.640915,0.217451,0.317784,-2.475904,-0.820770,1.075013,0.033408,0.204939,-0.312462,-0.927559,-0.208082,-0.023673,0.201806,0.000000,0.000000,0.000000,,,,,,,
1537388377.650956,0.225596,0.310346,-2.473791,-0.743412,0.802790,0.021003,0.213001,-0.305389,-0.928099,-0.193775,-0.032670,0.046431,0.000000,0.000000,0.000000,,,,,,,
1537388377.660964,0.231325,0.303673,-2.472092,-0.672522,0.570046,0.007339,0.218778,-0.299027,-0.928826,-0.069760,-0.005202,0.031320,0.000000,0.000000,0.000000,,,,,,,
1537388377.671005,0.235124,0.297575,-2.470251,-0.618951,0.414329,0.030685,0.222725,-0.293203,-0.929745,-0.036690,0.009054,0.011211,0.000000,0.000000,0.000000,,,,,,,
1537388377.681046,0.238892,0.291900,-2.468383,-0.580664,0.439021,0.046819,0.226617,-0.287772,-0.930501,-0.037393,0.034171,0.024937,0.000000,0.000000,0.000000,,,,,,,
1537388377.691086,0.242121,0.286523,-2.466234,-0.548675,0.387989,0.074978,0.229987,-0.282619,-0.931253,-0.053993,0.044230,0.031396,0.000000,0.000000,0.000000,,,,,,,
1537388377.701096,0.244941,0.282563,-2.463894,-0.393055,0.318063,0.139130,0.232883,-0.278818,-0.931679,-0.066806,0.053842,0.046700,0.000000,0.000000,0.000000,,,,,,,
1537388377.711136,0.245804,0.280541,-2.461997,-0.182424,0.093920,0.107997,0.233823,-0.276875,-0.932023,-0.052213,0.084920,0.045334,0.000000,0.000000,0.000000,,,,,,,
1537388377.721176,0.246007,0.280365,-2.461657,0.024923,0.025268,0.003551,0.234024,-0.276707,-0.932022,-0.002518,0.136372,0.009888,0.000000,0.000000,0.000000,,,,,,,
1537388377.731217,0.247415,0.281619,-2.462348,0.167666,0.164020,-0.039003,0.235251,-0.277911,-0.931355,-0.010108,0.135364,0.035008,0.000000,0.000000,0.000000,,,,,,,
1537388377.741227,0.250689,0.283981,-2.463085,0.271639,0.352317,0.007819,0.238136,-0.280179,-0.929941,-0.059913,0.083966,0.062586,0.000000,0.000000,0.000000,,,,,,,
1537388377.751266,0.255569,0.287582,-2.463149,0.373309,0.533450,0.113440,0.242414,-0.283634,-0.927786,-0.102491,0.038852,0.087255,0.000000,0.000000,0.000000,,,,,,,
1537388377.761307,0.262103,0.292349,-2.462233,0.455694,0.726418,0.238150,0.248118,-0.288203,-0.924865,-0.114695,0.023386,0.107208,0.000000,0.000000,0.000000,,,,,,,
1537388377.771347,0.270592,0.298035,-2.460102,0.501662,0.971754,0.379561,0.255518,-0.293642,-0.921132,-0.112925,0.018496,0.109547,0.000000,0.000000,0.000000,,,,,,,
1537388377.781357,0.280779,0.304432,-2.456635,0.529542,1.182951,0.530632,0.264362,-0.299752,-0.916658,-0.104465,0.010354,0.104554,0.000000,0.000000,0.000000,,,,,,,
1537388377.791397,0.293149,0.311259,-2.451868,0.516867,1.453742,0.653464,0.275083,-0.306258,-0.911337,-0.091138,0.000029,0.096777,0.000000,0.000000,0.000000,,,,,,,
1537388377.801438,0.308254,0.318049,-2.445990,0.467909,1.756457,0.766360,0.288179,-0.312714,-0.905075,-0.098680,-0.003051,0.097626,0.000000,0.000000,0.000000,,,,,,,
1537388377.811478,0.323004,0.325211,-2.438496,0.461211,1.638846,0.934590,0.300778,-0.319509,-0.898580,-0.055173,-0.031397,0.059804,0.000000,0.000000,0.000000,,,,,,,
1537388377.821488,0.333884,0.333003,-2.429721,0.471056,1.286236,1.077123,0.309712,-0.326883,-0.892875,0.000515,-0.046042,-0.062432,0.000000,0.000000,0.000000,,,,,,,
1537388377.831527,0.343400,0.340974,-2.419351,0.398000,1.346656,1.207957,0.317307,-0.334406,-0.887405,0.046279,-0.073431,-0.094803,0.000000,0.000000,0.000000,,,,,,,
1537388377.841568,0.353406,0.348177,-2.407974,0.278415,1.338259,1.260801,0.325328,-0.341184,-0.881904,0.080709,-0.100329,-0.016778,0.000000,0.000000,0.000000,,,,,,,
1537388377.851609,0.361139,0.354224,-2.395814,0.132745,1.103279,1.277003,0.331403,-0.346862,-0.877415,0.073230,-0.101670,-0.039409,0.000000,0.000000,0.000000,,,,,,,
1537388377.861618,0.365812,0.358963,-2.383537,0.005507,0.820987,1.228296,0.334908,-0.351304,-0.874312,0.069740,-0.098769,-0.028642,0.000000,0.000000,0.000000,,,,,,,
1537388377.871659,0.369132,0.362233,-2.371441,-0.120939,0.722179,1.151074,0.337392,-0.354363,-0.872119,0.054301,-0.093559,0.008030,0.000000,0.000000,0.000000,,,,,,,
1537388377.881699,0.371183,0.364982,-2.359426,-0.161072,0.563991,1.129049,0.338826,-0.356932,-0.870514,0.041179,-0.084397,0.030793,0.000000,0.000000,0.000000,,,,,,,
1537388377.891739,0.369259,0.366729,-2.348723,-0.223547,0.079348,0.960716,0.336925,-0.358564,-0.870582,0.040746,-0.046038,0.002036,0.000000,0.000000,0.000000,,,,,,,
1537388377.901749,0.364434,0.366709,-2.337881,-0.416048,-0.146263,0.943503,0.332723,-0.358545,-0.872204,0.129008,-0.078100,-0.013218,0.000000,0.000000,0.000000,,,,,,,
1537388377.911788,0.357530,0.364938,-2.326872,-0.552979,-0.333703,0.869786,0.326915,-0.356892,-0.875074,0.174626,-0.100826,-0.098117,0.000000,0.000000,0.000000,,,,,,,
1537388377.921829,0.349668,0.362125,-2.317080,-0.578865,-0.470179,0.715222,0.320368,-0.354263,-0.878557,0.141409,-0.091676,-0.118026,0.000000,0.000000,0.000000,,,,,,,
1537388377.931870,0.341454,0.358941,-2.309573,-0.512853,-0.586649,0.491591,0.313517,-0.351283,-0.882217,0.102926,-0.060048,-0.093766,0.000000,0.000000,0.000000,,,,,,,
1537388377.941880,0.333214,0.356292,-2.304377,-0.374695,-0.659852,0.351530,0.306540,-0.348801,-0.885647,0.065713,-0.005645,-0.071858,0.000000,0.000000,0.000000,,,,,,,
1537388377.951920,0.324244,0.355087,-2.299145,-0.234186,-0.724165,0.464744,0.298717,-0.347672,-0.888758,-0.000179,0.030716,-0.066045,0.000000,0.000000,0.000000,,,,,,,
1537388377.961953,0.314686,0.355827,-2.292512,-0.087657,-0.723989,0.658959,0.290129,-0.348366,-0.891328,-0.021025,0.017555,-0.062560,0.000000,0.000000,0.000000,,,,,,,
1537388377.971993,0.306377,0.358341,-2.285696,0.079356,-0.566686,0.685929,0.282448,-0.350721,-0.892870,0.019508,-0.020876,-0.008543,0.000000,0.000000,0.000000,,,,,,,
1537388377.982003,0.298662,0.361354,-2.279283,0.114540,-0.498534,0.645229,0.275239,-0.353541,-0.894009,0.119704,-0.050298,-0.007389,0.000000,0.000000,0.000000,,,,,,,
1537388377.992044,0.292630,0.363946,-2.273794,0.093335,-0.374273,0.531334,0.269577,-0.355965,-0.894772,0.199219,-0.098869,-0.051182,0.000000,0.000000,0.000000,,,,,,,
1537388378.002084,0.288060,0.366136,-2.268929,0.074018,-0.257042,0.496566,0.265262,-0.358010,-0.895245,0.165814,-0.140357,-0.038105,0.000000,0.000000,0.000000,,,,,,,
1537388378.012094,0.284292,0.368195,-2.263708,0.055603,-0.171453,0.530329,0.261680,-0.359932,-0.895529,0.089150,-0.124046,-0.036890,0.000000,0.000000,0.000000,,,,,,,
1537388378.022134,0.280484,0.370155,-2.258848,0.066585,-0.218798,0.461105,0.258072,-0.361760,-0.895839,0.060944,-0.055415,-0.033680,0.000000,0.000000,0.000000,,,,,,,
1537388378.032174,0.276480,0.371929,-2.255192,0.082024,-0.283486,0.341741,0.254308,-0.363413,-0.896246,0.032039,0.006052,-0.038019,0.000000,0.000000,0.000000,,,,,,,
1537388378.042214,0.272322,0.373465,-2.252867,0.090024,-0.351419,0.218076,0.250428,-0.364844,-0.896757,0.011214,-0.003046,-0.043627,0.000000,0.000000,0.000000,,,,,,,
1537388378.052224,0.268028,0.374902,-2.251922,0.123595,-0.407580,0.095568,0.246436,-0.366181,-0.897318,0.010079,-0.040435,-0.050665,0.000000,0.000000,0.000000,,,,,,,
1537388378.062264,0.262835,0.376272,-2.252492,0.154399,-0.634725,-0.056200,0.241642,-0.367456,-0.898100,0.021618,-0.050986,-0.029649,0.000000,0.000000,0.000000,,,,,,,
1537388378.072305,0.254027,0.377294,-2.254287,0.130953,-1.026026,-0.147748,0.233628,-0.368406,-0.899830,0.056472,-0.050814,-0.028790,0.000000,0.000000,0.000000,,,,,,,
1537388378.082345,0.243979,0.377432,-2.256040,0.021230,-1.058270,-0.162090,0.224563,-0.368535,-0.902083,0.097336,-0.068218,-0.013140,0.000000,0.000000,0.000000,,,,,,,
1537388378.092355,0.234253,0.376135,-2.257971,-0.118315,-1.042728,-0.218461,0.215890,-0.367328,-0.904688,0.078117,-0.035260,0.011866,0.000000,0.000000,0.000000,,,,,,,
1537388378.102395,0.224489,0.373441,-2.260122,-0.247147,-1.057050,-0.270381,0.207265,-0.364821,-0.907715,0.079661,-0.013338,0.008941,0.000000,0.000000,0.000000,,,,,,,
1537388378.112435,0.214653,0.369468,-2.262855,-0.355583,-1.089665,-0.352046,0.198634,-0.361120,-0.911118,0.088689,0.015173,0.013215,0.000000,0.000000,0.000000,,,,,,,
1537388378.122476,0.205469,0.364622,-2.265908,-0.429293,-0.979934,-0.379589,0.190613,-0.356596,-0.914606,0.060623,0.030165,0.006129,0.000000,0.000000,0.000000,,,,,,,
1537388378.132485,0.196712,0.359778,-2.269100,-0.409930,-1.029142,-0.399598,0.182932,-0.352066,-0.917924,-0.021616,-0.022659,0.034730,0.000000,0.000000,0.000000,,,,,,,
1537388378.142526,0.185820,0.355264,-2.273291,-0.351498,-1.291204,-0.499781,0.173216,-0.347838,-0.921414,-0.059736,-0.070924,0.036038,0.000000,0.000000,0.000000,,,,,,,
,,,,,,,,,,,,,,,,42.293369,-71.263525,62.241627,0.743854,284.976010,1537388377.998557,
1537388378.152566,0.175087,0.351086,-2.279155,-0.302066,-1.237519,-0.650432,0.163568,-0.343917,-0.924644,-0.023691,-0.073060,0.058967,0.000000,0.000000,0.000000,,,,,,,
1537388378.162606,0.166130,0.346894,-2.286144,-0.302089,-1.103410,-0.726848,0.155517,-0.339978,-0.927485,-0.009368,-0.040561,0.078272,0.000000,0.000000,0.000000,,,,,,,
1537388378.172616,0.157428,0.342594,-2.293312,-0.321219,-1.123759,-0.735418,0.147667,-0.335932,-0.930238,-0.008812,-0.015082,0.043352,0.000000,0.000000,0.000000,,,,,,,
1537388378.182656,0.147908,0.338083,-2.300545,-0.346621,-1.210300,-0.740551,0.139027,-0.331680,-0.933091,0.046200,-0.006074,0.010179,0.000000,0.000000,0.000000,,,,,,,
1537388378.192697,0.137794,0.333480,-2.307508,-0.361639,-1.239962,-0.694554,0.129791,-0.327333,-0.935952,0.090561,0.003389,-0.000571,0.000000,0.000000,0.000000,,,,,,,
1537388378.202737,0.127873,0.329362,-2.313555,-0.315222,-1.156057,-0.590974,0.120670,-0.323439,-0.938523,0.048321,-0.010118,0.021973,0.000000,0.000000,0.000000,,,,,,,
1537388378.212747,0.119074,0.326427,-2.318455,-0.203990,-0.990813,-0.462795,0.112520,-0.320661,-0.940487,0.002394,-0.029238,0.067501,0.000000,0.000000,0.000000,,,,,,,
1537388378.222787,0.112002,0.324928,-2.322164,-0.073701,-0.762534,-0.334768,0.105920,-0.319241,-0.941735,-0.037240,-0.032001,0.106454,0.000000,0.000000,0.000000,,,,,,,
1537388378.232827,0.106951,0.324908,-2.324974,0.058848,-0.539789,-0.244114,0.101162,-0.319221,-0.942265,-0.073574,-0.025139,0.125737,0.000000,0.000000,0.000000,,,,,,,
1537388378.242867,0.103597,0.326097,-2.327202,0.162798,-0.364222,-0.182278,0.097962,-0.320349,-0.942221,-0.086060,-0.017222,0.125280,0.000000,0.000000,0.000000,,,,,,,
1537388378.252877,0.101376,0.327963,-2.328907,0.208264,-0.253913,-0.129040,0.095808,-0.322116,-0.941840,-0.088652,-0.020856,0.110358,0.000000,0.000000,0.000000,,,,,,,
1537388378.262918,0.096250,0.328220,-2.330579,-0.024278,-0.700645,-0.157339,0.090971,-0.322359,-0.942236,-0.045698,-0.027739,0.024923,0.000000,0.000000,0.000000,,,,,,,
1537388378.272958,0.087819,0.325654,-2.332702,-0.307034,-0.994053,-0.254914,0.083097,-0.319928,-0.943790,0.025286,-0.019992,-0.133480,0.000000,0.000000,0.000000,,,,,,,
1537388378.282998,0.076324,0.320014,-2.335865,-0.609910,-1.326029,-0.368472,0.072379,-0.314580,-0.946467,0.036264,-0.001979,-0.115773,0.000000,0.000000,0.000000,,,,,,,
1537388378.293008,0.063233,0.311696,-2.339855,-0.863149,-1.454959,-0.457996,0.060146,-0.306673,-0.949912,0.015691,-0.001646,-0.112694,0.000000,0.000000,0.000000,,,,,,,
1537388378.303048,0.049875,0.301372,-2.344492,-1.041051,-1.465054,-0.506984,0.047608,-0.296831,-0.953742,-0.010880,-0.013716,-0.063744,0.000000,0.000000,0.000000,,,,,,,
1537388378.313088,0.037104,0.289902,-2.349254,-1.141478,-1.385051,-0.498211,0.035548,-0.285859,-0.957612,-0.041697,-0.027999,-0.018813,0.000000,0.000000,0.000000,,,,,,,
1537388378.323129,0.025530,0.278077,-2.353754,-1.164308,-1.238563,-0.454026,0.024547,-0.274507,-0.961272,-0.065898,-0.039427,0.017393,0.000000,0.000000,0.000000,,,,,,,
1537388378.333138,0.015618,0.266653,-2.357686,-1.116947,-1.044853,-0.382941,0.015066,-0.263504,-0.964541,-0.081289,-0.041779,0.049639,0.000000,0.000000,0.000000,,,,,,,
1537388378.343179,0.007601,0.256176,-2.360923,-1.009947,-0.824341,-0.303099,0.007353,-0.253383,-0.967338,-0.090269,-0.040028,0.074058,0.000000,0.000000,0.000000,,,,,,,
1537388378.353219,0.002049,0.247206,-2.363680,-0.849599,-0.546354,-0.268095,0.001987,-0.244695,-0.969598,-0.089145,-0.035105,0.095101,0.000000,0.000000,0.000000,,,,,,,
1537388378.363229,-0.000792,0.240159,-2.366090,-0.650898,-0.278903,-0.215747,-0.000769,-0.237857,-0.971300,-0.065439,-0.009961,0.113130,0.000000,0.000000,0.000000,,,,,,,
1537388378.373269,-0.001567,0.235338,-2.367355,-0.423586,-0.045161,-0.086163,-0.001523,-0.233171,-0.972434,-0.090365,-0.019636,0.112815,0.000000,0.000000,0.000000,,,,,,,
1537388378.383309,-0.000080,0.232921,-2.366879,-0.177298,0.225154,0.088263,-0.000078,-0.230821,-0.972996,-0.094313,-0.046431,0.114476,0.000000,0.000000,0.000000,,,,,,,
1537388378.393350,0.002930,0.233161,-2.365460,0.090991,0.353898,0.141529,0.002850,-0.231054,-0.972937,-0.041974,-0.065592,0.121008,0.000000,0.000000,0.000000,,,,,,,
1537388378.403359,0.005781,0.235847,-2.363775,0.319180,0.303116,0.176061,0.005620,-0.233667,-0.972300,0.009959,-0.046347,0.091899,0.000000,0.000000,0.000000,,,,,,,
1537388378.413400,0.007845,0.240160,-2.361835,0.458963,0.239289,0.188805,0.007619,-0.237858,-0.971270,0.002467,-0.019954,0.048754,0.000000,0.000000,0.000000,,,,,,,
1537388378.423440,0.009718,0.245339,-2.360284,0.527401,0.222023,0.140070,0.009427,-0.242885,-0.970009,0.008456,-0.000843,0.026222,0.000000,0.000000,0.000000,,,,,,,
1537388378.433480,0.011883,0.250641,-2.359269,0.522171,0.248445,0.091843,0.011512,-0.248025,-0.968685,0.019937,-0.003822,0.015759,0.000000,0.000000,0.000000,,,,,,,
1537388378.443490,0.014281,0.255483,-2.358641,0.466812,0.253545,0.060538,0.013817,-0.252712,-0.967443,0.016273,-0.009098,0.010594,0.000000,0.000000,0.000000,,,,,,,
1537388378.453530,0.016513,0.259665,-2.358191,0.396526,0.225636,0.047454,0.015959,-0.256757,-0.966344,0.014818,-0.011676,0.003301,0.000000,0.000000,0.000000,,,,,,,
1537388378.463571,0.018450,0.263094,-2.357751,0.320868,0.197789,0.048237,0.017814,-0.260069,-0.965426,0.015175,-0.008486,-0.003340,0.000000,0.000000,0.000000,,,,,,,
1537388378.473611,0.020199,0.265789,-2.357339,0.249478,0.180583,0.041518,0.019488,-0.262671,-0.964689,0.009427,-0.007441,-0.005679,0.000000,0.000000,0.000000,,,,,,,
1537388378.483621,0.021774,0.267834,-2.357087,0.187727,0.160127,0.024175,0.020996,-0.264644,-0.964118,0.003007,-0.005879,-0.003580,0.000000,0.000000,0.000000,,,,,,,
1537388378.493661,0.023284,0.269317,-2.356988,0.134492,0.151409,0.007899,0.022443,-0.266073,-0.963691,-0.008527,-0.002116,0.001442,0.000000,0.000000,0.000000,,,,,,,
1537388378.503701,0.024880,0.270372,-2.357034,0.097198,0.159828,-0.006224,0.023974,-0.267090,-0.963373,-0.014559,0.000427,0.007868,0.000000,0.000000,0.000000,,,,,,,
1537388378.513742,0.026472,0.271157,-2.357138,0.073754,0.151260,-0.006313,0.025501,-0.267846,-0.963124,-0.015278,0.001245,0.017186,0.000000,0.000000,0.000000,,,,,,,
1537388378.523751,0.027761,0.271821,-2.357128,0.065236,0.122499,0.007650,0.026738,-0.268486,-0.962912,-0.011266,-0.002816,0.019965,0.000000,0.000000,0.000000,,,,,,,
1537388378.533792,0.028824,0.272439,-2.356917,0.059862,0.108732,0.027983,0.027757,-0.269081,-0.962717,-0.003313,-0.010094,0.019190,0.000000,0.000000,0.000000,,,,,,,
1537388378.543832,0.029952,0.272982,-2.356482,0.049086,0.132318,0.048140,0.028838,-0.269604,-0.962539,-0.001739,-0.014896,0.021026,0.000000,0.000000,0.000000,,,,,,,
1537388378.553872,0.031518,0.273450,-2.355835,0.043577,0.189006,0.069261,0.030342,-0.270055,-0.962367,-0.007195,-0.020107,0.029337,0.000000,0.000000,0.000000,,,,,,,
1537388378.563882,0.033630,0.273996,-2.354962,0.058308,0.250010,0.092608,0.032369,-0.270581,-0.962153,-0.017660,-0.021579,0.043787,0.000000,0.000000,0.000000,,,,,,,
1537388378.573922,0.036118,0.274697,-2.353807,0.066671,0.286483,0.119226,0.034756,-0.271256,-0.961879,-0.029888,-0.019363,0.087398,0.000000,0.000000,0.000000,,,,,,,
1537388378.583962,0.038602,0.275420,-2.352408,0.067681,0.280195,0.140631,0.037138,-0.271951,-0.961594,-0.025755,-0.019523,0.092896,0.000000,0.000000,0.000000,,,,,,,
1537388378.594003,0.040202,0.276116,-2.350967,0.061532,0.164847,0.137852,0.038669,-0.272621,-0.961344,-0.006335,-0.016441,0.059946,0.000000,0.000000,0.000000,,,,,,,
1537388378.604012,0.040425,0.276521,-2.349748,0.023514,0.022654,0.111499,0.038878,-0.273011,-0.961225,0.014985,-0.007369,0.015546,0.000000,0.000000,0.000000,,,,,,,
1537388378.614053,0.039680,0.276316,-2.348840,-0.042308,-0.068365,0.077315,0.038165,-0.272813,-0.961309,0.024122,-0.005599,-0.013819,0.000000,0.000000,0.000000,,,,,,,
1537388378.624093,0.038313,0.275387,-2.348290,-0.111362,-0.136987,0.039819,0.036860,-0.271920,-0.961614,0.017614,-0.010353,-0.012294,0.000000,0.000000,0.000000,,,,,,,
1537388378.634133,0.036401,0.273816,-2.347974,-0.173040,-0.191616,0.021544,0.035038,-0.270407,-0.962108,0.014599,-0.016000,-0.014729,0.000000,0.000000,0.000000,,,,,,,
1537388378.644143,0.034392,0.271740,-2.347601,-0.217874,-0.185207,0.031971,0.033123,-0.268408,-0.962735,0.011250,-0.025735,-0.008181,0.000000,0.000000,0.000000,,,,,,,
1537388378.654183,0.032710,0.269505,-2.347022,-0.226583,-0.132776,0.054160,0.031523,-0.266254,-0.963387,0.001787,-0.027401,0.010567,0.000000,0.000000,0.000000,,,,,,,
1537388378.664224,0.031692,0.267376,-2.346247,-0.210778,-0.065400,0.071075,0.030560,-0.264202,-0.963983,-0.006177,-0.024403,0.034372,0.000000,0.000000,0.000000,,,,,,,
1537388378.674233,0.031121,0.265551,-2.345451,-0.175646,-0.030146,0.070051,0.030025,-0.262441,-0.964481,-0.007320,-0.018458,0.039630,0.000000,0.000000,0.000000,,,,,,,
1537388378.684274,0.030735,0.264071,-2.344776,-0.142565,-0.021633,0.057366,0.029665,-0.261012,-0.964879,-0.001711,-0.008199,0.030950,0.000000,0.000000,0.000000,,,,,,,
1537388378.694314,0.030369,0.262789,-2.344226,-0.126544,-0.024849,0.047843,0.029322,-0.259775,-0.965224,-0.003061,-0.004187,0.025633,0.000000,0.000000,0.000000,,,,,,,
1537388378.704354,0.029935,0.261634,-2.343800,-0.115816,-0.036651,0.035121,0.028912,-0.258659,-0.965536,-0.004559,-0.004768,0.025991,0.000000,0.000000,0.000000,,,,,,,
1537388378.714364,0.029430,0.260548,-2.343554,-0.107198,-0.046365,0.015968,0.028432,-0.257610,-0.965830,-0.001226,-0.005391,0.025218,0.000000,0.000000,0.000000,,,,,,,
1537388378.724404,0.028834,0.259600,-2.343510,-0.090036,-0.065667,-0.003103,0.027864,-0.256694,-0.966091,0.002669,-0.006169,0.023754,0.000000,0.000000,0.000000,,,,,,,
1537388378.734445,0.028011,0.258891,-2.343643,-0.064348,-0.092399,-0.017825,0.027074,-0.256009,-0.966295,0.004909,-0.006961,0.025850,0.000000,0.000000,0.000000,,,,,,,
1537388378.744485,0.027296,0.258370,-2.343814,-0.049468,-0.071016,-0.015694,0.026386,-0.255505,-0.966447,0.003597,-0.009372,0.034593,0.000000,0.000000,0.000000,,,,,,,
1537388378.754495,0.026512,0.257999,-2.343960,-0.033442,-0.087010,-0.014478,0.025631,-0.255147,-0.966562,-0.002057,-0.017604,0.043863,0.000000,0.000000,0.000000,,,,,,,
1537388378.764535,0.025619,0.257683,-2.344102,-0.033438,-0.089145,-0.014469,0.024771,-0.254841,-0.966665,-0.005697,-0.019802,0.039511,0.000000,0.000000,0.000000,,,,,,,
1537388378.774575,0.025196,0.257197,-2.344287,-0.054874,-0.030464,-0.020160,0.024365,-0.254371,-0.966800,-0.015896,-0.018304,0.041613,0.000000,0.000000,0.000000,,,,,,,
1537388378.784616,0.025444,0.256497,-2.344587,-0.073083,0.031367,-0.033327,0.024609,-0.253694,-0.966971,-0.024822,-0.020903,0.050269,0.000000,0.000000,0.000000,,,,,,,
1537388378.794625,0.026215,0.255605,-2.344972,-0.092345,0.076148,-0.038950,0.025360,-0.252831,-0.967178,-0.026550,-0.025322,0.056030,0.000000,0.000000,0.000000,,,,,,,
1537388378.804666,0.027174,0.254507,-2.345265,-0.112669,0.091129,-0.028428,0.026296,-0.251769,-0.967430,-0.023015,-0.028947,0.051659,0.000000,0.000000,0.000000,,,,,,,
1537388378.814706,0.028127,0.253247,-2.345420,-0.128701,0.089042,-0.015679,0.027226,-0.250549,-0.967721,-0.019261,-0.030640,0.044167,0.000000,0.000000,0.000000,,,,,,,
1537388378.824746,0.028973,0.251862,-2.345454,-0.141514,0.080543,-0.005025,0.028055,-0.249207,-0.968044,-0.013285,-0.033340,0.039546,0.000000,0.000000,0.000000,,,,,,,
1537388378.834756,0.029770,0.250396,-2.345324,-0.147983,0.084912,0.013093,0.028838,-0.247787,-0.968385,-0.009932,-0.033340,0.036180,0.000000,0.000000,0.000000,,,,,,,
1537388378.844796,0.030709,0.248868,-2.344915,-0.154533,0.110698,0.043950,0.029758,-0.246307,-0.968735,-0.015109,-0.032639,0.036270,0.000000,0.000000,0.000000,,,,,,,
1537388378.854836,0.031878,0.247286,-2.344120,-0.163248,0.145050,0.080106,0.030903,-0.244774,-0.969087,-0.021992,-0.033638,0.030931,0.000000,0.000000,0.000000,,,,,,,
1537388378.864877,0.033237,0.245687,-2.343030,-0.161244,0.167614,0.105677,0.032233,-0.243222,-0.969435,-0.023886,-0.028094,0.022535,0.000000,0.000000,0.000000,,,,,,,
1537388378.874887,0.034689,0.244160,-2.341718,-0.156011,0.182685,0.127020,0.033653,-0.241741,-0.969757,-0.024513,-0.021854,0.023102,0.000000,0.000000,0.000000,,,,,,,
1537388378.884927,0.036444,0.242747,-2.340090,-0.144482,0.229859,0.160024,0.035368,-0.240370,-0.970037,-0.030729,-0.017885,0.028539,0.000000,0.000000,0.000000,,,,,,,
1537388378.894967,0.038892,0.241561,-2.338128,-0.119164,0.314414,0.194022,0.037753,-0.239219,-0.970231,-0.040133,-0.015664,0.039079,0.000000,0.000000,0.000000,,,,,,,
1537388378.905007,0.042146,0.240689,-2.335747,-0.090702,0.406515,0.238693,0.040919,-0.238372,-0.970311,-0.049296,-0.014573,0.047780,0.000000,0.000000,0.000000,,,,,,,
1537388378.915017,0.046402,0.240136,-2.332958,-0.059072,0.523146,0.275801,0.045054,-0.237835,-0.970260,-0.058115,-0.011769,0.047271,0.000000,0.000000,0.000000,,,,,,,
1537388378.925057,0.051858,0.240059,-2.329840,-0.009311,0.648306,0.308696,0.050348,-0.237760,-0.970018,-0.060084,-0.005907,0.045946,0.000000,0.000000,0.000000,,,,,,,
1537388378.935098,0.058415,0.240725,-2.326436,0.067133,0.764945,0.340696,0.056698,-0.238407,-0.969509,-0.066327,0.001804,0.047145,0.000000,0.000000,0.000000,,,,,,,
1537388378.945138,0.066071,0.242262,-2.322758,0.152115,0.879456,0.370612,0.064094,-0.239900,-0.968679,-0.074715,0.013276,0.045202,0.000000,0.000000,0.000000,,,,,,,
1537388378.955123,0.074620,0.244677,-2.318915,0.232912,0.968287,0.393127,0.072330,-0.242243,-0.967516,-0.080707,0.030008,0.037721,0.000000,0.000000,0.000000,,,,,,,
1537388378.965163,0.083723,0.247840,-2.314951,0.297811,1.014371,0.410384,0.081070,-0.245311,-0.966049,-0.084885,0.046077,0.023193,0.000000,0.000000,0.000000,,,,,,,
1537388378.975203,0.093171,0.251616,-2.310927,0.353153,1.048670,0.421226,0.090107,-0.248970,-0.964310,-0.088657,0.058739,0.011078,0.000000,0.000000,0.000000,,,,,,,
1537388378.985213,0.102853,0.255833,-2.306867,0.388235,1.076561,0.437331,0.099330,-0.253051,-0.962340,-0.090678,0.072295,0.003783,0.000000,0.000000,0.000000,,,,,,,
1537388378.995253,0.112692,0.260377,-2.302541,0.410482,1.093860,0.473717,0.108664,-0.257445,-0.960164,-0.103674,0.077452,-0.008037,0.000000,0.000000,0.000000,,,,,,,
1537388379.005294,0.123470,0.265120,-2.297764,0.414252,1.252184,0.528683,0.118854,-0.262025,-0.957714,-0.111835,0.076112,-0.009357,0.000000,0.000000,0.000000,,,,,,,
1537388379.015334,0.135946,0.270149,-2.292243,0.437091,1.425641,0.610407,0.130612,-0.266875,-0.954839,-0.123684,0.066115,0.033544,0.000000,0.000000,0.000000,,,,,,,
1537388379.025344,0.149983,0.275977,-2.286085,0.513212,1.625823,0.689098,0.143767,-0.272488,-0.951357,-0.148345,0.053371,0.058398,0.000000,0.000000,0.000000,,,,,,,
1537388379.035384,0.166051,0.283109,-2.278878,0.622123,1.847779,0.836276,0.158709,-0.279342,-0.946984,-0.158221,0.048293,0.078027,0.000000,0.000000,0.000000,,,,,,,
1537388379.045424,0.183558,0.291920,-2.270618,0.766434,2.009833,0.956091,0.174807,-0.287792,-0.941604,-0.167147,0.030513,0.084289,0.000000,0.000000,0.000000,,,,,,,
1537388379.055465,0.200094,0.303228,-2.261809,1.018082,1.835652,1.068189,0.189694,-0.298603,-0.935335,-0.133206,0.013889,0.074373,0.000000,0.000000,0.000000,,,,,,,
1537388379.065474,0.216538,0.316623,-2.252315,1.147507,1.973143,1.190160,0.204170,-0.311359,-0.928100,-0.116630,-0.001935,0.067336,0.000000,0.000000,0.000000,,,,,,,
1537388379.075515,0.234884,0.330859,-2.242883,1.191939,2.188737,1.162816,0.220108,-0.324855,-0.919794,-0.053176,0.021663,0.048944,0.000000,0.000000,0.000000,,,,,,,
1537388379.085555,0.256067,0.345245,-2.235410,1.232600,2.405618,0.984750,0.238333,-0.338427,-0.910310,0.072962,0.021823,0.049103,0.000000,0.000000,0.000000,,,,,,,
1537388379.095595,0.280051,0.360054,-2.229842,1.301849,2.623940,0.869887,0.258680,-0.352325,-0.899417,0.090425,0.020019,0.052249,0.000000,0.000000,0.000000,,,,,,,
1537388379.105605,0.297349,0.376210,-2.225837,1.506110,1.418263,0.777432,0.272496,-0.367398,-0.889249,0.005504,-0.034549,0.060941,0.000000,0.000000,0.000000,,,,,,,
1537388379.115645,0.311745,0.390062,-2.223570,1.098766,1.766775,0.561221,0.283681,-0.380246,-0.880305,0.095744,-0.104678,0.079737,0.000000,0.000000,0.000000,,,,,,,
1537388379.125685,0.326015,0.399240,-2.221373,0.703367,1.298064,0.455203,0.295083,-0.388718,-0.872825,0.149756,-0.023544,0.128593,0.000000,0.000000,0.000000,,,,,,,
1537388379.135726,0.332106,0.403032,-2.218883,0.148922,0.479678,0.286685,0.299911,-0.392210,-0.869611,0.136750,-0.130862,-0.016253,0.000000,0.000000,0.000000,,,,,,,
1537388379.145736,0.332271,0.400339,-2.216458,-0.490358,0.032485,0.070287,0.300398,-0.389731,-0.870557,0.171876,-0.108377,-0.039920,0.000000,0.000000,0.000000,,,,,,,
1537388379.155776,0.330617,0.391531,-2.214224,-1.020524,-0.078177,-0.131916,0.300061,-0.381604,-0.874266,0.060184,-0.059146,-0.032686,0.000000,0.000000,0.000000,,,,,,,
,,,,,,,,,,,,,,,,42.293369,-71.263520,62.232427,0.547726,285.313777,1537388378.998546,
1537388379.165816,0.330844,0.378191,-2.211290,-1.438928,0.209277,-0.188695,0.301886,-0.369239,-0.878934,-0.154608,-0.054116,-0.041003,0.000000,0.000000,0.000000,,,,,,,
1537388379.175856,0.333503,0.361780,-2.208020,-1.703511,0.412407,-0.274256,0.306165,-0.353940,-0.883736,-0.216046,-0.010318,-0.047935,0.000000,0.000000,0.000000,,,,,,,
1537388379.185866,0.335184,0.343831,-2.205372,-1.804130,0.228110,-0.371309,0.309690,-0.337096,-0.889077,-0.101011,0.052413,-0.049491,0.000000,0.000000,0.000000,,,,,,,
1537388379.195906,0.334681,0.325650,-2.202963,-1.767482,0.004038,-0.357400,0.311205,-0.319925,-0.894874,0.077788,0.091409,-0.027078,0.000000,0.000000,0.000000,,,,,,,
1537388379.205947,0.334898,0.308968,-2.200463,-1.598250,0.127148,-0.335626,0.313109,-0.304076,-0.899722,0.200258,0.107908,0.067447,0.000000,0.000000,0.000000,,,,,,,
1537388379.215987,0.335585,0.294088,-2.199035,-1.392298,0.089909,-0.355771,0.315182,-0.289868,-0.903679,0.187000,0.073528,0.167687,0.000000,0.000000,0.000000,,,,,,,
1537388379.225997,0.335296,0.281428,-2.197205,-1.210297,0.011973,-0.200603,0.316104,-0.277728,-0.907163,0.063367,-0.008573,0.142820,0.000000,0.000000,0.000000,,,,,,,
1537388379.236037,0.334587,0.270640,-2.193426,-1.116278,0.038062,0.055222,0.316426,-0.267348,-0.910164,-0.031712,-0.063920,0.105522,0.000000,0.000000,0.000000,,,,,,,
1537388379.246077,0.333165,0.261068,-2.187515,-1.079589,0.004065,0.272510,0.315953,-0.258112,-0.912990,-0.048345,-0.054571,0.062373,0.000000,0.000000,0.000000,,,,,,,
1537388379.256118,0.332267,0.252693,-2.180166,-0.996186,0.163068,0.435836,0.315828,-0.250013,-0.915284,-0.028108,-0.044970,0.035661,0.000000,0.000000,0.000000,,,,,,,
1537388379.266127,0.335165,0.246198,-2.171824,-0.828041,0.617874,0.587743,0.319006,-0.243719,-0.915879,-0.065253,-0.032420,0.041047,0.000000,0.000000,0.000000,,,,,,,
1537388379.276168,0.342867,0.242244,-2.163454,-0.576420,1.090363,0.635277,0.326373,-0.239882,-0.914296,-0.100817,-0.049440,0.019856,0.000000,0.000000,0.000000,,,,,,,
1537388379.286208,0.356747,0.240499,-2.156097,-0.350450,1.735297,0.594352,0.339177,-0.238187,-0.910069,-0.084828,-0.002017,0.012013,0.000000,0.000000,0.000000,,,,,,,
1537388379.296248,0.378924,0.240461,-2.150555,-0.145845,2.545196,0.463950,0.359277,-0.238151,-0.902332,-0.079385,0.055869,0.027225,0.000000,0.000000,0.000000,,,,,,,
1537388379.306258,0.410494,0.241497,-2.147155,-0.002204,3.492593,0.302755,0.387482,-0.239156,-0.890315,-0.077423,0.036886,0.027812,0.000000,0.000000,0.000000,,,,,,,
1537388379.316298,0.452338,0.243519,-2.145985,0.192728,4.386672,0.140973,0.424174,-0.241119,-0.872890,0.001989,-0.047043,0.013988,0.000000,0.000000,0.000000,,,,,,,
1537388379.326339,0.499085,0.247299,-2.148186,0.514969,4.593146,-0.050535,0.464061,-0.244786,-0.851308,0.116032,-0.103999,0.045995,0.000000,0.000000,0.000000,,,,,,,
1537388379.336348,0.543028,0.253963,-2.151794,0.812827,4.180068,0.100163,0.500156,-0.251242,-0.828686,-0.081393,-0.087259,0.069424,0.000000,0.000000,0.000000,,,,,,,
1537388379.346389,0.580325,0.263960,-2.153931,0.999736,3.469002,0.450255,0.529305,-0.260905,-0.807318,-0.269173,-0.118672,0.043692,0.000000,0.000000,0.000000,,,,,,,
1537388379.356429,0.607992,0.274845,-2.154973,0.938592,2.477421,0.516938,0.549781,-0.271398,-0.789989,-0.254737,-0.099986,0.051433,0.000000,0.000000,0.000000,,,,,,,
1537388379.366469,0.627368,0.283594,-2.157350,0.796100,1.677048,0.230809,0.563568,-0.279808,-0.777236,-0.148712,0.000480,0.076889,0.000000,0.000000,0.000000,,,,,,,
1537388379.376479,0.641833,0.287795,-2.161805,0.512607,1.245076,-0.207154,0.574042,-0.283838,-0.768055,-0.132010,-0.015997,0.114369,0.000000,0.000000,0.000000,,,,,,,
1537388379.386519,0.655109,0.287040,-2.167698,0.209051,1.135896,-0.579176,0.584318,-0.283114,-0.760536,-0.220122,-0.025495,0.009621,0.000000,0.000000,0.000000,,,,,,,
1537388379.396560,0.667982,0.283099,-2.174417,0.059498,1.079025,-0.793488,0.594746,-0.279333,-0.753822,-0.268803,-0.015772,-0.063744,0.000000,0.000000,0.000000,,,,,,,
1537388379.406600,0.679933,0.278436,-2.181860,0.102584,0.953851,-0.849409,0.604525,-0.274852,-0.747665,-0.243654,-0.006932,0.008926,0.000000,0.000000,0.000000,,,,,,,
1537388379.416610,0.691061,0.275243,-2.189659,0.277295,0.880932,-0.749874,0.613364,-0.271780,-0.741564,-0.220343,0.004920,0.111300,0.000000,0.000000,0.000000,,,,,,,
1537388379.426650,0.702178,0.274432,-2.197953,0.508320,0.894613,-0.642908,0.621711,-0.271000,-0.734868,-0.204628,0.020512,0.170888,0.000000,0.000000,0.000000,,,,,,,
1537388379.436690,0.714558,0.274910,-2.208300,0.736774,0.974264,-0.772416,0.630676,-0.271460,-0.727017,-0.182312,0.085898,0.176556,0.000000,0.000000,0.000000,,,,,,,
1537388379.446730,0.728500,0.274729,-2.222049,0.888024,1.029327,-1.083921,0.640784,-0.271286,-0.718190,-0.152807,0.180878,0.131780,0.000000,0.000000,0.000000,,,,,,,
1537388379.456740,0.744131,0.272672,-2.238386,0.895063,1.164449,-1.366577,0.652308,-0.269305,-0.708496,-0.128794,0.181430,0.071182,0.000000,0.000000,0.000000,,,,,,,
1537388379.466780,0.761751,0.268097,-2.255116,0.711754,1.342813,-1.509326,0.665533,-0.264897,-0.697777,-0.095098,0.115071,0.029640,0.000000,0.000000,0.000000,,,,,,,
1537388379.476821,0.779271,0.261073,-2.270142,0.424956,1.334930,-1.520419,0.678946,-0.258117,-0.687317,-0.048300,0.033508,-0.033813,0.000000,0.000000,0.000000,,,,,,,
1537388379.486861,0.794217,0.251832,-2.281478,0.010056,1.143048,-1.373275,0.690814,-0.249179,-0.678736,0.018323,-0.040784,-0.116629,0.000000,0.000000,0.000000,,,,,,,
1537388379.496871,0.802662,0.241453,-2.286210,-0.540473,0.569348,-0.926068,0.698344,-0.239114,-0.674638,0.047948,-0.136741,-0.265853,0.000000,0.000000,0.000000,,,,,,,
1537388379.506911,0.803571,0.230644,-2.282127,-1.209916,0.075173,-0.357962,0.700777,-0.228605,-0.675758,0.008727,-0.218508,-0.469277,0.000000,0.000000,0.000000,,,,,,,
1537388379.516951,0.799225,0.218583,-2.269168,-1.910426,-0.210243,0.123649,0.699759,-0.216847,-0.680670,0.134271,-0.213100,-0.616861,0.000000,0.000000,0.000000,,,,,,,
1537388379.526992,0.791046,0.205207,-2.250379,-2.322272,-0.497642,0.374860,0.696168,-0.203769,-0.688349,0.221877,-0.237606,-0.763326,0.000000,0.000000,0.000000,,,,,,,
1537388379.537001,0.779108,0.191060,-2.229763,-2.439017,-0.890294,0.447417,0.689858,-0.189899,-0.698592,0.306296,-0.311733,-0.918459,0.000000,0.000000,0.000000,,,,,,,
1537388379.547042,0.762772,0.178046,-2.209168,-2.276358,-1.393301,0.582801,0.680004,-0.177106,-0.711494,0.366031,-0.357455,-1.096718,0.000000,0.000000,0.000000,,,,,,,
1537388379.557082,0.740534,0.168884,-2.190155,-1.803313,-2.056737,0.795266,0.665082,-0.168082,-0.727606,0.405093,-0.447533,-1.251810,0.000000,0.000000,0.000000,,,,,,,
1537388379.567122,0.712709,0.166254,-2.174278,-1.011736,-2.651166,1.058292,0.644869,-0.165489,-0.746160,0.491682,-0.535362,-1.351054,0.000000,0.000000,0.000000,,,,,,,
1537388379.577132,0.681155,0.172458,-2.162606,-0.002088,-3.033748,1.352614,0.620349,-0.171605,-0.765321,0.570294,-0.583217,-1.356276,0.000000,0.000000,0.000000,,,,,,,
1537388379.587172,0.648305,0.188056,-2.154993,1.012528,-3.156078,1.598900,0.593189,-0.186949,-0.783054,0.652019,-0.541398,-1.351238,0.000000,0.000000,0.000000,,,,,,,
1537388379.597213,0.615755,0.211500,-2.150810,1.829967,-3.154320,1.735711,0.564705,-0.209927,-0.798146,0.750328,-0.452610,-1.371669,0.000000,0.000000,0.000000,,,,,,,
1537388379.607253,0.583820,0.240187,-2.148621,2.351130,-3.122349,1.803515,0.535391,-0.237885,-0.810411,0.850214,-0.406860,-1.407500,0.000000,0.000000,0.000000,,,,,,,
1537388379.617263,0.551949,0.272043,-2.146312,2.618365,-3.136212,1.942844,0.505063,-0.268700,-0.820189,0.928744,-0.400124,-1.444536,0.000000,0.000000,0.000000,,,,,,,
1537388379.627303,0.517940,0.306580,-2.141348,2.745654,-3.294526,2.249810,0.472005,-0.301800,-0.828327,0.943339,-0.408924,-1.448635,0.000000,0.000000,0.000000,,,,,,,
1537388379.637343,0.480078,0.343745,-2.131844,2.849280,-3.528072,2.665966,0.434829,-0.337016,-0.835070,0.924118,-0.403859,-1.415205,0.000000,0.000000,0.000000,,,,,,,
1537388379.647353,0.437806,0.383283,-2.117644,2.995810,-3.782206,3.018303,0.393192,-0.373968,-0.839968,0.888638,-0.352320,-1.334378,0.000000,0.000000,0.000000,,,,,,,
1537388379.657393,0.390798,0.424962,-2.099688,3.189772,-4.041409,3.215937,0.347044,-0.412286,-0.842365,0.846742,-0.253699,-1.204251,0.000000,0.000000,0.000000,,,,,,,
1537388379.667434,0.339828,0.467954,-2.079250,3.392702,-4.244944,3.242394,0.297490,-0.451061,-0.841452,0.805263,-0.132648,-1.050195,0.000000,0.000000,0.000000,,,,,,,
1537388379.677474,0.285462,0.511560,-2.056787,3.566938,-4.397604,3.207579,0.245550,-0.489538,-0.836693,0.770609,-0.007883,-0.889213,0.000000,0.000000,0.000000,,,,,,,
1537388379.687484,0.227232,0.555586,-2.031326,3.744148,-4.564778,3.250857,0.191397,-0.527441,-0.827751,0.739527,0.071569,-0.744179,0.000000,0.000000,0.000000,,,,,,,
1537388379.697524,0.163884,0.600299,-2.001084,3.923150,-4.690936,3.373069,0.134627,-0.564890,-0.814109,0.719072,0.144739,-0.589822,0.000000,0.000000,0.000000,,,,,,,
1537388379.707564,0.095231,0.645034,-1.965170,4.078642,-4.765966,3.479992,0.075982,-0.601226,-0.795457,0.710777,0.269789,-0.423613,0.000000,0.000000,0.000000,,,,,,,
1537388379.717604,0.021784,0.688494,-1.924198,4.139664,-4.787579,3.422686,0.016820,-0.635375,-0.772019,0.715663,0.414275,-0.264312,0.000000,0.000000,0.000000,,,,,,,
1537388379.727614,-0.054167,0.729121,-1.881095,4.090542,-4.790391,3.115703,-0.040375,-0.666214,-0.744665,0.724625,0.582932,-0.124354,0.000000,0.000000,0.000000,,,,,,,
1537388379.737654,-0.132485,0.766366,-1.837240,3.948920,-4.842722,2.757130,-0.095167,-0.693522,-0.714120,0.741499,0.717127,0.003076,0.000000,0.000000,0.000000,,,,,,,
1537388379.747695,-0.212946,0.799787,-1.792201,3.781236,-4.841088,2.508289,-0.147274,-0.717208,-0.681117,0.734463,0.793075,0.138392,0.000000,0.000000,0.000000,,,,,,,
1537388379.757735,-0.294966,0.829266,-1.744820,3.613963,-4.685118,2.363575,-0.196348,-0.737436,-0.646245,0.726667,0.860315,0.281392,0.000000,0.000000,0.000000,,,,,,,
1537388379.767745,-0.377063,0.855270,-1.695260,3.522261,-4.447952,2.214659,-0.241538,-0.754748,-0.609927,0.721671,0.932299,0.421466,0.000000,0.000000,0.000000,,,,,,,
1537388379.777785,-0.459414,0.879206,-1.643549,3.543721,-4.210866,2.024656,-0.282797,-0.770233,-0.571632,0.728796,1.031692,0.583930,0.000000,0.000000,0.000000,,,,,,,
1537388379.787825,-0.541237,0.902204,-1.589866,3.654794,-3.916281,1.787869,-0.319359,-0.784695,-0.531280,0.730263,1.183056,0.765350,0.000000,0.000000,0.000000,,,,,,,
1537388379.797866,-0.622051,0.925227,-1.534669,3.790710,-3.623265,1.452892,-0.350583,-0.798757,-0.488951,0.731427,1.373937,0.968611,0.000000,0.000000,0.000000,,,,,,,
1537388379.807875,-0.701663,0.948760,-1.479392,3.880312,-3.481364,1.025290,-0.376117,-0.812694,-0.445038,0.754856,1.582240,1.177399,0.000000,0.000000,0.000000,,,,,,,
1537388379.817916,-0.780745,0.972192,-1.425073,3.768522,-3.428273,0.607672,-0.396585,-0.826123,-0.400293,0.805078,1.771374,1.382975,0.000000,0.000000,0.000000,,,,,,,
1537388379.827956,-0.856115,0.993611,-1.375023,3.348261,-3.332496,0.254529,-0.412140,-0.838002,-0.357614,0.897873,1.928074,1.590066,0.000000,0.000000,0.000000,,,,,,,
1537388379.837996,-0.923168,1.010451,-1.333261,2.582731,-3.093136,0.075349,-0.423858,-0.847072,-0.320636,1.037795,2.040690,1.817752,0.000000,0.000000,0.000000,,,,,,,
1537388379.848006,-0.974818,1.020883,-1.304724,1.559261,-2.590722,0.023087,-0.432509,-0.852570,-0.293349,1.194411,2.136627,2.046675,0.000000,0.000000,0.000000,,,,,,,
1537388379.858046,-1.005090,1.024553,-1.293084,0.408149,-1.817995,0.028931,-0.438546,-0.854482,-0.278444,1.361931,2.229635,2.340441,0.000000,0.000000,0.000000,,,,,,,
1537388379.868087,-1.009337,1.022129,-1.300972,-0.767669,-0.827926,-0.039965,-0.441476,-0.853220,-0.277682,1.517800,2.314967,2.604601,0.000000,0.000000,0.000000,,,,,,,
1537388379.878127,-0.983684,1.015081,-1.329225,-1.905239,0.518885,-0.284289,-0.439204,-0.849523,-0.292238,1.649364,2.401830,2.842592,0.000000,0.000000,0.000000,,,,,,,
1537388379.888137,-0.926306,1.003814,-1.377442,-3.020332,2.033706,-0.661692,-0.429348,-0.843526,-0.322675,1.724316,2.436787,3.026700,0.000000,0.000000,0.000000,,,,,,,
1537388379.898177,-0.840024,0.987034,-1.443120,-4.073295,3.455550,-1.069392,-0.410428,-0.834395,-0.367870,1.719586,2.479979,3.050671,0.000000,0.000000,0.000000,,,,,,,
1537388379.908217,-0.730148,0.962689,-1.521886,-5.072579,4.762995,-1.516969,-0.381053,-0.820731,-0.425670,1.662394,2.591025,2.943858,0.000000,0.000000,0.000000,,,,,,,
1537388379.918258,-0.605188,0.928769,-1.608769,-6.018508,5.591937,-2.008317,-0.340677,-0.800883,-0.492464,1.572778,2.696894,2.726061,0.000000,0.000000,0.000000,,,,,,,
1537388379.928267,-0.477568,0.883239,-1.697055,-6.922982,5.826669,-2.420132,-0.291698,-0.772799,-0.563641,1.481975,2.743349,2.379330,0.000000,0.000000,0.000000,,,,,,,
1537388379.938308,-0.357697,0.824474,-1.780436,-7.767315,5.586186,-2.669424,-0.237710,-0.734191,-0.635967,1.397561,2.736678,1.948879,0.000000,0.000000,0.000000,,,,,,,
1537388379.948348,-0.253964,0.752530,-1.852578,-8.544798,5.094160,-2.658722,-0.183397,-0.683488,-0.706546,1.347582,2.666856,1.504474,0.000000,0.000000,0.000000,,,,,,,
1537388379.958383,-0.170358,0.669152,-1.909155,-9.198320,4.505752,-2.341318,-0.132974,-0.620321,-0.772992,1.315241,2.458334,1.054792,0.000000,0.000000,0.000000,,,,,,,
1537388379.968423,-0.104464,0.576614,-1.949291,-9.687707,4.168479,-1.822054,-0.087414,-0.545189,-0.833742,1.311215,2.170997,0.574343,0.000000,0.000000,0.000000,,,,,,,
1537388379.978463,-0.047820,0.478523,-1.975179,-9.965843,4.434268,-1.378896,-0.042433,-0.460469,-0.886661,1.348387,1.936131,0.031283,0.000000,0.000000,0.000000,,,,,,,
1537388379.988503,0.008827,0.378465,-1.991268,-9.975207,5.180183,-1.254730,0.008202,-0.369495,-0.929196,1.426429,1.764682,-0.612109,0.000000,0.000000,0.000000,,,,,,,
1537388379.998513,0.070037,0.281030,-2.002657,-9.546027,5.925426,-1.547218,0.067235,-0.277345,-0.958415,1.481838,1.658159,-1.404210,0.000000,0.000000,0.000000,,,,,,,
1537388380.008554,0.133967,0.190048,-2.012121,-8.681530,6.133757,-1.910096,0.131161,-0.188906,-0.973196,1.442172,1.501437,-2.169565,0.000000,0.000000,0.000000,,,,,,,
1537388380.018594,0.190091,0.108838,-2.018185,-7.619900,5.189454,-1.841982,0.187830,-0.108623,-0.976177,1.314245,1.102245,-2.959401,0.000000,0.000000,0.000000,,,,,,,
1537388380.028634,0.229010,0.037938,-2.017634,-6.717188,3.412919,-1.246624,0.226850,-0.037929,-0.973191,1.141192,0.763210,-3.777709,0.000000,0.000000,0.000000,,,,,,,
1537388380.038644,0.249362,-0.024261,-2.008619,-6.107482,1.599121,-0.374776,0.246713,0.024259,-0.968785,0.968497,0.452029,-4.284542,0.000000,0.000000,0.000000,,,,,,,
1537388380.048684,0.257542,-0.079072,-1.991713,-5.568388,0.512059,0.449988,0.253909,0.078990,-0.963997,0.860151,0.023564,-4.335411,0.000000,0.000000,0.000000,,,,,,,
1537388380.058724,0.263184,-0.126224,-1.970723,-4.885885,0.355020,0.867810,0.258087,0.125889,-0.957884,0.853730,-0.275700,-4.082277,0.000000,0.000000,0.000000,,,,,,,
1537388380.068765,0.271933,-0.163994,-1.951943,-3.817656,0.701503,0.730961,0.264991,0.163260,-0.950329,0.832238,-0.387365,-3.736515,0.000000,0.000000,0.000000,,,,,,,
1537388380.078773,0.285132,-0.189445,-1.940399,-2.377752,1.283668,0.264876,0.276252,0.188314,-0.942455,0.746713,-0.453634,-3.300175,0.000000,0.000000,0.000000,,,,,,,
1537388380.088814,0.303857,-0.201351,-1.938318,-0.792850,2.012892,-0.283328,0.293158,0.199994,-0.934912,0.619058,-0.457379,-2.904718,0.000000,0.000000,0.000000,,,,,,,
1537388380.098855,0.327724,-0.200393,-1.945431,0.648982,2.669889,-0.728325,0.315448,0.199055,-0.927830,0.486417,-0.410587,-2.571880,0.000000,0.000000,0.000000,,,,,,,
1537388380.108895,0.354814,-0.189755,-1.959367,1.682349,3.032801,-0.976574,0.341179,0.188618,-0.920879,0.386527,-0.368733,-2.310337,0.000000,0.000000,0.000000,,,,,,,
1537388380.118905,0.381655,-0.173395,-1.976766,2.260545,2.944791,-0.992426,0.366872,0.172527,-0.914133,0.299449,-0.384304,-2.166662,0.000000,0.000000,0.000000,,,,,,,
1537388380.128945,0.405114,-0.153693,-1.994050,2.512300,2.481005,-0.733823,0.389478,0.153089,-0.908224,0.191119,-0.462949,-2.046015,0.000000,0.000000,0.000000,,,,,,,
1537388380.138986,0.423131,-0.131550,-2.008512,2.611387,1.830064,-0.304273,0.407069,0.131171,-0.903929,0.065678,-0.530768,-1.882478,0.000000,0.000000,0.000000,,,,,,,
1537388380.149026,0.435350,-0.107362,-2.019596,2.655067,1.198137,0.101397,0.419299,0.107155,-0.901501,-0.032230,-0.506829,-1.655612,0.000000,0.000000,0.000000,,,,,,,
,,,,,,,,,,,,,,,,42.293367,-71.263525,62.229631,0.503184,284.609038,1537388379.998535,
1537388380.159036,0.443017,-0.081875,-2.028206,2.672177,0.745853,0.365135,0.427231,0.081783,-0.900435,-0.071137,-0.387814,-1.401750,0.000000,0.000000,0.000000,,,,,,,
1537388380.169075,0.447941,-0.055656,-2.035482,2.664802,0.484999,0.499731,0.432440,0.055628,-0.899945,-0.080328,-0.262735,-1.145359,0.000000,0.000000,0.000000,,,,,,,
1537388380.179116,0.451597,-0.029487,-2.042246,2.631881,0.371938,0.527796,0.436213,0.029483,-0.899360,-0.078211,-0.155322,-0.913537,0.000000,0.000000,0.000000,,,,,,,
