timestamp(unix),attitude_roll(radians),attitude_pitch(radians),attitude_yaw(radians),rotation_rate_x(radians/s),rotation_rate_y(radians/s),rotation_rate_z(radians/s),gravity_x(G),gravity_y(G),gravity_z(G),user_acc_x(G),user_acc_y(G),user_acc_z(G),magnetic_field_x(microteslas),magnetic_field_y(microteslas),magnetic_field_z(microteslas),latitude(degree),longitude(degree),altitude(meter),speed(m/s),course(degree),timestamp(unix),User Mark
1537473170.070821,0.074328,0.336078,2.780851,-0.335157,0.022437,-0.060576,0.070105,-0.329787,-0.941449,-0.010428,0.012633,0.054944,-22.023348,-21.039837,-46.640442,,,,,,,
1537473170.080801,0.074455,0.332270,2.780798,-0.397289,-0.012433,-0.043802,0.070318,-0.326189,-0.942685,-0.015813,-0.003904,0.016065,-21.803013,-20.817539,-46.824463,,,,,,,
1537473170.090780,0.073800,0.327910,2.780936,-0.451168,-0.084672,-0.007730,0.069804,-0.322065,-0.944141,-0.004878,-0.017047,-0.006940,-21.803013,-20.817539,-46.824463,,,,,,,
,,,,,,,,,,,,,,,,42.293782,-71.263865,54.822899,-1.000000,-1.000000,1537473164.586660,
1537473170.100759,0.072091,0.323132,2.781800,-0.496724,-0.177204,0.045486,0.068301,-0.317538,-0.945783,0.001859,-0.031690,-0.022494,-21.938498,-20.469929,-46.927948,,,,,,,
1537473170.110738,0.069535,0.318238,2.783105,-0.508076,-0.229332,0.104186,0.065990,-0.312893,-0.947493,0.003865,-0.042713,-0.031877,-21.938498,-20.469929,-46.927948,,,,,,,
1537473170.120687,0.066828,0.313477,2.785022,-0.490255,-0.211188,0.143761,0.063524,-0.308368,-0.949144,0.001799,-0.040875,-0.007537,-22.202713,-20.081501,-47.063385,,,,,,,
1537473170.140646,0.062459,0.305840,2.788854,-0.326869,-0.167210,0.141409,0.059522,-0.301094,-0.951735,-0.000364,-0.017204,0.015898,-22.117004,-19.743698,-47.147980,,,,,,,
1537473170.150625,0.060389,0.303382,2.790237,-0.236922,-0.163487,0.106675,0.057596,-0.298749,-0.952592,0.002508,0.001707,0.015840,-22.117004,-19.743698,-47.147980,,,,,,,
1537473170.160604,0.058809,0.301577,2.791267,-0.177682,-0.116923,0.059985,0.056122,-0.297027,-0.953218,0.002182,0.016723,0.016649,-22.125469,-19.524643,-47.245148,,,,,,,
1537473170.170583,0.057959,0.300057,2.791642,-0.155781,-0.061616,0.016281,0.055339,-0.295575,-0.953715,-0.003993,0.018506,0.018764,-22.125469,-19.524643,-47.245148,,,,,,,
1537473170.180563,0.057691,0.298486,2.791787,-0.167086,-0.019993,-0.017981,0.055110,-0.294074,-0.954193,-0.015071,0.014105,0.011825,-22.111040,-19.437485,-47.497559,,,,,,,
1537473170.130666,0.064599,0.309225,2.786936,-0.424078,-0.158124,0.156879,0.061493,-0.304320,-0.950583,-0.004058,-0.030381,0.012778,-22.202713,-20.081501,-47.063385,,,,,,,
1537473170.190542,0.057666,0.296674,2.791478,-0.192413,-0.016721,-0.046946,0.055117,-0.292341,-0.954724,-0.015261,0.012587,-0.004458,-22.111040,-19.437485,-47.497559,,,,,,,
1537473170.200521,0.057519,0.294638,2.791070,-0.210388,-0.036964,-0.070508,0.055010,-0.290393,-0.955325,-0.010958,0.009280,-0.016736,-22.140497,-19.124466,-47.369568,,,,,,,
1537473170.210470,0.057199,0.292433,2.790342,-0.228458,-0.060390,-0.085526,0.054741,-0.288283,-0.955979,-0.010552,0.004423,-0.010116,-22.140497,-19.124466,-47.369568,,,,,,,
1537473170.220449,0.056743,0.290004,2.789708,-0.247644,-0.072045,-0.090956,0.054345,-0.285956,-0.956700,-0.007149,-0.001321,-0.007091,-22.074076,-18.991581,-47.488647,,,,,,,
1537473170.230428,0.056185,0.287380,2.789028,-0.263787,-0.074064,-0.076100,0.053852,-0.283441,-0.957476,-0.004963,-0.009543,-0.003370,-22.074076,-18.991581,-47.488647,,,,,,,
1537473170.240408,0.055788,0.284742,2.788702,-0.259608,-0.045219,-0.057959,0.053514,-0.280910,-0.958241,-0.004732,-0.015767,0.005391,-22.068951,-18.674168,-47.702332,,,,,,,
1537473170.250387,0.055726,0.282331,2.788390,-0.231916,-0.002618,-0.040770,0.053492,-0.278595,-0.958918,-0.006876,-0.018341,0.021204,-22.068951,-18.674168,-47.702332,,,,,,,
1537473170.260366,0.056052,0.280315,2.788276,-0.190230,0.036674,-0.037378,0.053836,-0.276659,-0.959459,-0.001437,-0.014006,0.031191,-22.145420,-18.517754,-47.841003,,,,,,,
1537473170.270345,0.056675,0.278840,2.788009,-0.131520,0.060932,-0.032812,0.054457,-0.275241,-0.959832,0.003358,-0.009122,0.030785,-22.145420,-18.517754,-47.841003,,,,,,,
1537473170.280325,0.057473,0.277917,2.787872,-0.078139,0.074532,-0.032533,0.055237,-0.274353,-0.960041,0.002182,-0.006714,0.027043,-21.814386,-18.505795,-47.790924,,,,,,,
1537473170.290273,0.058265,0.277355,2.787597,-0.051516,0.070130,-0.029178,0.056007,-0.273812,-0.960151,-0.000968,-0.005836,0.020423,-21.814386,-18.505795,-47.790924,,,,,,,
1537473170.300253,0.059000,0.276780,2.787457,-0.062167,0.065908,-0.032435,0.056721,-0.273260,-0.960267,-0.001500,-0.003306,0.012253,-21.596207,-18.267120,-47.823212,,,,,,,
1537473170.310232,0.059901,0.275900,2.787143,-0.098329,0.087439,-0.037993,0.057601,-0.272413,-0.960455,-0.004378,-0.000063,0.011007,-21.596207,-18.267120,-47.823212,,,,,,,
1537473170.320211,0.060993,0.274658,2.786837,-0.132262,0.098251,-0.057404,0.058670,-0.271218,-0.960728,-0.008026,0.001885,0.011357,-21.524881,-18.247807,-47.825836,,,,,,,
1537473170.330190,0.062135,0.273133,2.786199,-0.159832,0.098356,-0.074638,0.059794,-0.269749,-0.961072,-0.007135,0.005391,0.016523,-21.524881,-18.247807,-47.825836,,,,,,,
1537473170.340170,0.063384,0.271425,2.785463,-0.172338,0.105830,-0.104603,0.061022,-0.268105,-0.961455,-0.012179,0.012856,0.025771,-21.619152,-18.123203,-48.031677,,,,,,,
1537473170.350149,0.065099,0.269677,2.784170,-0.170789,0.144168,-0.146261,0.062701,-0.266420,-0.961815,-0.011798,0.012789,0.047432,-21.619152,-18.123203,-48.031677,,,,,,,
1537473170.360128,0.067152,0.267788,2.782664,-0.186380,0.168724,-0.183733,0.064710,-0.264599,-0.962185,-0.008679,0.011517,0.064465,-21.534811,-18.135971,-48.201752,,,,,,,
1537473170.370107,0.069696,0.265454,2.780611,-0.233906,0.214798,-0.223534,0.067200,-0.262348,-0.962631,-0.003541,0.013980,0.062835,-21.534811,-18.135971,-48.201752,,,,,,,
1537473170.380056,0.072674,0.262526,2.778333,-0.292095,0.238491,-0.269777,0.070122,-0.259521,-0.963188,-0.003838,0.009643,0.066734,-21.535992,-18.013992,-48.429016,,,,,,,
1537473170.390035,0.076218,0.259002,2.775614,-0.344996,0.311314,-0.294697,0.073605,-0.256116,-0.963840,-0.014828,0.003857,0.066852,-21.535992,-18.013992,-48.429016,,,,,,,
1537473170.400014,0.080909,0.255179,2.772819,-0.362565,0.421313,-0.323726,0.078203,-0.252418,-0.964453,-0.005846,0.017479,0.073782,-21.145487,-17.865746,-48.806244,,,,,,,
1537473170.409994,0.086349,0.251433,2.769595,-0.341916,0.474533,-0.350349,0.083530,-0.248792,-0.964948,-0.005145,0.031217,0.062986,-21.145487,-17.865746,-48.806244,,,,,,,
1537473170.419973,0.091740,0.248072,2.766201,-0.294824,0.428310,-0.379933,0.088807,-0.245536,-0.965311,-0.008347,0.038031,0.046625,-20.922602,-17.715221,-49.210815,,,,,,,
1537473170.429952,0.095987,0.245142,2.762496,-0.247024,0.312725,-0.391295,0.092975,-0.242694,-0.965637,-0.036059,0.046817,0.018845,-20.922602,-17.715221,-49.210815,,,,,,,
1537473170.439931,0.099672,0.242759,2.758518,-0.183792,0.258906,-0.437861,0.096590,-0.240382,-0.965861,-0.038469,0.053202,0.017191,-20.598473,-17.656857,-49.503784,,,,,,,
1537473170.449911,0.102957,0.240847,2.753695,-0.135338,0.195512,-0.503715,0.099809,-0.238525,-0.965994,0.006637,0.036850,0.038687,-20.598473,-17.656857,-49.503784,,,,,,,
1537473170.459859,0.105184,0.239040,2.748211,-0.129808,0.051206,-0.567586,0.102005,-0.236770,-0.966196,0.026230,0.014511,0.030024,-20.598473,-17.656857,-49.503784,,,,,,,
1537473170.469839,0.105193,0.236707,2.742390,-0.194121,-0.213342,-0.614636,0.102071,-0.234503,-0.966742,0.026438,-0.003961,0.010931,-20.587564,-17.735828,-49.773407,,,,,,,
1537473170.479818,0.101632,0.233115,2.736028,-0.332363,-0.599222,-0.663039,0.098713,-0.231010,-0.967931,0.012905,-0.024774,-0.013179,-20.587564,-17.735828,-49.773407,,,,,,,
1537473170.489797,0.093885,0.227648,2.729575,-0.535834,-1.022116,-0.705361,0.091329,-0.225687,-0.969909,0.011165,-0.045095,-0.039719,-20.962265,-17.726772,-49.787079,,,,,,,
1537473170.499776,0.082819,0.219919,2.722957,-0.775612,-1.330497,-0.711702,0.080731,-0.218151,-0.972570,0.021121,-0.047612,-0.051752,-20.962265,-17.726772,-49.787079,,,,,,,
1537473170.509756,0.068870,0.209779,2.716886,-1.031695,-1.595986,-0.673340,0.067307,-0.208244,-0.975758,0.026214,-0.030648,-0.047603,-21.911940,-17.296467,-49.730194,,,,,,,
1537473170.519696,0.052364,0.197158,2.711448,-1.295578,-1.812209,-0.583836,0.051326,-0.195884,-0.979283,0.026220,-0.020669,-0.028133,-21.911940,-17.296467,-49.730194,,,,,,,
1537473170.529675,0.034601,0.182133,2.707330,-1.547629,-1.854373,-0.452813,0.034022,-0.181128,-0.982871,0.016790,-0.020746,-0.006738,-23.268431,-16.448643,-49.978058,,,,,,,
1537473170.539654,0.015870,0.166314,2.705626,-1.500769,-2.038412,-0.036064,0.015651,-0.165548,-0.986077,0.014089,-0.026651,0.010430,-23.268431,-16.448643,-49.978058,,,,,,,
1537473170.549603,-0.006893,0.154456,2.710458,-1.219752,-2.021625,0.501323,-0.006810,-0.153842,-0.988072,0.071309,-0.130780,-0.121624,-24.834131,-15.169304,-49.909760,,,,,,,
1537473170.559582,-0.022553,0.142193,2.716071,-1.199577,-1.340339,0.597881,-0.022324,-0.141714,-0.989656,0.001816,-0.075632,0.049836,-24.834131,-15.169304,-49.909760,,,,,,,
1537473170.569562,-0.034419,0.132196,2.722725,-0.878595,-1.054595,0.699695,-0.034112,-0.131811,-0.990688,-0.061469,-0.035654,0.176189,-25.887611,-13.687458,-49.531464,,,,,,,
1537473170.579541,-0.045169,0.127372,2.730565,-0.340330,-0.876743,0.810281,-0.044787,-0.127028,-0.990887,-0.068601,-0.059404,0.139706,-25.887611,-13.687458,-49.531464,,,,,,,
1537473170.589520,-0.050205,0.125899,2.738522,-0.039471,-0.246351,0.767528,-0.049787,-0.125567,-0.990835,-0.067446,-0.044828,0.140386,-26.838652,-12.832508,-49.218079,,,,,,,
1537473170.599499,-0.050115,0.127113,2.745833,0.221549,0.182413,0.704478,-0.049690,-0.126771,-0.990687,-0.049691,-0.010665,0.155604,-26.838652,-12.832508,-49.218079,,,,,,,
1537473170.609479,-0.047843,0.130185,2.752797,0.366600,0.355554,0.645323,-0.047420,-0.129818,-0.990403,-0.025059,0.039592,0.104859,-27.137976,-12.342018,-49.265533,,,,,,,
1537473170.619458,-0.044009,0.133529,2.758992,0.351546,0.496432,0.584253,-0.043603,-0.133133,-0.990139,-0.021384,0.075394,0.055202,-27.137976,-12.342018,-49.265533,,,,,,,
1537473170.629437,-0.039664,0.136164,2.764735,0.262472,0.504249,0.528246,-0.039287,-0.135743,-0.989965,-0.010350,0.083253,0.001394,-27.146446,-12.600876,-49.386810,,,,,,,
1537473170.639386,-0.035651,0.137998,2.769533,0.184118,0.455373,0.448874,-0.035305,-0.137560,-0.989864,-0.006642,0.059801,-0.042347,-27.146446,-12.600876,-49.386810,,,,,,,
1537473170.649365,-0.031673,0.139065,2.773331,0.092447,0.450239,0.322418,-0.031362,-0.138617,-0.989849,-0.003825,0.024298,-0.064640,-27.292967,-12.651676,-49.710938,,,,,,,
1537473170.659344,-0.027305,0.139069,2.775438,-0.020233,0.470778,0.168066,-0.027038,-0.138621,-0.989976,-0.005540,0.019465,-0.063979,-27.292967,-12.651676,-49.710938,,,,,,,
1537473170.669324,-0.023037,0.138473,2.776325,-0.064071,0.415222,0.046192,-0.022814,-0.138031,-0.990165,-0.029417,0.026001,-0.049523,-27.228254,-12.479187,-49.942413,,,,,,,
1537473170.679303,-0.019863,0.137954,2.776243,-0.043539,0.280437,-0.021875,-0.019673,-0.137517,-0.990304,-0.043315,0.029302,-0.052711,-27.228254,-12.479187,-49.942413,,,,,,,
1537473170.689282,-0.017741,0.137956,2.775883,0.017395,0.191413,-0.060947,-0.017571,-0.137519,-0.990343,-0.044654,0.034384,-0.048994,-27.545126,-12.464314,-50.328705,,,,,,,
1537473170.699261,-0.015359,0.138920,2.775133,0.126569,0.251654,-0.080691,-0.015211,-0.138474,-0.990249,-0.040362,0.032517,-0.016266,-27.545126,-12.464314,-50.328705,,,,,,,
1537473170.709241,-0.011428,0.141327,2.774462,0.279681,0.434480,-0.085372,-0.011313,-0.140857,-0.989965,-0.036737,0.030978,0.035482,-27.854149,-12.637943,-50.989624,,,,,,,
1537473170.719189,-0.005311,0.145161,2.773806,0.418785,0.666558,-0.060293,-0.005255,-0.144652,-0.989469,-0.031412,0.027907,0.075849,-27.854149,-12.637943,-50.989624,,,,,,,
,,,,,,,,,,,,,,,,42.293744,-71.263873,53.158546,-1.000000,-1.000000,1537473170.704147,
1537473170.729169,0.003057,0.149949,2.773680,0.492643,0.882993,-0.021680,0.003023,-0.149388,-0.988774,-0.032000,0.022816,0.089314,-28.247002,-13.056812,-51.613281,,,,,,,
1537473170.739148,0.012424,0.155193,2.773592,0.550145,0.922247,0.002080,0.012274,-0.154571,-0.987905,-0.027228,0.019805,0.075674,-28.247002,-13.056812,-51.613281,,,,,,,
1537473170.749127,0.013617,0.158190,2.773610,-0.046347,-0.466996,-0.054226,0.013446,-0.157531,-0.987423,-0.008335,0.015578,-0.036274,-28.738863,-13.234413,-52.346283,,,,,,,
1537473170.759106,0.010078,0.157031,2.773491,-0.051531,-0.225552,0.001008,0.009954,-0.156386,-0.987646,0.006480,0.024795,-0.606943,-28.738863,-13.234413,-52.346283,,,,,,,
1537473170.769086,0.009438,0.158028,2.773488,0.073644,-0.178215,-0.021838,0.009320,-0.157371,-0.987495,-0.087964,0.016090,0.140251,-30.042946,-13.368610,-53.478363,,,,,,,
1537473170.779065,0.006302,0.159136,2.772831,0.120595,-0.394275,-0.086476,0.006223,-0.158465,-0.987345,-0.014386,0.023135,-0.036123,-30.042946,-13.368610,-53.478363,,,,,,,
1537473170.789044,0.002772,0.160296,2.771353,0.111754,-0.358085,-0.159145,0.002736,-0.159611,-0.987176,0.008555,0.016529,-0.073157,-31.849289,-13.362251,-54.120422,,,,,,,
1537473170.799023,-0.000549,0.161352,2.769575,0.109726,-0.369852,-0.174089,-0.000541,-0.160653,-0.987011,-0.000756,0.017648,0.021511,-31.849289,-13.362251,-54.120422,,,,,,,
1537473170.808972,-0.004082,0.162466,2.768086,0.112536,-0.395414,-0.138823,-0.004029,-0.161752,-0.986823,-0.003067,0.017419,-0.005425,-34.332134,-13.419491,-55.251923,,,,,,,
1537473170.818951,-0.009052,0.164081,2.766843,0.168547,-0.539812,-0.123425,-0.008930,-0.163346,-0.986528,-0.008786,-0.006668,-0.002272,-34.332134,-13.419491,-55.251923,,,,,,,
1537473170.828931,-0.015008,0.166240,2.765526,0.225996,-0.628750,-0.132625,-0.014801,-0.165476,-0.986103,-0.017807,-0.027014,-0.004223,-37.436295,-13.497845,-56.146759,,,,,,,
1537473170.838910,-0.021177,0.168872,2.764343,0.268542,-0.625737,-0.117450,-0.020875,-0.168071,-0.985554,-0.010436,-0.006596,0.003727,-37.436295,-13.497845,-56.146759,,,,,,,
1537473170.848889,-0.027219,0.171869,2.763326,0.303692,-0.619497,-0.108726,-0.026814,-0.171024,-0.984902,0.000798,0.002750,0.007500,-41.387478,-13.882607,-57.591858,,,,,,,
1537473170.858868,-0.033288,0.175026,2.761927,0.310582,-0.638881,-0.167378,-0.032773,-0.174134,-0.984176,0.004255,0.000397,0.020675,-41.387478,-13.882607,-57.591858,,,,,,,
1537473170.868848,-0.039540,0.178138,2.759608,0.296452,-0.667844,-0.262432,-0.038904,-0.177197,-0.983406,0.019877,0.000317,0.035942,-46.494732,-14.605343,-59.267456,,,,,,,
1537473170.878827,-0.046268,0.180822,2.756426,0.237139,-0.787293,-0.344830,-0.045497,-0.179838,-0.982643,0.038600,0.005766,0.042794,-46.494732,-14.605343,-59.267456,,,,,,,
1537473170.888776,-0.054615,0.182866,2.752680,0.169963,-0.916224,-0.388830,-0.053678,-0.181849,-0.981860,0.056608,-0.005758,0.049625,-52.637722,-15.376663,-61.482330,,,,,,,
1537473170.898755,-0.062445,0.184317,2.748722,0.114748,-0.824117,-0.390294,-0.061348,-0.183275,-0.981146,0.076957,-0.016676,0.031622,-52.637722,-15.376663,-61.482330,,,,,,,
1537473170.908734,-0.068261,0.185385,2.745898,-0.014241,-0.436713,-0.286785,-0.067039,-0.184325,-0.980576,0.086112,-0.050295,-0.053268,-58.327587,-16.451881,-63.084747,,,,,,,
1537473170.918713,-0.069168,0.183462,2.743600,-0.179328,-0.234805,-0.142722,-0.067953,-0.182434,-0.980867,0.087576,-0.089447,0.077440,-58.327587,-16.451881,-63.084747,,,,,,,
1537473170.928693,-0.073000,0.181945,2.743981,-0.164809,-0.351795,0.098721,-0.071731,-0.180943,-0.980874,0.044601,-0.118373,0.064660,-58.327587,-16.451881,-63.084747,,,,,,,
1537473170.938672,-0.074506,0.179181,2.745358,-0.301179,-0.056254,0.164923,-0.073245,-0.178224,-0.981260,0.045139,-0.127654,0.045088,-62.663250,-17.339344,-64.261078,,,,,,,
1537473170.948651,-0.074643,0.175873,2.747189,-0.312189,0.013329,0.222434,-0.073424,-0.174967,-0.981833,0.088377,-0.100988,0.023657,-62.663250,-17.339344,-64.261078,,,,,,,
1537473170.958630,-0.074958,0.172768,2.749488,-0.296482,0.013317,0.254544,-0.073773,-0.171910,-0.982346,0.044781,-0.060848,-0.000014,-65.127701,-17.661812,-64.832214,,,,,,,
1537473170.968610,-0.074276,0.169327,2.751370,-0.344746,0.111667,0.194405,-0.073146,-0.168519,-0.982981,0.017330,-0.032882,0.006281,-65.127701,-17.661812,-64.832214,,,,,,,
1537473170.978558,-0.073331,0.165732,2.752471,-0.363293,0.092377,0.117466,-0.072262,-0.164974,-0.983647,0.005489,-0.016422,0.009251,-66.644989,-17.395485,-65.081970,,,,,,,
1537473170.988538,-0.073100,0.161838,2.752941,-0.404670,0.001728,0.067156,-0.072080,-0.161132,-0.984297,-0.013933,-0.010483,-0.001497,-66.644989,-17.395485,-65.081970,,,,,,,
1537473170.998517,-0.073307,0.157665,2.753187,-0.434545,-0.031234,0.057419,-0.072333,-0.157013,-0.984944,-0.013925,0.000046,0.004445,-69.142319,-17.501137,-66.105469,,,,,,,
1537473171.008496,-0.073790,0.153396,2.753473,-0.440023,-0.053607,0.065952,-0.072858,-0.152795,-0.985569,-0.002963,-0.005805,0.016452,-69.142319,-17.501137,-66.105469,,,,,,,
1537473171.018475,-0.074554,0.149451,2.753890,-0.392162,-0.082669,0.073716,-0.073655,-0.148896,-0.986106,-0.013030,-0.016052,0.014945,-72.339775,-17.391922,-66.959259,,,,,,,
1537473171.028454,-0.075307,0.146366,2.754174,-0.301210,-0.073595,0.047521,-0.074431,-0.145844,-0.986504,-0.030244,-0.023773,0.000404,-72.339775,-17.391922,-66.959259,,,,,,,
1537473171.038434,-0.076178,0.144325,2.754438,-0.180651,-0.094527,0.041799,-0.075313,-0.143824,-0.986733,-0.027958,-0.015630,0.005288,-75.892426,-17.272236,-67.968018,,,,,,,
1537473171.048413,-0.076925,0.143424,2.754247,-0.077440,-0.073888,-0.036649,-0.076060,-0.142933,-0.986805,-0.029591,0.012684,0.003132,-75.892426,-17.272236,-67.968018,,,,,,,
1537473171.058362,-0.077831,0.143078,2.753357,-0.040765,-0.125458,-0.095105,-0.076958,-0.142590,-0.986785,-0.030128,0.027020,-0.021637,-81.351791,-16.904240,-69.675446,,,,,,,
1537473171.068341,-0.079714,0.142702,2.752241,-0.056905,-0.228973,-0.111101,-0.078820,-0.142219,-0.986692,-0.043372,0.032111,-0.027407,-81.351791,-16.904240,-69.675446,,,,,,,
1537473171.078320,-0.082344,0.141842,2.750915,-0.115650,-0.303435,-0.126291,-0.081425,-0.141367,-0.986603,-0.006756,0.034769,-0.016449,-92.580513,-16.488239,-72.631226,,,,,,,
1537473171.088299,-0.085709,0.140261,2.749783,-0.188746,-0.364887,-0.085001,-0.084764,-0.139802,-0.986545,0.040391,0.026185,-0.004376,-92.580513,-16.488239,-72.631226,,,,,,,
1537473171.098279,-0.089141,0.137607,2.749371,-0.295243,-0.353436,0.012609,-0.088181,-0.137173,-0.986614,0.065583,0.006787,0.000317,-108.749847,-16.045101,-78.558167,,,,,,,
1537473171.108258,-0.093397,0.134267,2.750136,-0.343589,-0.424430,0.141581,-0.092422,-0.133864,-0.986681,0.063949,-0.017519,-0.009001,-108.749847,-16.045101,-78.558167,,,,,,,
1537473171.118237,-0.097800,0.130454,2.752388,-0.361002,-0.410115,0.298387,-0.096814,-0.130084,-0.986765,0.044370,-0.031888,-0.012060,-127.218185,-16.444599,-86.937744,,,,,,,
1537473171.128216,-0.101654,0.126585,2.755851,-0.346762,-0.311733,0.404040,-0.100667,-0.126247,-0.986878,0.027073,-0.038883,-0.005340,-127.218185,-16.444599,-86.937744,,,,,,,
1537473171.138196,-0.104421,0.122833,2.759850,-0.326474,-0.197527,0.436059,-0.103446,-0.122525,-0.987060,0.027763,-0.037906,0.000152,-147.090820,-17.361897,-96.200317,,,,,,,
1537473171.148144,-0.105904,0.119278,2.763817,-0.305774,-0.070601,0.427504,-0.104956,-0.118996,-0.987332,0.024160,-0.034737,0.003949,-147.090820,-17.361897,-96.200317,,,,,,,
1537473171.158124,-0.106701,0.116026,2.767622,-0.273465,-0.035587,0.405229,-0.105783,-0.115766,-0.987628,0.015893,-0.034411,0.001589,-167.536530,-18.451168,-105.611755,,,,,,,
1537473171.168103,-0.106639,0.112912,2.771085,-0.260138,0.031526,0.367875,-0.105759,-0.112673,-0.987988,0.003510,-0.024458,0.008847,-167.536530,-18.451168,-105.611755,,,,,,,
1537473171.178082,-0.107327,0.110640,2.774190,-0.171440,-0.080085,0.319372,-0.106466,-0.110415,-0.988167,0.016088,-0.010801,0.025536,-189.520386,-20.091484,-114.173401,,,,,,,
1537473171.188061,-0.109461,0.109494,2.776579,-0.069656,-0.236704,0.227220,-0.108588,-0.109276,-0.988062,0.062400,0.007179,0.019236,-189.520386,-20.091484,-114.173401,,,,,,,
1537473171.198041,-0.112600,0.109335,2.777839,0.010367,-0.319644,0.086840,-0.111692,-0.109117,-0.987734,0.120359,-0.008574,0.003863,-199.337769,-21.079922,-117.610291,,,,,,,
1537473171.208020,-0.116092,0.109743,2.778089,0.042856,-0.365870,0.019819,-0.115135,-0.109523,-0.987294,0.135460,-0.050251,-0.011272,-199.337769,-21.079922,-117.610291,,,,,,,
1537473171.217999,-0.119940,0.110198,2.778476,0.041586,-0.386114,0.035844,-0.118927,-0.109975,-0.986794,0.046371,-0.037044,-0.032463,-200.614960,-21.106205,-117.619690,,,,,,,
1537473171.227948,-0.123490,0.110611,2.778693,0.035551,-0.343434,0.010145,-0.122423,-0.110386,-0.986320,0.042666,-0.041150,-0.019066,-200.614960,-21.106205,-117.619690,,,,,,,
1537473171.237927,-0.125784,0.111108,2.778545,0.046978,-0.193034,-0.027306,-0.124679,-0.110880,-0.985982,0.034912,-0.028418,0.005773,-200.756210,-21.292671,-117.484192,,,,,,,
1537473171.247906,-0.126184,0.111843,2.778349,0.073164,-0.003139,-0.033759,-0.125063,-0.111610,-0.985851,-0.019194,0.014213,0.017391,-200.756210,-21.292671,-117.484192,,,,,,,
1537473171.257886,-0.125514,0.112772,2.776597,0.076407,0.020899,-0.262200,-0.124389,-0.112533,-0.985831,-0.055664,0.044708,0.012275,-207.467148,-22.227760,-119.501770,,,,,,,
1537473171.267865,-0.125516,0.114336,2.772963,0.122217,-0.069324,-0.398488,-0.124369,-0.114087,-0.985655,-0.168157,0.077679,-0.004808,-207.467148,-22.227760,-119.501770,,,,,,,
1537473171.277844,-0.125234,0.116318,2.768838,0.152646,0.004102,-0.436823,-0.124063,-0.116056,-0.985464,-0.173041,0.127652,0.005102,-244.910812,-28.082371,-128.032043,,,,,,,
1537473171.287823,-0.123121,0.118538,2.764876,0.170020,0.210135,-0.408117,-0.121949,-0.118260,-0.985466,-0.066543,0.085301,0.052452,-244.910812,-28.082371,-128.032043,,,,,,,
1537473171.297803,-0.119454,0.120744,2.761541,0.180441,0.353301,-0.338820,-0.118303,-0.120451,-0.985645,0.018815,0.018385,0.067325,-276.186157,-34.085888,-132.792664,,,,,,,
1537473171.307782,-0.114404,0.123158,2.758909,0.216439,0.511297,-0.261927,-0.113290,-0.122847,-0.985938,0.046060,-0.036302,0.045341,-276.186157,-34.085888,-132.792664,,,,,,,
1537473171.317731,-0.108529,0.125232,2.757597,0.175793,0.580165,-0.114911,-0.107468,-0.124905,-0.986331,0.015290,-0.056370,0.018695,-289.774872,-37.442352,-134.699219,,,,,,,
1537473171.327710,-0.103350,0.126377,2.757846,0.096064,0.492348,0.058735,-0.102344,-0.126040,-0.986732,0.005954,-0.062802,-0.014947,-289.774872,-37.442352,-134.699219,,,,,,,
1537473171.337689,-0.099755,0.126367,2.759748,-0.003990,0.367257,0.226970,-0.098795,-0.126031,-0.987095,0.007563,-0.083900,-0.058850,-294.579102,-38.591610,-135.203857,,,,,,,
1537473171.347668,-0.096289,0.124810,2.762548,-0.155006,0.395967,0.298697,-0.095393,-0.124486,-0.987625,-0.008031,-0.067042,-0.063477,-294.579102,-38.591610,-135.203857,,,,,,,
1537473171.357648,-0.092837,0.121779,2.764991,-0.308183,0.392389,0.247690,-0.092018,-0.121478,-0.988320,-0.034646,-0.028363,-0.036339,-294.830109,-38.317257,-135.134155,,,,,,,
1537473171.367627,-0.089745,0.117553,2.767003,-0.414986,0.328874,0.239700,-0.089006,-0.117283,-0.989102,-0.007658,0.004139,-0.021289,-294.830109,-38.317257,-135.134155,,,,,,,
1537473171.377606,-0.087143,0.112923,2.769418,-0.445476,0.290719,0.295078,-0.086479,-0.112683,-0.989860,-0.017129,0.008008,0.010155,-294.830109,-38.317257,-135.134155,,,,,,,
1537473171.387585,-0.084509,0.108449,2.772212,-0.423260,0.294922,0.318675,-0.083913,-0.108236,-0.990577,-0.011454,-0.019403,0.052757,-294.728149,-37.889069,-135.285950,,,,,,,
1537473171.397534,-0.081750,0.104325,2.775071,-0.390165,0.306495,0.319912,-0.081215,-0.104135,-0.991242,0.027657,-0.033514,0.065415,-294.728149,-37.889069,-135.285950,,,,,,,
1537473171.407513,-0.079714,0.100500,2.777896,-0.359390,0.208082,0.307375,-0.079228,-0.100331,-0.991795,0.033376,-0.007274,0.040882,-294.712891,-37.332966,-135.584534,,,,,,,
1537473171.417493,-0.078321,0.097017,2.780507,-0.328325,0.156607,0.278776,-0.077873,-0.096864,-0.992246,0.028907,0.003938,0.021543,-294.712891,-37.332966,-135.584534,,,,,,,
1537473171.427472,-0.077103,0.094103,2.782435,-0.270978,0.142226,0.187306,-0.076686,-0.093964,-0.992618,0.028361,0.009033,0.009525,-294.872833,-36.942940,-135.743408,,,,,,,
1537473171.437451,-0.075699,0.092020,2.783352,-0.183525,0.163957,0.082086,-0.075307,-0.091891,-0.992917,0.033193,0.012758,0.023664,-294.872833,-36.942940,-135.743408,,,,,,,
1537473171.447430,-0.073854,0.090933,2.783161,-0.086241,0.183445,-0.047631,-0.073482,-0.090808,-0.993154,0.024471,0.029330,0.039266,-294.671295,-36.865227,-135.962708,,,,,,,
1537473171.457410,-0.071746,0.091046,2.781507,0.022975,0.216712,-0.195441,-0.071387,-0.090920,-0.993296,0.017234,0.071709,0.027079,-294.671295,-36.865227,-135.962708,,,,,,,
1537473171.467389,-0.069385,0.092486,2.778933,0.154014,0.210473,-0.292919,-0.069033,-0.092354,-0.993330,0.011462,0.088936,0.050856,-294.425201,-36.843372,-136.187195,,,,,,,
1537473171.477368,-0.067011,0.095494,2.775217,0.311031,0.207214,-0.428688,-0.066656,-0.095349,-0.993210,0.006246,0.084606,0.076004,-294.425201,-36.843372,-136.187195,,,,,,,
1537473171.487317,-0.064284,0.100413,2.770425,0.510508,0.237973,-0.529037,-0.063916,-0.100245,-0.992908,0.031018,0.064829,0.083636,-294.221405,-37.262989,-136.247681,,,,,,,
1537473171.497296,-0.061917,0.107621,2.765481,0.756763,0.156600,-0.530806,-0.061519,-0.107413,-0.992309,0.036953,0.023490,0.089538,-294.221405,-37.262989,-136.247681,,,,,,,
1537473171.507275,-0.058695,0.116493,2.761641,0.876627,0.364469,-0.393725,-0.058263,-0.116229,-0.991512,0.009435,-0.058789,0.068660,-293.875214,-37.963230,-136.281433,,,,,,,
1537473171.517255,-0.054614,0.124596,2.758732,0.756446,0.346033,-0.324981,-0.054164,-0.124274,-0.990768,0.057750,-0.085733,0.049377,-293.875214,-37.963230,-136.281433,,,,,,,
1537473171.527217,-0.051980,0.130775,2.755494,0.559067,0.182540,-0.373933,-0.051513,-0.130403,-0.990122,0.020660,0.011338,-0.021398,-294.560089,-37.812294,-136.335571,,,,,,,
1537473171.537196,-0.048386,0.135070,2.750181,0.343145,0.382795,-0.617632,-0.047926,-0.134660,-0.989732,0.038176,0.056291,-0.041396,-294.560089,-37.812294,-136.335571,,,,,,,
1537473171.547175,-0.042787,0.136511,2.742867,0.045872,0.455589,-0.755968,-0.042376,-0.136087,-0.989790,0.162417,0.071283,0.009382,-296.293182,-37.899292,-136.248413,,,,,,,
1537473171.557155,-0.037911,0.135147,2.734606,-0.224742,0.354356,-0.827802,-0.037556,-0.134736,-0.990170,0.016575,0.033341,-0.039173,-296.293182,-37.899292,-136.248413,,,,,,,
1537473171.567103,-0.033675,0.131644,2.726294,-0.415055,0.295623,-0.802100,-0.033378,-0.131264,-0.990785,-0.040749,0.019845,-0.055800,-305.327972,-38.927200,-136.812744,,,,,,,
1537473171.577083,-0.030766,0.127196,2.718694,-0.471677,0.155167,-0.720075,-0.030513,-0.126853,-0.991452,-0.053014,0.008201,-0.029208,-305.327972,-38.927200,-136.812744,,,,,,,
1537473171.587062,-0.028960,0.123078,2.712258,-0.415459,0.081486,-0.590531,-0.028737,-0.122768,-0.992019,-0.048457,-0.033986,-0.004990,-318.005768,-39.953476,-137.205627,,,,,,,
1537473171.597041,-0.028503,0.120157,2.707201,-0.275069,-0.053508,-0.466867,-0.028294,-0.119868,-0.992387,-0.047435,-0.048635,0.030213,-318.005768,-39.953476,-137.205627,,,,,,,
1537473171.607020,-0.029235,0.118958,2.702717,-0.085668,-0.155877,-0.441174,-0.029024,-0.118678,-0.992509,-0.054884,-0.035238,0.024354,-336.956879,-40.994045,-136.509033,,,,,,,
1537473171.617000,-0.031983,0.119618,2.697377,0.097361,-0.388815,-0.573365,-0.031749,-0.119333,-0.992346,-0.088841,-0.008932,0.020819,-336.956879,-40.994045,-136.509033,,,,,,,
1537473171.626979,-0.034421,0.122528,2.691930,0.338187,-0.270351,-0.504916,-0.034156,-0.122222,-0.991915,-0.151040,0.016967,0.019838,-402.629547,-43.593777,-130.381470,,,,,,,
1537473171.636958,-0.035429,0.127009,2.689098,0.465167,-0.087823,-0.221530,-0.035137,-0.126668,-0.991323,-0.024159,0.082326,0.014745,-402.629547,-43.593777,-130.381470,,,,,,,
1537473171.646937,-0.035261,0.132102,2.688376,0.516325,0.030764,-0.065520,-0.034946,-0.131718,-0.990671,0.015766,0.059986,0.015726,-468.517029,-43.416615,-112.771667,,,,,,,
1537473171.656886,-0.034727,0.136980,2.687450,0.466900,0.026579,-0.144778,-0.034395,-0.136552,-0.990036,0.000551,-0.026946,0.004928,-468.517029,-43.416615,-112.771667,,,,,,,
1537473171.666865,-0.034766,0.140243,2.684936,0.258907,-0.042040,-0.287819,-0.034418,-0.139784,-0.989584,0.023950,-0.025851,-0.042536,-553.010132,-38.930916,-82.425842,,,,,,,
1537473171.676844,-0.034695,0.141013,2.681918,-0.002355,-0.033220,-0.299936,-0.034344,-0.140546,-0.989478,0.051831,0.003247,-0.047875,-553.010132,-38.930916,-82.425842,,,,,,,
1537473171.686824,-0.035167,0.139148,2.679125,-0.265344,-0.104362,-0.263947,-0.034820,-0.138700,-0.989722,0.033965,-0.035617,-0.026834,-658.680969,-27.881458,-36.203094,,,,,,,
1537473171.696803,-0.036469,0.134695,2.676451,-0.516412,-0.171337,-0.247110,-0.036131,-0.134288,-0.990283,0.030455,-0.044881,-0.028409,-658.680969,-27.881458,-36.203094,,,,,,,
1537473171.706782,-0.037774,0.127987,2.673214,-0.730236,-0.159679,-0.311275,-0.037457,-0.127637,-0.991113,0.056225,-0.033144,-0.021231,-804.392578,-2.125517,46.370209,,,,,,,
1537473171.716761,-0.039417,0.119503,2.669677,-0.888166,-0.211193,-0.323832,-0.039126,-0.119219,-0.992097,0.066393,-0.040266,-0.034255,-804.392578,-2.125517,46.370209,,,,,,,
1537473171.726741,-0.040417,0.110243,2.666141,-0.944565,-0.100890,-0.308239,-0.040161,-0.110019,-0.993118,0.046523,-0.021862,-0.055054,-1023.408997,66.156563,214.115051,,,,,,,
1537473171.736689,-0.039465,0.101522,2.663165,-0.865672,0.104906,-0.240765,-0.039252,-0.101348,-0.994076,0.079001,0.010008,-0.028583,-1023.408997,66.156563,214.115051,,,,,,,
1537473171.746669,-0.037650,0.094403,2.661199,-0.672213,0.168163,-0.143697,-0.037473,-0.094263,-0.994842,0.072477,-0.001684,0.007644,-1194.879028,157.253326,387.723053,,,,,,,
1537473171.756648,-0.035989,0.089429,2.660637,-0.449640,0.149184,0.011256,-0.035837,-0.089310,-0.995359,0.034311,-0.011093,0.007017,-1194.879028,157.253326,387.723053,,,,,,,
1537473171.766627,-0.034932,0.086623,2.661712,-0.227873,0.083138,0.125685,-0.034794,-0.086515,-0.995643,0.016071,-0.010333,0.008460,-1236.877808,186.282913,433.978424,,,,,,,
1537473171.776606,-0.035311,0.085800,2.663404,-0.045371,-0.066085,0.190884,-0.035173,-0.085694,-0.995700,-0.021818,-0.035872,-0.002728,-1236.877808,186.282913,433.978424,,,,,,,
1537473171.786586,-0.036929,0.086154,2.665804,0.058334,-0.168991,0.251339,-0.036784,-0.086047,-0.995612,-0.023427,-0.037320,-0.025979,-1240.494141,188.527924,437.356628,,,,,,,
1537473171.796565,-0.039041,0.086906,2.668352,0.077497,-0.194723,0.248268,-0.038884,-0.086797,-0.995467,-0.027584,-0.040751,-0.030961,-1240.494141,188.527924,437.356628,,,,,,,
1537473171.806544,-0.040884,0.087369,2.670436,0.038692,-0.158354,0.186106,-0.040716,-0.087258,-0.995353,-0.038217,-0.046256,-0.036202,-1240.151733,188.566620,436.203979,,,,,,,
1537473171.816523,-0.041638,0.087717,2.671337,0.047746,-0.036984,0.050467,-0.041466,-0.087605,-0.995292,-0.052680,-0.026485,-0.020059,-1240.151733,188.566620,436.203979,,,,,,,
1537473171.826472,-0.040859,0.089059,2.670393,0.163090,0.091147,-0.155049,-0.040686,-0.088941,-0.995206,-0.069574,0.020414,0.011090,-1240.151733,188.566620,436.203979,,,,,,,
1537473171.836451,-0.039490,0.091719,2.667271,0.277183,0.101808,-0.375396,-0.039313,-0.091590,-0.995020,-0.048257,0.072700,0.024577,-1239.328003,187.843750,435.108582,,,,,,,
1537473171.846431,-0.038461,0.095124,2.662644,0.333592,0.039324,-0.494577,-0.038278,-0.094980,-0.994743,-0.009849,0.081003,0.036018,-1239.328003,187.843750,435.108582,,,,,,,
1537473171.856410,-0.038383,0.098848,2.657822,0.355647,-0.066477,-0.487945,-0.038186,-0.098687,-0.994385,0.011682,0.021310,0.031876,-1238.724854,187.241638,434.869019,,,,,,,
1537473171.866389,-0.039660,0.102590,2.653394,0.354888,-0.203044,-0.446180,-0.039441,-0.102410,-0.993960,0.035535,-0.012931,0.014025,-1238.724854,187.241638,434.869019,,,,,,,
1537473171.876368,-0.041945,0.106196,2.649454,0.338178,-0.288258,-0.394947,-0.041697,-0.105996,-0.993492,0.051111,0.000741,0.025444,-1238.852051,186.549255,434.982178,,,,,,,
1537473171.886348,-0.045138,0.109587,2.646023,0.315042,-0.373433,-0.341614,-0.044852,-0.109368,-0.992989,0.043539,0.015939,0.047158,-1238.852051,186.549255,434.982178,,,,,,,
1537473171.896327,-0.048976,0.112493,2.643417,0.263868,-0.422064,-0.244708,-0.048647,-0.112256,-0.992488,0.039644,0.014783,0.062739,-1238.999756,186.140594,435.286621,,,,,,,
1537473171.906306,-0.053844,0.114443,2.642194,0.165106,-0.515163,-0.089313,-0.053466,-0.114193,-0.992019,0.016052,0.011486,0.055709,-1238.999756,186.140594,435.286621,,,,,,,
1537473171.916255,-0.059111,0.114912,2.642916,0.024455,-0.502208,0.125528,-0.058687,-0.114660,-0.991670,-0.014784,0.012136,0.027650,-1239.417480,185.808411,435.546539,,,,,,,
1537473171.926234,-0.063224,0.113750,2.645681,-0.125159,-0.341922,0.313487,-0.062774,-0.113505,-0.991552,-0.016328,0.008540,0.043814,-1239.417480,185.808411,435.546539,,,,,,,
1537473171.936213,-0.065106,0.111395,2.648074,-0.246590,-0.116158,0.243208,-0.064657,-0.111165,-0.991696,0.108694,0.078511,0.054059,-1239.640137,179.874344,434.502075,,,,,,,
1537473171.946193,-0.065902,0.108418,2.650740,-0.283330,-0.056025,0.312327,-0.065468,-0.108206,-0.991970,0.187966,0.101248,0.036572,-1239.640137,179.874344,434.502075,,,,,,,
1537473171.956172,-0.068569,0.105911,2.655450,-0.190117,-0.284478,0.548977,-0.068131,-0.105713,-0.992060,0.009980,-0.000488,0.038492,-1237.756470,154.396301,428.746094,,,,,,,
1537473171.966151,-0.073393,0.104379,2.662979,-0.068326,-0.454267,0.827355,-0.072928,-0.104190,-0.991880,-0.102365,-0.097760,0.059400,-1237.756470,154.396301,428.746094,,,,,,,
1537473171.976130,-0.079965,0.103815,2.672241,0.036018,-0.589125,0.926270,-0.079449,-0.103629,-0.991438,-0.123676,-0.122934,0.099546,-1236.674561,142.964371,425.462433,,,,,,,
1537473171.986110,-0.083971,0.105315,2.677977,0.231653,-0.247500,0.407151,-0.083407,-0.105121,-0.990955,-0.049695,0.001895,0.113957,-1236.674561,142.964371,425.462433,,,,,,,
1537473171.996058,-0.087720,0.107550,2.680151,0.235804,-0.389027,0.146859,-0.087102,-0.107343,-0.990399,-0.033458,0.134016,0.111935,-1231.869385,136.555222,418.903107,,,,,,,
1537473172.006038,-0.091512,0.109558,2.680346,0.190650,-0.390283,-0.045534,-0.090836,-0.109339,-0.989845,0.061845,0.049479,0.121239,-1231.869385,136.555222,418.903107,,,,,,,
1537473172.016017,-0.096168,0.111101,2.679299,0.129197,-0.511857,-0.127942,-0.095428,-0.110873,-0.989242,0.065689,0.026278,0.069427,-1230.448120,122.237625,415.558197,,,,,,,
1537473172.025996,-0.101574,0.111880,2.678276,0.047731,-0.554074,-0.100589,-0.100766,-0.111647,-0.988626,0.007382,-0.022768,0.039178,-1230.448120,122.237625,415.558197,,,,,,,
1537473172.035975,-0.106384,0.111706,2.677689,-0.055050,-0.451953,-0.031872,-0.105522,-0.111474,-0.988149,-0.038246,-0.040625,0.058248,-1228.815430,98.804077,410.528320,,,,,,,
1537473172.045955,-0.109020,0.110187,2.677728,-0.181858,-0.178889,0.031205,-0.108144,-0.109964,-0.988035,-0.049006,0.082956,0.064451,-1228.815430,98.804077,410.528320,,,,,,,
1537473172.055934,-0.108265,0.107765,2.677997,-0.250587,0.150384,0.061450,-0.107427,-0.107556,-0.988378,-0.021464,0.062802,0.086110,-1213.146973,30.249275,388.117615,,,,,,,
1537473172.065913,-0.106215,0.105295,2.678845,-0.227573,0.218748,0.131957,-0.105428,-0.105101,-0.988857,-0.020670,-0.047365,0.100155,-1213.146973,30.249275,388.117615,,,,,,,
1537473172.075892,-0.104162,0.103379,2.680637,-0.155775,0.239918,0.219861,-0.103419,-0.103195,-0.989270,-0.020818,-0.089310,0.069348,-1205.543335,2.336948,378.753906,,,,,,,
1537473172.085841,-0.101599,0.102275,2.682560,-0.064687,0.279942,0.189362,-0.100895,-0.102097,-0.989645,0.021396,-0.039550,0.055776,-1205.543335,2.336948,378.753906,,,,,,,
1537473172.095820,-0.099148,0.102287,2.684040,0.041369,0.258983,0.136592,-0.098468,-0.102109,-0.989888,0.087391,0.030362,0.039936,-1204.866455,-0.068623,377.848816,,,,,,,
1537473172.105800,-0.097308,0.103218,2.685723,0.132527,0.163561,0.172417,-0.096638,-0.103035,-0.989972,0.094440,0.037819,0.039228,-1204.866455,-0.068623,377.848816,,,,,,,
1537473172.115779,-0.097870,0.104638,2.688040,0.166470,-0.106615,0.229452,-0.097179,-0.104447,-0.989771,0.071468,0.026551,0.044153,-1204.888306,-0.324995,377.805511,,,,,,,
1537473172.125758,-0.101176,0.105811,2.690757,0.130264,-0.355119,0.263664,-0.100439,-0.105614,-0.989322,0.061880,0.000618,0.016574,-1204.888306,-0.324995,377.805511,,,,,,,
1537473172.135737,-0.105009,0.106035,2.693672,0.020138,-0.326707,0.297189,-0.104227,-0.105837,-0.988906,0.049540,-0.013731,0.028701,-1205.188477,-0.138584,377.880798,,,,,,,
1537473172.145717,-0.107233,0.104291,2.697174,-0.198946,-0.126751,0.395059,-0.106446,-0.104102,-0.988854,-0.003386,-0.011712,0.047158,-1205.188477,-0.138584,377.880798,,,,,,,
1537473172.155696,-0.106740,0.099557,2.701813,-0.505792,0.160269,0.548933,-0.106010,-0.099392,-0.989385,-0.085961,-0.004276,0.029394,-1205.236084,-0.115564,377.649261,,,,,,,
1537473172.165645,-0.105318,0.092080,2.706823,-0.751318,0.187233,0.571043,-0.104678,-0.091950,-0.990246,-0.119382,-0.002593,0.016812,-1205.236084,-0.115564,377.649261,,,,,,,
1537473172.175624,-0.104051,0.083161,2.710865,-0.862495,0.139538,0.464803,-0.103504,-0.083065,-0.991154,-0.062450,-0.037494,-0.004939,-1205.217407,0.477461,376.931274,,,,,,,
1537473172.185603,-0.103148,0.074444,2.713805,-0.817890,0.102774,0.360476,-0.102680,-0.074375,-0.991930,-0.013241,-0.039379,-0.006437,-1205.217407,0.477461,376.931274,,,,,,,
1537473172.195582,-0.102305,0.067091,2.716078,-0.672102,0.096502,0.284426,-0.101897,-0.067041,-0.992533,-0.008943,0.005228,-0.015386,-1205.592041,1.552172,376.852020,,,,,,,
1537473172.205562,-0.101481,0.061190,2.718048,-0.541637,0.094676,0.250986,-0.101117,-0.061152,-0.992993,0.008893,0.042078,-0.028857,-1205.592041,1.552172,376.852020,,,,,,,
1537473172.215541,-0.100392,0.056173,2.719975,-0.474213,0.128460,0.238513,-0.100065,-0.056144,-0.993396,0.013990,0.049293,-0.052594,-1205.645630,2.030975,376.197845,,,,,,,
1537473172.225520,-0.098346,0.051226,2.721660,-0.493867,0.252349,0.209455,-0.098059,-0.051203,-0.993862,0.005530,0.049906,-0.053104,-1205.645630,2.030975,376.197845,,,,,,,
1537473172.235499,-0.094214,0.045694,2.722954,-0.557953,0.506721,0.176822,-0.093976,-0.045678,-0.994526,-0.001650,0.018960,-0.064083,-1205.926025,2.278044,375.457642,,,,,,,
1537473172.245479,-0.086545,0.039923,2.723970,-0.574761,0.888971,0.145388,-0.086368,-0.039913,-0.995463,-0.025509,-0.020192,-0.055287,-1205.926025,2.278044,375.457642,,,,,,,
1537473172.255427,-0.074640,0.034197,2.724764,-0.574482,1.307451,0.123617,-0.074528,-0.034190,-0.996633,-0.050427,-0.046666,-0.039821,-1205.375122,2.881729,374.391876,,,,,,,
1537473172.265406,-0.059126,0.028471,2.725732,-0.571632,1.632052,0.143582,-0.059067,-0.028467,-0.997848,-0.056365,-0.049124,-0.041001,-1205.375122,2.881729,374.391876,,,,,,,
1537473172.275386,-0.041897,0.023002,2.727232,-0.524801,1.749355,0.190688,-0.041874,-0.023000,-0.998858,-0.046932,-0.046412,-0.057538,-1205.375122,2.881729,374.391876,,,,,,,
1537473172.285365,-0.025110,0.018575,2.728700,-0.404953,1.663170,0.126320,-0.025103,-0.018574,-0.999512,-0.014921,-0.033871,-0.105056,-1204.197632,3.445801,373.145325,,,,,,,
1537473172.295344,-0.009863,0.016059,2.728961,-0.186837,1.465333,0.017770,-0.009862,-0.016058,-0.999822,0.107243,0.039313,-0.135966,-1204.197632,3.445801,373.145325,,,,,,,
1537473172.305323,0.001889,0.016123,2.729927,0.070276,1.057443,0.130606,0.001889,-0.016123,-0.999868,0.027377,-0.005301,-0.135386,-1198.609131,-3.372520,367.127411,,,,,,,
1537473172.315303,0.009241,0.017976,2.731980,0.211372,0.646891,0.211855,0.009240,-0.017975,-0.999796,-0.103142,-0.087784,-0.146506,-1198.609131,-3.372520,367.127411,,,,,,,
1537473172.325282,0.013487,0.020448,2.733873,0.250338,0.359414,0.180341,0.013484,-0.020447,-0.999700,0.003286,-0.039551,-0.146067,-1196.511719,-5.803137,365.008057,,,,,,,
1537473172.335231,0.015432,0.023027,2.735193,0.254612,0.153194,0.118661,0.015427,-0.023025,-0.999616,0.066650,-0.026520,-0.106646,-1196.511719,-5.803137,365.008057,,,,,,,
1537473172.345210,0.015893,0.025185,2.735386,0.196764,0.020822,-0.010684,0.015887,-0.025182,-0.999557,0.073194,-0.030375,-0.069306,-1195.828979,-5.992046,364.637268,,,,,,,
1537473172.355189,0.015608,0.026647,2.734711,0.137402,-0.044129,-0.071789,0.015602,-0.026644,-0.999523,0.116753,-0.039320,-0.059971,-1195.828979,-5.992046,364.637268,,,,,,,
1537473172.365168,0.014874,0.028401,2.734321,0.202964,-0.083863,-0.019086,0.014867,-0.028398,-0.999486,0.113993,-0.061461,-0.032206,-1195.298828,-6.044645,363.947937,,,,,,,
1537473172.375148,0.014053,0.031709,2.734686,0.381405,-0.082473,0.068355,0.014045,-0.031703,-0.999399,0.105126,-0.059148,0.004022,-1195.298828,-6.044645,363.947937,,,,,,,
1537473172.385127,0.013846,0.037880,2.736227,0.703748,0.019688,0.200249,0.013836,-0.037871,-0.999187,0.037922,-0.034380,0.039256,-1195.095825,-5.695814,363.328552,,,,,,,
1537473172.395106,0.015018,0.047285,2.738307,1.005958,0.159060,0.212440,0.015001,-0.047267,-0.998770,-0.000001,-0.041096,0.089865,-1195.095825,-5.695814,363.328552,,,,,,,
1537473172.405085,0.016938,0.058252,2.739667,1.109226,0.202120,0.133972,0.016909,-0.058219,-0.998161,-0.008715,0.020164,0.069267,-1194.726440,-6.288319,363.410461,,,,,,,
1537473172.415065,0.018580,0.068584,2.740270,0.992352,0.148131,0.065069,0.018535,-0.068530,-0.997477,-0.025722,0.034763,0.013926,-1194.726440,-6.288319,363.410461,,,,,,,
1537473172.425013,0.018543,0.076662,2.740695,0.744272,-0.065176,0.061788,0.018488,-0.076586,-0.996891,-0.045542,0.013812,-0.042140,-1194.412964,-7.171946,363.692963,,,,,,,
1537473172.434993,0.015648,0.082435,2.741728,0.528363,-0.355361,0.133484,0.015594,-0.082342,-0.996482,-0.051971,-0.002161,-0.105309,-1194.412964,-7.171946,363.692963,,,,,,,
1537473172.444972,0.010035,0.086870,2.743639,0.420222,-0.600174,0.217469,0.009997,-0.086761,-0.996179,-0.043078,-0.015107,-0.119147,-1194.846558,-7.541960,363.851257,,,,,,,
1537473172.454951,0.002658,0.091146,2.746449,0.438193,-0.747410,0.307382,0.002647,-0.091020,-0.995845,-0.043449,0.003587,-0.076634,-1194.846558,-7.541960,363.851257,,,,,,,
1537473172.464930,-0.005965,0.096164,2.750232,0.524546,-0.858705,0.397634,-0.005937,-0.096015,-0.995362,-0.030516,0.008644,-0.018142,-1194.422119,-7.816551,363.478210,,,,,,,
1537473172.474910,-0.015461,0.101662,2.754860,0.555819,-0.917455,0.459777,-0.015380,-0.101487,-0.994718,-0.000779,-0.000182,0.000470,-1194.422119,-7.816551,363.478210,,,,,,,
1537473172.484889,-0.023096,0.106379,2.759201,0.454400,-0.608401,0.442894,-0.022964,-0.106178,-0.994082,0.051009,0.030678,-0.008283,-1166.075073,-4.490824,329.776123,,,,,,,
1537473172.494868,-0.026314,0.110127,2.764003,0.365826,-0.166946,0.460108,-0.026151,-0.109904,-0.993598,0.335752,-0.011251,0.038459,-1166.075073,-4.490824,329.776123,,,,,,,
1537473172.504817,-0.024666,0.112863,2.767911,0.255078,0.346965,0.357574,-0.024506,-0.112624,-0.993335,0.362946,0.085097,0.087864,-908.897522,-5.487408,107.788910,,,,,,,
1537473172.514796,-0.018314,0.114648,2.771235,0.168958,0.754143,0.330003,-0.018193,-0.114397,-0.993268,-0.005199,0.232622,0.108579,-908.897522,-5.487408,107.788910,,,,,,,
1537473172.524759,-0.010173,0.116243,2.775241,0.164243,0.893163,0.419502,-0.010104,-0.115981,-0.993200,-0.315427,0.094008,0.082906,-694.567322,-23.588680,-22.838348,,,,,,,
1537473172.534739,-0.000790,0.117800,2.779202,0.158645,1.006248,0.365984,-0.000785,-0.117528,-0.993069,-0.287820,-0.043925,0.059216,-694.567322,-23.588680,-22.838348,,,,,,,
1537473172.544718,0.008151,0.119826,2.781627,0.224869,0.872082,0.203162,0.008092,-0.119540,-0.992796,-0.143590,-0.001600,0.012831,-583.390442,-31.458843,-73.740540,,,,,,,
1537473172.554697,0.015016,0.122688,2.782916,0.301880,0.645136,0.115216,0.014903,-0.122380,-0.992371,-0.078715,0.041677,-0.035812,-583.390442,-31.458843,-73.740540,,,,,,,
1537473172.564676,0.019428,0.126007,2.783399,0.338230,0.377834,0.028155,0.019273,-0.125674,-0.991884,-0.048600,0.055484,-0.033873,-509.141693,-35.986565,-97.945984,,,,,,,
1537473172.574656,0.022428,0.129176,2.782966,0.300412,0.305243,-0.057375,0.022239,-0.128817,-0.991419,-0.041541,0.088763,-0.013143,-509.141693,-35.986565,-97.945984,,,,,,,
1537473172.584635,0.028080,0.130971,2.781550,0.170949,0.569390,-0.171501,0.027836,-0.130597,-0.991045,-0.058048,0.058011,0.029558,-456.063354,-38.576244,-110.439575,,,,,,,
1537473172.594584,0.035673,0.131555,2.778547,0.031216,0.771531,-0.346467,0.035357,-0.131175,-0.990728,-0.071093,0.048213,0.038260,-456.063354,-38.576244,-110.439575,,,,,,,
1537473172.604563,0.045145,0.130405,2.773556,-0.152161,0.959990,-0.535537,0.044746,-0.130036,-0.990499,-0.068672,0.028733,0.032034,-436.819794,-40.219910,-114.103943,,,,,,,
1537473172.614542,0.055407,0.126831,2.767733,-0.393771,0.902360,-0.615796,0.054934,-0.126491,-0.990445,-0.045321,-0.061513,0.050535,-436.819794,-40.219910,-114.103943,,,,,,,
1537473172.624521,0.061000,0.121018,2.761869,-0.586425,0.325781,-0.605594,0.060517,-0.120723,-0.990840,0.061874,-0.075948,-0.037236,-435.392426,-40.375008,-114.737671,,,,,,,
1537473172.634501,0.061408,0.114484,2.758039,-0.625376,-0.079106,-0.320388,0.060968,-0.114234,-0.991581,0.095877,-0.041406,-0.129162,-435.392426,-40.375008,-114.737671,,,,,,,
1537473172.644480,0.059979,0.108950,2.758475,-0.533359,-0.154490,0.091162,0.059588,-0.108735,-0.992283,-0.098116,-0.085784,-0.016536,-442.610199,-39.858032,-113.584900,,,,,,,
1537473172.654459,0.057856,0.104396,2.760422,-0.444646,-0.203885,0.174960,0.057509,-0.104206,-0.992892,-0.143309,-0.035488,0.071581,-442.610199,-39.858032,-113.584900,,,,,,,
1537473172.664438,0.055767,0.100405,2.762281,-0.405967,-0.172101,0.155924,0.055457,-0.100236,-0.993417,-0.063377,0.011903,0.043328,-480.473633,-42.197376,-104.898499,,,,,,,
1537473172.674387,0.054513,0.095684,2.764136,-0.526343,-0.088180,0.160516,0.054237,-0.095538,-0.993947,-0.052589,0.023044,0.015569,-480.473633,-42.197376,-104.898499,,,,,,,
1537473172.684366,0.052900,0.088627,2.766268,-0.790262,-0.175376,0.175172,0.052668,-0.088511,-0.994682,-0.059840,0.054576,-0.046563,-553.304565,-48.824665,-81.528442,,,,,,,
1537473172.694346,0.049573,0.078569,2.768339,-1.100966,-0.360654,0.144833,0.049400,-0.078488,-0.995690,-0.037483,0.059598,-0.116645,-553.304565,-48.824665,-81.528442,,,,,,,
1537473172.704325,0.044256,0.065983,2.770317,-1.322449,-0.584767,0.145982,0.044145,-0.065936,-0.996847,0.009383,0.054095,-0.117686,-661.971069,-69.444077,-36.480774,,,,,,,
1537473172.714304,0.036497,0.052415,2.773286,-1.376693,-0.830809,0.285769,0.036439,-0.052391,-0.997962,0.042831,0.009392,-0.088601,-661.971069,-69.444077,-36.480774,,,,,,,
1537473172.724283,0.027380,0.039247,2.778289,-1.302319,-0.922498,0.523245,0.027356,-0.039237,-0.998855,0.041904,-0.034707,-0.064133,-766.460327,-107.083527,14.578400,,,,,,,
1537473172.734263,0.017286,0.027962,2.785834,-1.086312,-1.002048,0.793508,0.017278,-0.027958,-0.999460,0.017527,-0.031185,-0.009512,-766.460327,-107.083527,14.578400,,,,,,,
1537473172.744242,0.007256,0.019439,2.794864,-0.774637,-0.950044,0.911514,0.007255,-0.019438,-0.999785,0.107278,-0.042330,0.031493,-766.460327,-107.083527,14.578400,,,,,,,
1537473172.754221,-0.000978,0.014512,2.801465,-0.397463,-0.759543,0.562199,-0.000978,-0.014512,-0.999894,0.262132,-0.086654,0.068696,-794.501099,-138.655167,21.703033,,,,,,,
1537473172.764170,-0.007166,0.013668,2.804813,0.022742,-0.571236,0.288913,-0.007165,-0.013667,-0.999881,0.256387,-0.072789,0.108050,-794.501099,-138.655167,21.703033,,,,,,,
1537473172.774149,-0.011556,0.016262,2.807643,0.325284,-0.390278,0.277580,-0.011554,-0.016262,-0.999801,0.058780,-0.004750,0.109206,-790.737427,-144.978287,18.334778,,,,,,,
1537473172.784128,-0.014394,0.020020,2.809896,0.378689,-0.253006,0.196607,-0.014390,-0.020019,-0.999696,-0.091231,0.013320,0.078157,-790.737427,-144.978287,18.334778,,,,,,,
1537473172.794108,-0.016725,0.022989,2.811197,0.265423,-0.234461,0.105233,-0.016720,-0.022987,-0.999596,-0.075977,0.001076,0.021691,-788.976501,-146.056503,17.373901,,,,,,,
1537473172.804087,-0.018689,0.024523,2.811922,0.117737,-0.185755,0.053135,-0.018682,-0.024521,-0.999525,-0.068339,0.002350,-0.007952,-788.976501,-146.056503,17.373901,,,,,,,
1537473172.814066,-0.020368,0.024660,2.811954,-0.016089,-0.168102,-0.007395,-0.020361,-0.024658,-0.999489,-0.040781,-0.006546,0.009224,-779.528320,-147.846054,11.944489,,,,,,,
1537473172.824045,-0.021908,0.024139,2.812064,-0.055808,-0.143263,0.025455,-0.021900,-0.024137,-0.999469,-0.006283,-0.012484,0.020831,-779.528320,-147.846054,11.944489,,,,,,,
1537473172.834025,-0.022797,0.023893,2.812777,-0.008136,-0.061168,0.086479,-0.022788,-0.023891,-0.999455,-0.011391,0.000682,0.044377,-770.479736,-148.996445,6.973846,,,,,,,
1537473172.843973,-0.022584,0.024382,2.814007,0.073912,0.059152,0.132710,-0.022576,-0.024379,-0.999448,-0.005790,0.007457,0.050336,-770.479736,-148.996445,6.973846,,,,,,,
1537473172.853953,-0.020808,0.025867,2.815745,0.180593,0.222055,0.182233,-0.020800,-0.025864,-0.999449,-0.015592,-0.004302,0.058287,-765.728760,-149.614731,3.984161,,,,,,,
1537473172.863932,-0.018268,0.028241,2.817614,0.257591,0.260069,0.175142,-0.018260,-0.028237,-0.999434,-0.029699,-0.013816,0.057311,-765.728760,-149.614731,3.984161,,,,,,,
1537473172.873911,-0.016396,0.031029,2.818992,0.285570,0.157302,0.118825,-0.016388,-0.031024,-0.999384,-0.000549,-0.004010,0.015147,-764.678467,-149.449814,3.376678,,,,,,,
1537473172.883890,-0.016162,0.033943,2.819738,0.294265,-0.007311,0.053922,-0.016152,-0.033936,-0.999294,0.031136,0.000153,-0.025243,-764.678467,-149.449814,3.376678,,,,,,,
1537473172.893869,-0.017070,0.036904,2.820166,0.296259,-0.122673,0.034835,-0.017057,-0.036895,-0.999174,0.032957,-0.004853,-0.015902,-764.203003,-149.604889,3.050079,,,,,,,
1537473172.903849,-0.019112,0.039602,2.820131,0.261280,-0.231518,-0.022887,-0.019096,-0.039592,-0.999033,0.026359,-0.005650,-0.005468,-764.203003,-149.604889,3.050079,,,,,,,
1537473172.913828,-0.021566,0.042275,2.819835,0.272018,-0.242275,-0.033492,-0.021545,-0.042263,-0.998874,0.009811,0.008022,-0.001797,-764.478516,-149.724197,3.022797,,,,,,,
1537473172.923807,-0.023971,0.044818,2.819548,0.245385,-0.244281,-0.038972,-0.023945,-0.044803,-0.998709,-0.006298,0.046878,0.017981,-764.478516,-149.724197,3.022797,,,,,,,
1537473172.933756,-0.026072,0.046770,2.819042,0.177403,-0.189508,-0.055412,-0.026040,-0.046753,-0.998567,0.012414,0.033905,0.001634,-764.707458,-149.963654,3.033905,,,,,,,
1537473172.943735,-0.027333,0.048128,2.818405,0.125507,-0.104925,-0.071794,-0.027298,-0.048109,-0.998469,0.007782,-0.004732,0.011424,-764.707458,-149.963654,3.033905,,,,,,,
1537473172.953714,-0.027821,0.049330,2.818162,0.120684,-0.034255,0.009234,-0.027783,-0.049310,-0.998397,0.011716,0.019936,0.023345,-759.002686,-149.610428,-0.635925,,,,,,,
1537473172.963694,-0.027788,0.050697,2.818889,0.152308,0.016952,0.065931,-0.027749,-0.050675,-0.998330,0.010781,0.054414,0.020668,-759.002686,-149.610428,-0.635925,,,,,,,
1537473172.973673,-0.027253,0.052819,2.819160,0.236169,0.058025,0.008707,-0.027212,-0.052794,-0.998235,0.033636,0.019393,0.012593,-738.307983,-148.098938,-12.377655,,,,,,,
1537473172.983652,-0.026868,0.055236,2.819258,0.245706,0.052649,0.014102,-0.026824,-0.055208,-0.998114,0.040572,-0.011412,0.017753,-738.307983,-148.098938,-12.377655,,,,,,,
1537473172.993631,-0.026327,0.057842,2.820264,0.270307,0.049554,0.122053,-0.026280,-0.057810,-0.997982,-0.007015,-0.021658,0.014949,-735.746277,-147.914566,-13.970428,,,,,,,
1537473173.003611,-0.026395,0.060374,2.822129,0.258852,-0.003617,0.192493,-0.026343,-0.060337,-0.997830,-0.032845,0.011402,0.014981,-735.746277,-147.914566,-13.970428,,,,,,,
1537473173.013559,-0.026173,0.062366,2.824306,0.193685,0.054438,0.218763,-0.026120,-0.062326,-0.997714,-0.033451,-0.006232,0.017337,-735.125427,-147.776810,-14.328430,,,,,,,
1537473173.023539,-0.024989,0.063614,2.826666,0.109530,0.168096,0.237401,-0.024935,-0.063571,-0.997666,-0.016889,-0.002103,0.025498,-735.125427,-147.776810,-14.328430,,,,,,,
1537473173.033518,-0.021559,0.063735,2.829096,-0.011494,0.426066,0.248218,-0.021514,-0.063692,-0.997738,-0.018892,0.011949,0.052273,-732.938354,-146.982025,-15.853333,,,,,,,
1537473173.043497,-0.016296,0.062773,2.831375,-0.104702,0.566351,0.216607,-0.016263,-0.062732,-0.997898,-0.019381,-0.004071,0.080234,-732.938354,-146.982025,-15.853333,,,,,,,
1537473173.053476,-0.010565,0.061505,2.833298,-0.120395,0.582385,0.187683,-0.010545,-0.061466,-0.998053,-0.022536,0.023915,0.051581,-731.162598,-146.197479,-16.766937,,,,,,,
1537473173.063456,-0.005269,0.060658,2.834955,-0.064849,0.516907,0.161367,-0.005259,-0.060621,-0.998147,-0.008962,0.028822,0.034066,-731.162598,-146.197479,-16.766937,,,,,,,
1537473173.073435,-0.001185,0.060724,2.836298,0.032237,0.383919,0.122539,-0.001183,-0.060686,-0.998156,0.002602,0.032580,0.022418,-730.199524,-145.911133,-17.421265,,,,,,,
1537473173.083414,0.001428,0.061786,2.837077,0.128380,0.233812,0.064511,0.001425,-0.061747,-0.998091,0.013666,0.031428,0.010588,-730.199524,-145.911133,-17.421265,,,,,,,
1537473173.093393,0.002517,0.063508,2.837495,0.184727,0.075445,0.039361,0.002512,-0.063466,-0.997981,0.024587,0.028996,0.004908,-729.899597,-145.956329,-17.804352,,,,,,,
1537473173.103342,0.002407,0.065457,2.838083,0.195902,-0.027045,0.069416,0.002401,-0.065410,-0.997856,0.024637,0.028286,-0.004983,-729.899597,-145.956329,-17.804352,,,,,,,
1537473173.113321,0.001676,0.067372,2.839381,0.191753,-0.059917,0.162295,0.001673,-0.067321,-0.997730,0.017508,0.011946,-0.002377,-716.537720,-140.822815,-25.912872,,,,,,,
1537473173.123301,0.002540,0.069785,2.844795,0.261492,0.190639,0.655588,0.002534,-0.069729,-0.997563,0.099716,-0.074711,0.031193,-716.537720,-140.822815,-25.912872,,,,,,,
1537473173.133280,0.006781,0.072876,2.853663,0.317458,0.614881,0.959689,0.006763,-0.072812,-0.997323,0.260830,-0.135928,0.078332,-556.569763,-88.605835,-97.736450,,,,,,,
1537473173.143259,0.012708,0.077067,2.863440,0.419985,0.696583,0.974043,0.012670,-0.076991,-0.996951,0.142359,0.017787,0.061877,-556.569763,-88.605835,-97.736450,,,,,,,
1537473173.153238,0.019162,0.081211,2.872596,0.396150,0.718977,0.904505,0.019097,-0.081122,-0.996521,-0.072915,0.059882,0.018219,-427.104279,-56.819561,-132.629883,,,,,,,
1537473173.163218,0.025395,0.084955,2.880808,0.339381,0.687023,0.802820,0.025301,-0.084853,-0.996072,-0.179109,0.001891,0.025445,-427.104279,-56.819561,-132.629883,,,,,,,
1537473173.173197,0.031718,0.087913,2.887606,0.251503,0.692411,0.615528,0.031590,-0.087800,-0.995637,-0.132802,-0.033202,0.009660,-385.176422,-46.445896,-139.035461,,,,,,,
1537473173.183146,0.037403,0.089776,2.892220,0.150474,0.582568,0.431485,0.037244,-0.089655,-0.995276,-0.104169,0.028910,-0.006601,-385.176422,-46.445896,-139.035461,,,,,,,
1537473173.193125,0.042163,0.091012,2.896020,0.095220,0.484514,0.377908,0.041977,-0.090886,-0.994976,-0.024185,0.039113,-0.005527,-385.176422,-46.445896,-139.035461,,,,,,,
1537473173.203104,0.045454,0.091580,2.899442,0.021636,0.315022,0.325368,0.045248,-0.091452,-0.994781,0.049372,-0.082849,-0.043549,-374.298370,-42.546062,-139.154968,,,,,,,
1537473173.213083,0.046861,0.091317,2.901626,-0.053251,0.107945,0.170386,0.046648,-0.091190,-0.994740,0.058454,-0.033062,-0.060146,-374.298370,-42.546062,-139.154968,,,,,,,
1537473173.223063,0.046166,0.090523,2.902137,-0.086599,-0.123906,0.014593,0.045960,-0.090399,-0.994844,0.021636,0.059973,-0.038160,-356.471405,-36.006649,-138.274719,,,,,,,
1537473173.233042,0.043452,0.089500,2.901806,-0.105734,-0.318266,-0.050429,0.043265,-0.089380,-0.995057,-0.050192,0.094797,-0.022460,-356.471405,-36.006649,-138.274719,,,,,,,
1537473173.243021,0.039739,0.088061,2.900664,-0.154118,-0.399373,-0.147756,0.039575,-0.087947,-0.995339,-0.050698,0.078563,-0.010109,-351.502502,-34.087055,-137.978027,,,,,,,
1537473173.253000,0.035934,0.085906,2.898348,-0.226591,-0.392854,-0.269850,0.035794,-0.085800,-0.995669,0.007205,0.027222,-0.021878,-351.502502,-34.087055,-137.978027,,,,,,,
1537473173.262980,0.032793,0.082895,2.894867,-0.312815,-0.325394,-0.387808,0.032674,-0.082800,-0.996030,0.010188,0.008932,-0.014651,-350.969452,-33.985664,-137.763489,,,,,,,
1537473173.272928,0.030232,0.079032,2.890532,-0.392127,-0.295231,-0.455523,0.030133,-0.078949,-0.996423,0.000934,0.023880,0.004785,-350.969452,-33.985664,-137.763489,,,,,,,
1537473173.282908,0.027136,0.074397,2.886521,-0.479323,-0.354418,-0.389758,0.027057,-0.074328,-0.996867,-0.034244,-0.005582,0.005244,-351.101959,-33.780533,-136.487915,,,,,,,
1537473173.292887,0.023497,0.068541,2.882957,-0.619161,-0.400674,-0.395816,0.023440,-0.068487,-0.997377,-0.078631,-0.030359,-0.004287,-351.101959,-33.780533,-136.487915,,,,,,,
1537473173.302866,0.018642,0.061876,2.877528,-0.662381,-0.562150,-0.615785,0.018605,-0.061836,-0.997913,-0.125524,0.096092,0.002948,-370.883636,-36.506535,-136.155090,,,,,,,
1537473173.312845,0.013722,0.056656,2.871479,-0.439597,-0.495965,-0.574066,0.013700,-0.056626,-0.998301,-0.066617,0.069596,0.026042,-370.883636,-36.506535,-136.155090,,,,,,,
1537473173.322825,0.009794,0.053931,2.867584,-0.205828,-0.388808,-0.324174,0.009779,-0.053905,-0.998498,0.130739,-0.133015,0.029535,-424.469177,-47.445629,-132.497314,,,,,,,
1537473173.332804,0.006676,0.053280,2.865949,-0.021856,-0.309249,-0.119362,0.006666,-0.053255,-0.998559,0.165010,-0.150618,0.041039,-424.469177,-47.445629,-132.497314,,,,,,,
1537473173.342783,0.004161,0.053794,2.865560,0.062779,-0.243283,-0.020762,0.004155,-0.053768,-0.998545,0.032939,-0.064426,0.024225,-436.899658,-49.989788,-130.911804,,,,,,,
1537473173.352732,0.002217,0.054347,2.865456,0.045797,-0.179112,-0.011313,0.002214,-0.054321,-0.998521,-0.045000,-0.014008,0.012223,-436.899658,-49.989788,-130.911804,,,,,,,
1537473173.362711,0.000931,0.054234,2.865323,-0.039369,-0.112470,-0.012913,0.000930,-0.054207,-0.998529,-0.013762,0.013741,0.011362,-449.127197,-52.991062,-128.489197,,,,,,,
1537473173.372690,-0.000093,0.052945,2.865065,-0.168233,-0.101165,-0.034980,-0.000092,-0.052920,-0.998599,0.017640,0.038013,-0.002378,-449.127197,-52.991062,-128.489197,,,,,,,
1537473173.382670,-0.001621,0.050121,2.864341,-0.305535,-0.162488,-0.089044,-0.001619,-0.050100,-0.998743,0.011477,0.051672,-0.032858,-466.396210,-59.039333,-124.737305,,,,,,,
1537473173.392649,-0.003474,0.046348,2.862978,-0.384005,-0.185694,-0.148161,-0.003470,-0.046332,-0.998920,0.020118,0.032767,-0.036343,-466.396210,-59.039333,-124.737305,,,,,,,
1537473173.402628,-0.004812,0.043103,2.861590,-0.315808,-0.144365,-0.125415,-0.004808,-0.043090,-0.999060,0.019822,0.000548,-0.000376,-487.853119,-67.623627,-119.617737,,,,,,,
1537473173.412607,-0.005430,0.041320,2.860809,-0.159338,-0.063903,-0.061659,-0.005425,-0.041309,-0.999132,0.035104,-0.040845,0.032121,-487.853119,-67.623627,-119.617737,,,,,,,
1537473173.422587,-0.005475,0.040815,2.860427,-0.031394,0.003821,-0.032204,-0.005470,-0.040804,-0.999152,0.034599,-0.038389,0.029746,-494.308716,-70.338135,-118.163574,,,,,,,
1537473173.432566,-0.005093,0.041124,2.860335,0.043138,0.053679,-0.000889,-0.005089,-0.041113,-0.999142,0.004600,0.001943,0.011074,-494.308716,-70.338135,-118.163574,,,,,,,
1537473173.442515,-0.004507,0.041804,2.860617,0.072675,0.058946,0.037694,-0.004503,-0.041792,-0.999116,0.007113,0.005293,0.006990,-495.076843,-70.435287,-118.059814,,,,,,,
1537473173.452494,-0.004175,0.042429,2.861172,0.057437,0.028115,0.061126,-0.004172,-0.042417,-0.999091,0.010931,0.008969,0.004081,-495.076843,-70.435287,-118.059814,,,,,,,
1537473173.462473,-0.004166,0.042670,2.861899,0.017730,-0.004741,0.075887,-0.004162,-0.042657,-0.999081,0.012158,0.013574,0.005398,-495.054901,-70.488724,-118.189758,,,,,,,
1537473173.472452,-0.004520,0.042399,2.862664,-0.037862,-0.046089,0.075624,-0.004516,-0.042387,-0.999091,0.011078,0.010831,0.012244,-495.054901,-70.488724,-118.189758,,,,,,,
