timestamp(unix),attitude_roll(radians),attitude_pitch(radians),attitude_yaw(radians),rotation_rate_x(radians/s),rotation_rate_y(radians/s),rotation_rate_z(radians/s),gravity_x(G),gravity_y(G),gravity_z(G),user_acc_x(G),user_acc_y(G),user_acc_z(G),magnetic_field_x(microteslas),magnetic_field_y(microteslas),magnetic_field_z(microteslas),latitude(degree),longitude(degree),altitude(meter),speed(m/s),course(degree),timestamp(unix),User Mark
1537473170.026026,0.054440,0.262815,2.474027,0.009523,0.358546,-0.076235,0.052545,-0.259800,-0.964232,0.031943,0.007175,-0.005693,-59.470123,-37.623371,-49.205963,,,,,,,
1537473170.036067,0.056521,0.263402,2.473437,0.070659,0.136697,-0.042968,0.054543,-0.260366,-0.963968,0.025825,0.008718,-0.001913,-59.064507,-37.672421,-49.807037,,,,,,,
,,,,,,,,,,,,,,,,42.293741,-71.263877,51.798019,-1.000000,-1.000000,1537473164.101809,
1537473170.046107,0.056483,0.264113,2.473051,0.065691,-0.062904,-0.031512,0.054495,-0.261053,-0.963785,0.023355,0.004476,0.014414,-59.064507,-37.672421,-49.807037,,,,,,,
1537473170.056147,0.054631,0.264300,2.472875,-0.004449,-0.223001,-0.008799,0.052708,-0.261234,-0.963835,0.021267,-0.009716,0.018828,-59.040604,-37.799107,-49.940704,,,,,,,
1537473170.066157,0.051601,0.263498,2.473170,-0.109983,-0.310441,0.034815,0.049798,-0.260459,-0.964200,-0.001763,-0.029412,0.010159,-59.040604,-37.799107,-49.940704,,,,,,,
1537473170.076197,0.048417,0.261717,2.473863,-0.200767,-0.284769,0.062024,0.046750,-0.258740,-0.964815,-0.019086,-0.046497,0.008440,-59.624443,-37.221836,-49.983917,,,,,,,
1537473170.086237,0.046178,0.259478,2.474534,-0.226546,-0.168502,0.047532,0.044616,-0.256576,-0.965494,-0.031722,-0.051819,0.007272,-59.624443,-37.221836,-49.983917,,,,,,,
1537473170.096278,0.045745,0.257650,2.474827,-0.163859,0.006463,0.009758,0.044219,-0.254809,-0.965980,-0.035659,-0.046842,0.026817,-59.551033,-37.305279,-50.310516,,,,,,,
1537473170.106318,0.046892,0.256661,2.474635,-0.073339,0.133400,-0.031954,0.045339,-0.253852,-0.966180,-0.027578,-0.029824,0.034661,-59.551033,-37.305279,-50.310516,,,,,,,
1537473170.116328,0.048599,0.256444,2.474083,-0.003973,0.152546,-0.060523,0.046991,-0.253643,-0.966156,-0.017038,-0.015706,0.025528,-58.955276,-37.149334,-50.843292,,,,,,,
1537473170.126368,0.049922,0.256615,2.473305,0.023921,0.093771,-0.076174,0.048267,-0.253808,-0.966050,-0.001881,-0.008293,0.015381,-58.955276,-37.149334,-50.843292,,,,,,,
1537473170.136408,0.050682,0.256797,2.472512,0.016540,0.043610,-0.072807,0.049000,-0.253983,-0.965967,0.001797,-0.006942,0.016107,-58.451645,-37.510281,-51.349579,,,,,,,
1537473170.146449,0.050905,0.256735,2.471888,-0.013270,-0.007581,-0.055659,0.049215,-0.253924,-0.965971,0.002543,-0.003446,0.016585,-58.451645,-37.510281,-51.349579,,,,,,,
1537473170.156489,0.050509,0.256407,2.471510,-0.040966,-0.057675,-0.032093,0.048837,-0.253607,-0.966074,0.005255,-0.002359,0.012903,-58.359566,-37.692707,-51.682709,,,,,,,
1537473170.166499,0.049804,0.255898,2.471400,-0.058070,-0.075712,-0.007529,0.048162,-0.253114,-0.966237,0.007410,0.000306,0.018254,-58.359566,-37.692707,-51.682709,,,,,,,
1537473170.176539,0.048905,0.255306,2.471555,-0.064529,-0.085194,0.017057,0.047301,-0.252542,-0.966429,0.008516,0.000314,0.020720,-58.260307,-37.653629,-51.916473,,,,,,,
1537473170.186579,0.048104,0.254740,2.471822,-0.060333,-0.062727,0.024471,0.046534,-0.251994,-0.966609,0.004110,-0.003255,0.027782,-58.260307,-37.653629,-51.916473,,,,,,,
1537473170.196620,0.047904,0.254047,2.472183,-0.079692,0.007757,0.033707,0.046349,-0.251323,-0.966793,-0.005562,-0.003896,0.029720,-58.429390,-37.705074,-52.103546,,,,,,,
1537473170.206660,0.048240,0.253030,2.472653,-0.111803,0.052611,0.042979,0.046686,-0.250339,-0.967032,-0.012460,-0.006085,0.016211,-58.429390,-37.705074,-52.103546,,,,,,,
1537473170.216670,0.048964,0.251845,2.473111,-0.120409,0.097420,0.036343,0.047400,-0.249191,-0.967294,-0.017478,-0.012986,0.010491,-58.557236,-37.549381,-52.293610,,,,,,,
1537473170.226710,0.050081,0.250882,2.473427,-0.088418,0.120867,0.021455,0.048492,-0.248258,-0.967479,-0.013550,-0.012987,0.022426,-58.557236,-37.549381,-52.293610,,,,,,,
1537473170.236753,0.051148,0.250369,2.473512,-0.040327,0.101593,0.000409,0.049531,-0.247762,-0.967554,-0.010560,-0.011485,0.019617,-58.644699,-37.452808,-52.622284,,,,,,,
1537473170.246793,0.051930,0.250312,2.473383,0.004593,0.064182,-0.017376,0.050289,-0.247707,-0.967529,-0.009609,-0.011632,0.021591,-58.644699,-37.452808,-52.622284,,,,,,,
1537473170.256834,0.052338,0.250595,2.473057,0.036724,0.021420,-0.035206,0.050680,-0.247981,-0.967438,-0.006887,-0.013234,0.024583,-58.529518,-37.467609,-52.695221,,,,,,,
1537473170.266843,0.052347,0.251081,2.472553,0.052860,-0.023490,-0.050974,0.050683,-0.248451,-0.967318,-0.001778,-0.017937,0.025881,-58.529518,-37.467609,-52.695221,,,,,,,
1537473170.276884,0.051954,0.251680,2.471917,0.063649,-0.063060,-0.061448,0.050295,-0.249032,-0.967188,-0.000978,-0.017692,0.024516,-58.316589,-37.759235,-53.086639,,,,,,,
1537473170.286924,0.051373,0.252255,2.471224,0.057282,-0.074824,-0.063572,0.049725,-0.249588,-0.967075,-0.001156,-0.015167,0.022800,-58.316589,-37.759235,-53.086639,,,,,,,
1537473170.296964,0.050922,0.252657,2.470578,0.035888,-0.053455,-0.058425,0.049284,-0.249977,-0.966997,-0.001326,-0.014976,0.028856,-58.420670,-37.607166,-53.109039,,,,,,,
1537473170.307005,0.050686,0.252727,2.470034,-0.001511,-0.032090,-0.048019,0.049055,-0.250045,-0.966991,-0.000623,-0.012528,0.030773,-58.420670,-37.607166,-53.109039,,,,,,,
1537473170.317014,0.050540,0.252364,2.469655,-0.045304,-0.020316,-0.034401,0.048919,-0.249694,-0.967088,-0.001662,-0.011247,0.031877,-58.298737,-37.563808,-53.203094,,,,,,,
1537473170.327055,0.050359,0.251636,2.469380,-0.076231,-0.028860,-0.028117,0.048752,-0.248988,-0.967279,0.004150,-0.011388,0.041696,-58.298737,-37.563808,-53.203094,,,,,,,
1537473170.337095,0.049794,0.250767,2.469273,-0.090068,-0.068292,-0.006658,0.048217,-0.248147,-0.967522,0.003022,-0.009192,0.045265,-58.351677,-37.729031,-53.257355,,,,,,,
1537473170.347135,0.048593,0.249810,2.469487,-0.100672,-0.137568,0.018144,0.047066,-0.247220,-0.967816,-0.004768,0.000317,0.040982,-58.351677,-37.729031,-53.257355,,,,,,,
1537473170.357175,0.046392,0.248136,2.469513,-0.195260,-0.254203,-0.010745,0.044955,-0.245597,-0.968329,0.016050,0.008201,0.014868,-59.051842,-37.577129,-53.243317,,,,,,,
1537473170.367185,0.042609,0.245698,2.469753,-0.255844,-0.409964,0.024826,0.041317,-0.243233,-0.969087,0.004551,-0.008003,0.018511,-59.051842,-37.577129,-53.243317,,,,,,,
1537473170.377226,0.037791,0.243020,2.470172,-0.268487,-0.482594,0.025049,0.036672,-0.240635,-0.969923,0.010538,-0.025142,0.045682,-59.993958,-37.208683,-53.007355,,,,,,,
1537473170.387266,0.032938,0.240521,2.470141,-0.242736,-0.477511,-0.027206,0.031984,-0.238208,-0.970687,0.018538,-0.016751,0.054260,-59.993958,-37.208683,-53.007355,,,,,,,
1537473170.397306,0.028700,0.238345,2.469469,-0.206403,-0.427586,-0.085996,0.027885,-0.236095,-0.971330,0.015801,-0.006596,0.063020,-60.842033,-36.959934,-53.076569,,,,,,,
1537473170.407346,0.024628,0.236513,2.468398,-0.173225,-0.438391,-0.116773,0.023940,-0.234314,-0.971866,0.019075,-0.007492,0.056079,-60.842033,-36.959934,-53.076569,,,,,,,
1537473170.417356,0.020397,0.234994,2.467044,-0.142159,-0.458811,-0.150729,0.019835,-0.232837,-0.972313,0.032594,-0.010388,0.053246,-62.195648,-36.692905,-53.007782,,,,,,,
1537473170.427396,0.016059,0.233689,2.465121,-0.123824,-0.486805,-0.197547,0.015622,-0.231568,-0.972693,0.046390,-0.012421,0.064536,-62.195648,-36.692905,-53.007782,,,,,,,
1537473170.437437,0.010621,0.232623,2.463103,-0.097932,-0.637314,-0.192537,0.010335,-0.230531,-0.973010,0.033198,-0.005950,0.061069,-63.868942,-37.045544,-52.486481,,,,,,,
1537473170.447477,0.002794,0.232015,2.461354,-0.044214,-0.884786,-0.162413,0.002719,-0.229939,-0.973201,0.034329,-0.000102,0.042919,-63.868942,-37.045544,-52.486481,,,,,,,
1537473170.457517,-0.007193,0.232477,2.459670,0.076678,-1.076839,-0.164221,-0.007000,-0.230389,-0.973073,0.046733,-0.003833,0.043767,-66.000641,-37.051716,-51.611053,,,,,,,
1537473170.467527,-0.018018,0.234580,2.457957,0.255949,-1.130033,-0.169480,-0.017523,-0.232434,-0.972454,0.038291,0.008710,0.063168,-66.000641,-37.051716,-51.611053,,,,,,,
1537473170.477567,-0.028897,0.238629,2.456318,0.447868,-1.121247,-0.166370,-0.028075,-0.236370,-0.971257,0.043349,0.015515,0.081411,-68.758743,-37.261646,-49.994293,,,,,,,
1537473170.487608,-0.039664,0.244375,2.454873,0.602418,-1.097530,-0.159241,-0.038475,-0.241950,-0.969526,0.042519,0.001776,0.066709,-68.758743,-37.261646,-49.994293,,,,,,,
1537473170.497648,-0.049905,0.251082,2.453291,0.669587,-1.039970,-0.192249,-0.048320,-0.248452,-0.967438,0.050945,-0.001945,0.031479,-71.538361,-37.732555,-48.181305,,,,,,,
1537473170.507688,-0.058573,0.257846,2.451258,0.651275,-0.863048,-0.245419,-0.056604,-0.254998,-0.965283,0.057596,-0.000434,0.007275,-71.538361,-37.732555,-48.181305,,,,,,,
1537473170.517698,-0.064813,0.263753,2.448728,0.541109,-0.631719,-0.290737,-0.062528,-0.260706,-0.963391,0.043973,0.000955,0.000012,-73.529785,-38.060360,-46.606781,,,,,,,
1537473170.527738,-0.068744,0.268164,2.445743,0.375484,-0.414275,-0.320260,-0.066235,-0.264962,-0.961981,0.026989,0.015038,-0.015649,-73.529785,-38.060360,-46.606781,,,,,,,
1537473170.537779,-0.073976,0.267794,2.440552,-0.396531,-0.972173,-0.637379,-0.071274,-0.264605,-0.961719,-0.002639,0.078600,-0.047253,-74.620758,-38.925259,-45.700958,,,,,,,
1537473170.547819,-0.074909,0.264056,2.434747,-0.371185,-0.038130,-0.481718,-0.072245,-0.260998,-0.962632,0.014109,0.001446,0.143907,-74.620758,-38.925259,-45.700958,,,,,,,
1537473170.557859,-0.071651,0.261665,2.430977,-0.238012,0.253467,-0.298351,-0.069153,-0.258689,-0.963482,-0.020523,-0.027657,0.062969,-73.926147,-39.498119,-46.361298,,,,,,,
1537473170.567869,-0.069961,0.258915,2.428348,-0.346482,0.004906,-0.235943,-0.067574,-0.256032,-0.964304,-0.008796,0.024129,-0.102652,-73.926147,-39.498119,-46.361298,,,,,,,
1537473170.577909,-0.069726,0.254393,2.425892,-0.473558,0.001864,-0.177815,-0.067427,-0.251658,-0.965465,0.000868,-0.003713,-0.040166,-73.438919,-40.140285,-46.925079,,,,,,,
1537473170.587949,-0.068406,0.249520,2.424318,-0.505976,0.100442,-0.106770,-0.066236,-0.246938,-0.966765,-0.017474,-0.030619,-0.012376,-73.438919,-40.140285,-46.925079,,,,,,,
1537473170.597990,-0.068148,0.243919,2.422335,-0.591756,-0.078367,-0.177048,-0.066080,-0.241508,-0.968146,0.006128,-0.022515,-0.086892,-72.849182,-40.381260,-46.904755,,,,,,,
1537473170.608030,-0.069693,0.237810,2.419341,-0.633735,-0.265771,-0.269505,-0.067677,-0.235575,-0.969497,0.024769,-0.026571,-0.091721,-72.849182,-40.381260,-46.904755,,,,,,,
1537473170.618040,-0.072230,0.231478,2.415302,-0.668390,-0.367803,-0.372951,-0.070242,-0.229416,-0.970791,0.030493,-0.028930,-0.055317,-72.866333,-40.147350,-46.165741,,,,,,,
1537473170.628080,-0.074742,0.224902,2.410087,-0.700027,-0.363119,-0.485357,-0.072792,-0.223011,-0.972094,0.052483,-0.016979,-0.019147,-72.866333,-40.147350,-46.165741,,,,,,,
1537473170.638120,-0.077246,0.218130,2.403661,-0.731563,-0.404363,-0.597579,-0.075340,-0.216405,-0.973392,0.074013,0.013295,0.024342,-72.950241,-40.349751,-45.027008,,,,,,,
,,,,,,,,,,,,,,,,42.293768,-71.263864,51.932655,-1.000000,-1.000000,1537473170.628674,
1537473170.648161,-0.080461,0.211234,2.396527,-0.738670,-0.500743,-0.648533,-0.078587,-0.209667,-0.974610,0.031834,0.036678,0.033249,-72.950241,-40.349751,-45.027008,,,,,,,
1537473170.658201,-0.084370,0.204662,2.389543,-0.696102,-0.534594,-0.603287,-0.082511,-0.203236,-0.975647,-0.010537,0.010792,0.021500,-72.419754,-40.608341,-43.988251,,,,,,,
1537473170.668211,-0.088198,0.198639,2.384002,-0.633841,-0.470632,-0.440762,-0.086352,-0.197335,-0.976526,-0.030896,-0.053168,0.015268,-72.419754,-40.608341,-43.988251,,,,,,,
1537473170.678251,-0.091401,0.192989,2.380640,-0.578270,-0.355109,-0.219695,-0.089580,-0.191793,-0.977339,-0.029149,-0.061152,-0.007570,-69.351578,-41.387630,-42.424896,,,,,,,
1537473170.688291,-0.093778,0.187693,2.379596,-0.523803,-0.222499,0.002367,-0.091996,-0.186593,-0.978121,-0.033614,-0.036628,-0.024031,-69.351578,-41.387630,-42.424896,,,,,,,
1537473170.698331,-0.095046,0.182629,2.380578,-0.489518,-0.071956,0.186845,-0.093325,-0.181615,-0.978931,-0.038648,-0.017985,-0.014294,-58.563011,-43.541500,-42.965057,,,,,,,
1537473170.708372,-0.095126,0.177481,2.382895,-0.495485,0.061054,0.300642,-0.093491,-0.176551,-0.979841,-0.040039,-0.013650,-0.002641,-58.563011,-43.541500,-42.965057,,,,,,,
1537473170.718382,-0.094219,0.172169,2.385902,-0.505462,0.167026,0.355744,-0.092689,-0.171319,-0.980846,-0.038262,-0.029639,0.008495,-34.886406,-51.200573,-53.844696,,,,,,,
1537473170.728422,-0.092346,0.166816,2.389011,-0.500282,0.253478,0.349014,-0.090935,-0.166043,-0.981917,-0.034096,-0.042743,0.005217,-34.886406,-51.200573,-53.844696,,,,,,,
1537473170.738462,-0.091132,0.160466,2.391661,-0.677909,0.093951,0.304897,-0.089837,-0.159778,-0.983057,-0.013786,-0.055569,-0.014914,1.491104,-67.236099,-91.632294,,,,,,,
1537473170.748502,-0.093326,0.158827,2.393762,0.002265,-0.107868,0.148956,-0.092018,-0.158160,-0.983117,0.045341,-0.037274,0.231316,1.491104,-67.236099,-91.632294,,,,,,,
1537473170.758543,-0.092868,0.158702,2.394552,-0.030985,0.107356,0.078455,-0.091569,-0.158036,-0.983178,0.051667,-0.028869,0.013070,24.973286,-85.661743,-189.529266,,,,,,,
1537473170.768552,-0.092266,0.159139,2.395522,0.100183,0.084096,0.090992,-0.090971,-0.158468,-0.983164,-0.004519,-0.040202,-0.008413,24.973286,-85.661743,-189.529266,,,,,,,
1537473170.778593,-0.091906,0.160018,2.396720,0.099076,0.066074,0.113502,-0.090605,-0.159336,-0.983058,-0.001299,-0.012630,0.016749,-19.362289,-94.967224,-349.847931,,,,,,,
1537473170.788633,-0.091303,0.160833,2.398314,0.091396,0.098352,0.160359,-0.090000,-0.160141,-0.982983,-0.004147,-0.011383,-0.000538,-19.362289,-94.967224,-349.847931,,,,,,,
1537473170.798673,-0.090562,0.161494,2.400018,0.079660,0.100476,0.158152,-0.089262,-0.160793,-0.982944,-0.009722,-0.005436,0.016788,-212.947739,-73.859985,-471.340485,,,,,,,
1537473170.808683,-0.088525,0.162321,2.402552,0.107753,0.282583,0.261245,-0.087247,-0.161609,-0.982991,-0.056765,0.028598,0.021641,-212.947739,-73.859985,-471.340485,,,,,,,
1537473170.818723,-0.085761,0.163579,2.406038,0.159625,0.325851,0.352190,-0.084513,-0.162851,-0.983025,-0.039404,0.030130,-0.004158,-497.552612,-43.593288,-411.565033,,,,,,,
1537473170.828764,-0.083415,0.165323,2.410015,0.208688,0.280137,0.377212,-0.082182,-0.164571,-0.982936,-0.001222,-0.012324,-0.022817,-497.552612,-43.593288,-411.565033,,,,,,,
1537473170.838804,-0.081796,0.167544,2.413742,0.258059,0.198789,0.332906,-0.080561,-0.166761,-0.982701,0.028559,-0.031862,-0.006069,-746.347839,-7.147175,-152.741730,,,,,,,
1537473170.848844,-0.080898,0.170235,2.416759,0.296856,0.123661,0.253251,-0.079642,-0.169414,-0.982322,0.039664,-0.021443,0.010596,-746.347839,-7.147175,-152.741730,,,,,,,
1537473170.858854,-0.079604,0.173049,2.418657,0.288590,0.191302,0.126824,-0.078333,-0.172187,-0.981945,0.034281,0.001166,0.039074,-913.987122,30.012604,210.202606,,,,,,,
1537473170.868894,-0.076554,0.175645,2.419137,0.249218,0.362426,-0.005522,-0.075302,-0.174743,-0.981730,0.020508,0.018569,0.062846,-913.987122,30.012604,210.202606,,,,,,,
1537473170.878935,-0.070716,0.177657,2.417338,0.163085,0.623671,-0.241075,-0.069545,-0.176724,-0.981800,-0.033101,0.003201,0.048481,-1066.113037,46.936760,657.973022,,,,,,,
1537473170.888975,-0.062394,0.178950,2.414540,0.094582,0.825127,-0.287124,-0.061358,-0.177996,-0.982116,-0.051710,-0.030103,0.043670,-1066.113037,46.936760,657.973022,,,,,,,
1537473170.899015,-0.057469,0.178366,2.410888,-0.173348,0.087459,-0.406365,-0.056526,-0.177422,-0.982510,-0.037208,-0.017677,-0.001758,-1157.937744,8.331909,1167.083984,,,,,,,
1537473170.909025,-0.059347,0.177997,2.407026,0.003346,-0.377517,-0.348011,-0.058375,-0.177059,-0.982468,-0.033422,-0.065053,-0.006973,-1157.937744,8.331909,1167.083984,,,,,,,
1537473170.919065,-0.062834,0.177150,2.403338,-0.140720,-0.314730,-0.350086,-0.061810,-0.176225,-0.982407,-0.070667,-0.104155,0.095216,-1070.065308,-83.094040,1565.337769,,,,,,,
1537473170.929105,-0.065275,0.175544,2.400292,-0.194291,-0.323942,-0.265898,-0.064226,-0.174644,-0.982535,-0.104781,-0.085686,0.062537,-1070.065308,-83.094040,1565.337769,,,,,,,
1537473170.939146,-0.067426,0.173267,2.398003,-0.259816,-0.208294,-0.194026,-0.066366,-0.172401,-0.982789,-0.093378,-0.041970,0.045121,-959.242065,-173.325760,1762.111816,,,,,,,
1537473170.949186,-0.067218,0.170318,2.396310,-0.318140,0.054648,-0.128046,-0.066196,-0.169495,-0.983305,-0.072461,-0.020812,0.067183,-959.242065,-173.325760,1762.111816,,,,,,,
1537473170.959196,-0.066146,0.167033,2.395133,-0.337514,0.081528,-0.085504,-0.065178,-0.166257,-0.983926,-0.034660,-0.024371,0.028527,-886.719116,-218.531143,1850.578491,,,,,,,
1537473170.969236,-0.065070,0.163570,2.394184,-0.359995,0.099739,-0.069663,-0.064156,-0.162842,-0.984564,0.010339,-0.045181,0.015661,-886.719116,-218.531143,1850.578491,,,,,,,
1537473170.979276,-0.064345,0.159820,2.393224,-0.389720,0.028186,-0.067397,-0.063482,-0.159141,-0.985213,0.011617,-0.041329,-0.002519,-789.329346,-256.825104,1947.189819,,,,,,,
1537473170.989317,-0.064621,0.155799,2.392292,-0.416208,-0.055131,-0.068273,-0.063794,-0.155170,-0.985826,0.007962,-0.022778,-0.010253,-789.329346,-256.825104,1947.189819,,,,,,,
1537473170.999357,-0.065570,0.151660,2.391337,-0.425698,-0.117039,-0.063801,-0.064771,-0.151079,-0.986397,0.001920,0.006304,0.015236,-635.911072,-306.077698,2064.973389,,,,,,,
1537473171.009367,-0.066926,0.147719,2.390346,-0.394663,-0.152304,-0.076323,-0.066147,-0.147183,-0.986895,0.015168,0.024395,0.013674,-635.911072,-306.077698,2064.973389,,,,,,,
1537473171.019407,-0.068221,0.144429,2.388702,-0.321891,-0.149462,-0.160385,-0.067458,-0.143928,-0.987286,-0.007737,0.014548,0.006314,-454.726929,-330.754333,2174.658447,,,,,,,
1537473171.029447,-0.069852,0.142357,2.386254,-0.191414,-0.202090,-0.246061,-0.069089,-0.141877,-0.987470,0.031644,0.040940,0.002882,-454.726929,-330.754333,2174.658447,,,,,,,
1537473171.039487,-0.070905,0.141304,2.383847,-0.105334,-0.103595,-0.212870,-0.070139,-0.140834,-0.987546,0.084803,0.045314,0.017300,-239.207626,-308.598450,2273.979004,,,,,,,
1537473171.049528,-0.071236,0.140710,2.382568,-0.066405,-0.035621,-0.092165,-0.070472,-0.140246,-0.987606,0.082206,0.019061,-0.000828,-239.207626,-308.598450,2273.979004,,,,,,,
1537473171.059538,-0.072013,0.140104,2.382296,-0.069773,-0.097054,-0.003230,-0.071246,-0.139646,-0.987635,0.102557,0.027280,-0.026617,152.149994,-221.768570,2314.814697,,,,,,,
1537473171.069578,-0.073723,0.139141,2.382721,-0.107152,-0.187448,0.070678,-0.072945,-0.138693,-0.987645,0.078331,0.017889,-0.017268,152.149994,-221.768570,2314.814697,,,,,,,
1537473171.079618,-0.076340,0.137484,2.383811,-0.175448,-0.266187,0.135828,-0.075546,-0.137052,-0.987679,0.055862,0.006787,-0.001304,646.399780,-102.339417,2098.013184,,,,,,,
1537473171.089658,-0.079746,0.135054,2.385415,-0.242623,-0.340761,0.180660,-0.078936,-0.134644,-0.987745,0.038287,-0.001632,0.004072,646.399780,-102.339417,2098.013184,,,,,,,
1537473171.099699,-0.083945,0.131975,2.386887,-0.310669,-0.417795,0.164579,-0.083117,-0.131592,-0.987813,0.037814,-0.001755,-0.004237,977.236023,-6.332935,1642.906860,,,,,,,
1537473171.109708,-0.088488,0.128545,2.387902,-0.336057,-0.443709,0.117523,-0.087644,-0.128191,-0.987869,0.036161,-0.000700,-0.000137,977.236023,-6.332935,1642.906860,,,,,,,
1537473171.119749,-0.092529,0.125100,2.388370,-0.331735,-0.387406,0.068158,-0.091675,-0.124774,-0.987941,0.030900,-0.002866,0.016048,1070.750854,51.059799,1198.981445,,,,,,,
1537473171.129789,-0.095435,0.121842,2.388400,-0.322238,-0.262730,0.021754,-0.094584,-0.121541,-0.988070,0.021845,-0.010035,0.023989,1070.750854,51.059799,1198.981445,,,,,,,
1537473171.139829,-0.096810,0.118676,2.387951,-0.317070,-0.114543,-0.023697,-0.095979,-0.118398,-0.988317,0.002489,-0.018229,0.023305,1036.900024,86.365204,863.870667,,,,,,,
1537473171.149870,-0.096787,0.115434,2.387671,-0.327095,0.022370,0.023800,-0.095993,-0.115178,-0.988696,-0.075546,-0.054164,0.016284,1036.900024,86.365204,863.870667,,,,,,,
1537473171.159879,-0.096607,0.112343,2.388705,-0.275276,-0.001310,0.173794,-0.095849,-0.112107,-0.989063,-0.150687,-0.088928,0.014423,953.629761,106.192368,618.286926,,,,,,,
1537473171.169920,-0.097164,0.109891,2.390831,-0.199671,-0.057432,0.241747,-0.096426,-0.109670,-0.989280,-0.184885,-0.102061,0.028159,953.629761,106.192368,618.286926,,,,,,,
1537473171.179960,-0.099017,0.108521,2.392883,-0.087281,-0.198469,0.195873,-0.098274,-0.108308,-0.989248,-0.187264,-0.123381,0.021841,873.679077,108.750145,460.214020,,,,,,,
1537473171.190000,-0.102027,0.108309,2.393671,0.009420,-0.315567,0.042944,-0.101253,-0.108097,-0.988971,-0.147267,-0.115429,0.008151,873.679077,108.750145,460.214020,,,,,,,
1537473171.200040,-0.105396,0.108819,2.393887,0.061831,-0.344505,0.015546,-0.104579,-0.108604,-0.988569,-0.062734,-0.082482,-0.007601,850.840271,106.753189,421.790985,,,,,,,
1537473171.210050,-0.109183,0.109514,2.394262,0.073569,-0.379618,0.034985,-0.108314,-0.109295,-0.988090,0.031226,-0.054721,-0.026207,850.840271,106.753189,421.790985,,,,,,,
1537473171.220091,-0.112942,0.110178,2.394592,0.066122,-0.362632,0.017778,-0.112018,-0.109956,-0.987604,0.046253,-0.046584,-0.008398,848.492615,106.573563,418.741486,,,,,,,
1537473171.230131,-0.115821,0.110818,2.394578,0.060681,-0.247536,-0.020115,-0.114854,-0.110592,-0.987207,0.038468,-0.029820,0.016687,848.492615,106.573563,418.741486,,,,,,,
1537473171.240153,-0.116865,0.111559,2.394447,0.072000,-0.049974,-0.020842,-0.115875,-0.111327,-0.987005,-0.003815,0.008163,0.029821,847.666504,106.709229,418.029724,,,,,,,
1537473171.250193,-0.116401,0.112225,2.394257,0.056809,0.062176,-0.009612,-0.115408,-0.111990,-0.986985,-0.002420,0.043081,0.021333,847.666504,106.709229,418.029724,,,,,,,
1537473171.260203,-0.116844,0.113022,2.396090,0.107463,-0.037949,0.219769,-0.115834,-0.112782,-0.986845,0.064397,0.061833,-0.001818,803.859497,100.357452,352.943024,,,,,,,
1537473171.270243,-0.117690,0.114135,2.398674,0.142627,-0.035734,0.226357,-0.116654,-0.113887,-0.986621,0.009980,0.029293,0.021030,803.859497,100.357452,352.943024,,,,,,,
1537473171.280284,-0.116913,0.115655,2.399749,0.162081,0.143676,0.034436,-0.115867,-0.115397,-0.986539,-0.029946,-0.004048,0.065732,677.478638,70.979980,202.556580,,,,,,,
1537473171.290324,-0.113947,0.117447,2.398657,0.161362,0.315464,-0.180005,-0.112917,-0.117177,-0.986671,-0.074202,-0.036616,0.069312,677.478638,70.979980,202.556580,,,,,,,
1537473171.300364,-0.109452,0.119494,2.396748,0.185624,0.469163,-0.194384,-0.108455,-0.119210,-0.986928,-0.108708,-0.043067,0.044087,607.594482,46.806061,133.526672,,,,,,,
1537473171.310374,-0.103867,0.121438,2.395883,0.175471,0.554153,-0.075073,-0.102917,-0.121140,-0.987286,-0.022617,-0.021606,0.017086,607.594482,46.806061,133.526672,,,,,,,
1537473171.320414,-0.098726,0.122721,2.396293,0.112234,0.498226,0.063757,-0.097825,-0.122414,-0.987646,-0.040237,-0.034386,-0.021860,580.355896,35.544258,108.169891,,,,,,,
1537473171.330455,-0.094522,0.122689,2.398063,-0.020335,0.433736,0.209739,-0.093671,-0.122381,-0.988053,-0.067599,-0.050379,-0.052322,580.355896,35.544258,108.169891,,,,,,,
1537473171.340495,-0.090666,0.121210,2.400752,-0.144247,0.402028,0.292579,-0.089878,-0.120914,-0.988586,-0.054196,-0.042447,-0.050141,571.692383,32.631756,101.111023,,,,,,,
1537473171.350535,-0.087059,0.118404,2.403383,-0.294498,0.391029,0.267252,-0.086340,-0.118128,-0.989238,-0.028543,-0.013296,-0.030202,571.692383,32.631756,101.111023,,,,,,,
1537473171.360545,-0.083832,0.114327,2.405392,-0.414755,0.333016,0.229445,-0.083187,-0.114079,-0.989983,-0.016178,0.015690,-0.008735,569.913147,32.758614,100.430115,,,,,,,
1537473171.370585,-0.081400,0.109628,2.407689,-0.459555,0.260628,0.278661,-0.080822,-0.109408,-0.990706,-0.030216,-0.000669,0.024534,569.913147,32.758614,100.430115,,,,,,,
1537473171.380625,-0.079121,0.104932,2.410449,-0.442628,0.268325,0.313989,-0.078604,-0.104740,-0.991388,-0.001627,-0.038021,0.064539,570.155518,33.329590,100.093903,,,,,,,
1537473171.390666,-0.076610,0.100532,2.413322,-0.409622,0.286540,0.318364,-0.076148,-0.100363,-0.992033,0.036323,-0.039209,0.066999,570.155518,33.329590,100.093903,,,,,,,
1537473171.400706,-0.074569,0.096438,2.416199,-0.379581,0.208590,0.312420,-0.074153,-0.096288,-0.992587,0.022334,-0.012232,0.040531,570.193359,33.850441,99.947510,,,,,,,
1537473171.410716,-0.073308,0.092729,2.418868,-0.345237,0.144415,0.283999,-0.072928,-0.092596,-0.993029,0.016623,-0.008325,0.023089,570.193359,33.850441,99.947510,,,,,,,
1537473171.420756,-0.072230,0.089517,2.421002,-0.293796,0.131276,0.209507,-0.071878,-0.089398,-0.993399,0.026529,-0.004444,0.017203,570.534546,34.100868,99.882355,,,,,,,
1537473171.430796,-0.071018,0.087130,2.422109,-0.210291,0.141459,0.100891,-0.070689,-0.087020,-0.993695,0.032145,-0.005479,0.036237,570.534546,34.100868,99.882355,,,,,,,
1537473171.440837,-0.069304,0.085715,2.422174,-0.114006,0.179351,-0.016319,-0.068995,-0.085610,-0.993937,0.022867,0.020120,0.043848,570.901550,34.559052,99.580078,,,,,,,
1537473171.450877,-0.067279,0.085464,2.420746,-0.010109,0.208490,-0.177274,-0.066983,-0.085360,-0.994096,0.015591,0.054904,0.039567,570.901550,34.559052,99.580078,,,,,,,
1537473171.460887,-0.064854,0.086483,2.418333,0.114928,0.219884,-0.271783,-0.064567,-0.086375,-0.994168,0.006385,0.058665,0.069013,571.060852,34.588776,99.432556,,,,,,,
1537473171.470927,-0.062403,0.089031,2.414840,0.267827,0.218309,-0.398157,-0.062115,-0.088914,-0.994101,0.006436,0.049347,0.085943,571.060852,34.588776,99.432556,,,,,,,
1537473171.480967,-0.059541,0.093444,2.410124,0.459006,0.259528,-0.518088,-0.059247,-0.093308,-0.993873,0.042767,0.017137,0.095451,571.195496,34.469154,99.419464,,,,,,,
1537473171.491008,-0.056757,0.100120,2.405067,0.699116,0.203119,-0.539047,-0.056442,-0.099953,-0.993390,0.019348,-0.042732,0.093015,571.195496,34.469154,99.419464,,,,,,,
1537473171.501048,-0.053399,0.108694,2.400745,0.849934,0.366059,-0.450197,-0.053059,-0.108480,-0.992682,0.059849,-0.110132,0.075049,571.283630,33.601440,99.106384,,,,,,,
1537473171.511058,-0.048679,0.116940,2.395876,0.763866,0.398422,-0.565136,-0.048327,-0.116674,-0.991994,0.219516,0.023793,0.032399,571.283630,33.601440,99.106384,,,,,,,
1537473171.521098,-0.045123,0.123470,2.389318,0.577034,0.230770,-0.719352,-0.044764,-0.123157,-0.991377,0.105983,0.111530,-0.028536,569.809082,35.730865,98.210754,,,,,,,
1537473171.531138,-0.040859,0.127950,2.382290,0.353733,0.396161,-0.688051,-0.040514,-0.127601,-0.990998,-0.036864,-0.002525,0.005585,569.809082,35.730865,98.210754,,,,,,,
1537473171.541178,-0.035314,0.129567,2.375561,0.061412,0.469464,-0.689877,-0.035010,-0.129205,-0.991000,0.002463,0.009607,-0.022352,564.960571,37.754246,95.306702,,,,,,,
1537473171.551219,-0.030555,0.128267,2.368449,-0.215597,0.355928,-0.694086,-0.030299,-0.127915,-0.991322,0.008647,0.075501,-0.048641,564.960571,37.754246,95.306702,,,,,,,
1537473171.561229,-0.026668,0.124733,2.361959,-0.413029,0.288920,-0.608285,-0.026458,-0.124410,-0.991878,-0.029221,0.045033,-0.039265,547.354126,37.084785,82.078888,,,,,,,
1537473171.571269,-0.024104,0.120149,2.356098,-0.477960,0.148188,-0.556765,-0.023928,-0.119860,-0.992502,-0.076612,-0.013121,-0.019491,547.354126,37.084785,82.078888,,,,,,,
1537473171.581309,-0.022580,0.115777,2.351078,-0.431229,0.073016,-0.452550,-0.022427,-0.115519,-0.993052,-0.065617,-0.067907,0.020777,522.336609,35.751236,64.299286,,,,,,,
1537473171.591349,-0.022301,0.112519,2.347681,-0.288628,-0.054005,-0.283499,-0.022158,-0.112282,-0.993429,-0.054334,-0.067253,0.035696,522.336609,35.751236,64.299286,,,,,,,
1537473171.601390,-0.023201,0.111080,2.346020,-0.088518,-0.136143,-0.118600,-0.023056,-0.110852,-0.993569,-0.027527,-0.041904,0.033151,493.738647,34.089355,45.864258,,,,,,,
1537473171.611399,-0.026280,0.111917,2.347164,0.150801,-0.341247,0.197691,-0.026113,-0.111683,-0.993401,-0.004374,0.020161,0.012535,493.738647,34.089355,45.864258,,,,,,,
1537473171.621440,-0.029664,0.114754,2.350464,0.313371,-0.258130,0.323259,-0.029465,-0.114502,-0.992986,-0.024490,0.033158,0.043828,416.917236,27.916115,2.777222,,,,,,,
1537473171.631480,-0.031459,0.118554,2.353732,0.414378,-0.096834,0.314597,-0.031233,-0.118276,-0.992489,-0.096758,0.000875,0.049359,416.917236,27.916115,2.777222,,,,,,,
1537473171.641520,-0.031854,0.123121,2.357867,0.479865,0.036251,0.424495,-0.031608,-0.122810,-0.991927,-0.027535,-0.015587,0.013152,348.295837,20.413380,-22.875580,,,,,,,
1537473171.651561,-0.031961,0.127579,2.363062,0.441184,0.043083,0.510835,-0.031695,-0.127233,-0.991366,0.059054,-0.022089,-0.006620,348.295837,20.413380,-22.875580,,,,,,,
1537473171.661570,-0.032760,0.130550,2.367568,0.252951,-0.030368,0.401124,-0.032475,-0.130180,-0.990958,0.054722,0.015403,-0.050057,293.982635,14.151463,-37.372650,,,,,,,
1537473171.671611,-0.033510,0.131131,2.371093,-0.000646,-0.026748,0.338859,-0.033216,-0.130756,-0.990858,0.021680,-0.001263,-0.037371,293.982635,14.151463,-37.372650,,,,,,,
1537473171.681651,-0.034693,0.129062,2.374771,-0.260849,-0.093015,0.384782,-0.034397,-0.128704,-0.991086,0.016865,-0.019474,-0.025851,248.055161,8.325794,-46.971405,,,,,,,
1537473171.691691,-0.036721,0.124388,2.379001,-0.509391,-0.160213,0.452146,-0.036429,-0.124067,-0.991605,0.029043,-0.004381,-0.027408,248.055161,8.325794,-46.971405,,,,,,,
1537473171.701731,-0.039022,0.117381,2.384444,-0.724213,-0.162842,0.601725,-0.038744,-0.117112,-0.992363,0.025804,0.016755,-0.029320,208.748566,3.546009,-52.585724,,,,,,,
1537473171.711741,-0.041740,0.108613,2.391510,-0.880438,-0.187659,0.783763,-0.041482,-0.108399,-0.993242,0.058068,0.015275,-0.043959,208.748566,3.546009,-52.585724,,,,,,,
1537473171.721782,-0.043639,0.098915,2.399767,-0.938530,-0.064502,0.868469,-0.043412,-0.098754,-0.994165,0.042405,0.005004,-0.051413,168.146332,0.292034,-56.377411,,,,,,,
1537473171.731822,-0.043245,0.089694,2.407393,-0.857554,0.151713,0.754744,-0.043057,-0.089574,-0.995049,0.007993,-0.030986,-0.012596,168.146332,0.292034,-56.377411,,,,,,,
1537473171.741862,-0.041715,0.082248,2.413298,-0.661929,0.211783,0.565292,-0.041562,-0.082155,-0.995753,0.022625,-0.086271,0.015742,139.694916,-1.656651,-58.963104,,,,,,,
1537473171.751902,-0.040113,0.077122,2.416735,-0.441269,0.176322,0.280161,-0.039983,-0.077046,-0.996226,-0.007518,-0.123973,0.021555,139.694916,-1.656651,-58.963104,,,,,,,
1537473171.761912,-0.038946,0.074251,2.417868,-0.225187,0.094566,0.124512,-0.038828,-0.074183,-0.996488,-0.034719,-0.122670,0.023634,130.063477,-1.970562,-60.100739,,,,,,,
1537473171.771952,-0.039315,0.073299,2.419515,-0.050171,-0.069313,0.184865,-0.039200,-0.073233,-0.996544,-0.050934,-0.066644,0.004280,130.063477,-1.970562,-60.100739,,,,,,,
1537473171.781993,-0.041053,0.073471,2.421877,0.045809,-0.178808,0.245656,-0.040931,-0.073405,-0.996462,-0.047753,-0.059896,-0.014524,128.911057,-1.660267,-60.005585,,,,,,,
1537473171.792033,-0.043303,0.074002,2.424420,0.060791,-0.205481,0.245841,-0.043171,-0.073934,-0.996328,-0.043788,-0.060053,-0.025202,128.911057,-1.660267,-60.005585,,,,,,,
1537473171.802073,-0.045225,0.074300,2.426440,0.027872,-0.163191,0.178168,-0.045085,-0.074231,-0.996221,-0.043462,-0.047122,-0.026316,128.755737,-1.750591,-60.021515,,,,,,,
1537473171.812083,-0.046079,0.074584,2.427292,0.045116,-0.042177,0.046318,-0.045935,-0.074514,-0.996161,-0.048654,-0.019571,-0.001428,128.755737,-1.750591,-60.021515,,,,,,,
1537473171.822123,-0.045500,0.075988,2.426300,0.171388,0.074272,-0.159755,-0.045353,-0.075915,-0.996082,-0.038143,0.016360,0.026432,128.936203,-1.634243,-59.800568,,,,,,,
1537473171.832164,-0.044442,0.078741,2.423139,0.285128,0.073212,-0.378251,-0.044290,-0.078659,-0.995917,-0.013327,0.050171,0.040213,128.936203,-1.634243,-59.800568,,,,,,,
1537473171.842204,-0.043837,0.082237,2.418504,0.337871,0.003282,-0.494191,-0.043675,-0.082144,-0.995663,-0.000072,0.027121,0.047024,129.054947,-2.099346,-59.732391,,,,,,,
1537473171.852244,-0.044161,0.085946,2.413708,0.348722,-0.104492,-0.485155,-0.043984,-0.085840,-0.995338,0.006279,-0.022513,0.032386,129.054947,-2.099346,-59.732391,,,,,,,
1537473171.862254,-0.045808,0.089579,2.409323,0.339255,-0.233476,-0.440872,-0.045608,-0.089459,-0.994946,0.024200,-0.021350,0.028820,128.983704,-2.795902,-59.554718,,,,,,,
1537473171.872294,-0.048504,0.093055,2.405411,0.324359,-0.329315,-0.391406,-0.048275,-0.092921,-0.994503,0.031033,-0.002004,0.050167,128.983704,-2.795902,-59.554718,,,,,,,
1537473171.882334,-0.052108,0.096255,2.402009,0.292326,-0.402700,-0.337843,-0.051843,-0.096107,-0.994020,0.026270,0.005897,0.064806,128.884232,-3.067013,-59.595062,,,,,,,
1537473171.892375,-0.056186,0.098893,2.399468,0.232357,-0.439587,-0.236478,-0.055883,-0.098732,-0.993544,0.017781,0.007012,0.070921,128.884232,-3.067013,-59.595062,,,,,,,
1537473171.902385,-0.061132,0.100448,2.398354,0.117920,-0.522151,-0.076435,-0.060786,-0.100279,-0.993101,-0.025167,0.021040,0.041670,128.791916,-3.295261,-59.139679,,,,,,,
1537473171.912425,-0.066229,0.100487,2.399222,-0.025784,-0.473066,0.144919,-0.065847,-0.100318,-0.992774,-0.025034,0.022650,0.034034,128.791916,-3.295261,-59.139679,,,,,,,
1537473171.922465,-0.070196,0.098955,2.402893,-0.155129,-0.311273,0.473845,-0.069795,-0.098794,-0.992657,-0.066374,-0.002097,0.050427,128.326141,-3.315861,-58.741547,,,,,,,
1537473171.932505,-0.072265,0.096042,2.410578,-0.260263,-0.087202,0.860364,-0.071869,-0.095894,-0.992794,-0.173050,-0.051811,0.039455,128.326141,-3.315861,-58.741547,,,,,,,
1537473171.942546,-0.073614,0.092474,2.420550,-0.283331,-0.055231,1.049288,-0.073233,-0.092342,-0.993031,-0.025827,-0.024448,0.042515,129.182495,-3.604588,-58.821075,,,,,,,
1537473171.952555,-0.076833,0.089380,2.431040,-0.205035,-0.291057,1.055981,-0.076451,-0.089261,-0.993070,0.078435,-0.006824,0.055371,129.182495,-3.604588,-58.821075,,,,,,,
1537473171.962596,-0.081968,0.087324,2.441164,-0.097854,-0.472741,0.999554,-0.081564,-0.087213,-0.992845,0.118109,-0.023810,0.099992,130.462189,-3.622341,-58.632233,,,,,,,
1537473171.972636,-0.088508,0.086294,2.450342,-0.004486,-0.580041,0.881838,-0.088064,-0.086187,-0.992379,0.058950,-0.025354,0.117150,130.462189,-3.622341,-58.632233,,,,,,,
1537473171.982676,-0.092345,0.087530,2.456304,0.214773,-0.295720,0.500307,-0.091860,-0.087418,-0.991927,-0.105054,0.021241,0.120620,130.485321,-3.271267,-58.216095,,,,,,,
1537473171.992717,-0.096350,0.089168,2.460321,0.188747,-0.380884,0.357294,-0.095819,-0.089050,-0.991408,-0.054984,0.016723,0.127196,130.485321,-3.271267,-58.216095,,,,,,,
1537473172.002726,-0.100630,0.090439,2.463672,0.146327,-0.417510,0.309123,-0.100049,-0.090315,-0.990875,-0.046816,-0.027421,0.097946,130.937653,-3.539402,-57.978912,,,,,,,
1537473172.012767,-0.105884,0.090992,2.466770,0.066602,-0.525502,0.298446,-0.105249,-0.090866,-0.990286,-0.044302,-0.037506,0.044805,130.937653,-3.539402,-57.978912,,,,,,,
1537473172.022807,-0.111643,0.090710,2.469532,-0.018554,-0.545015,0.261739,-0.110954,-0.090586,-0.989689,0.011314,-0.029348,0.052265,131.374664,-4.447628,-57.667877,,,,,,,
1537473172.032847,-0.116409,0.089652,2.471002,-0.116433,-0.418895,0.113233,-0.115680,-0.089532,-0.989243,0.063129,-0.084632,0.066834,131.374664,-4.447628,-57.667877,,,,,,,
1537473172.042887,-0.118520,0.087794,2.471100,-0.199891,-0.121645,0.016491,-0.117787,-0.087681,-0.989160,0.064626,-0.069911,0.079447,134.686646,-6.176479,-57.372223,,,,,,,
1537473172.052897,-0.117370,0.085490,2.471451,-0.226319,0.177673,0.088906,-0.116673,-0.085386,-0.989493,0.049763,0.093473,0.106864,134.686646,-6.176479,-57.372223,,,,,,,
1537473172.062938,-0.115316,0.083270,2.473087,-0.187352,0.218981,0.213992,-0.114662,-0.083174,-0.989917,0.031608,0.108015,0.087008,139.247452,-9.015095,-57.041962,,,,,,,
1537473172.072978,-0.113081,0.081652,2.475186,-0.118147,0.258618,0.222748,-0.112465,-0.081561,-0.990303,0.074150,0.024630,0.062339,139.247452,-9.015095,-57.041962,,,,,,,
1537473172.083018,-0.110536,0.081018,2.477062,-0.014564,0.261688,0.176254,-0.109949,-0.080930,-0.990637,0.084574,-0.019473,0.053152,140.135162,-9.449169,-57.125397,,,,,,,
1537473172.093058,-0.108325,0.081469,2.478546,0.084812,0.225283,0.135238,-0.107754,-0.081379,-0.990841,0.092633,0.002049,0.042431,140.135162,-9.449169,-57.125397,,,,,,,
1537473172.103068,-0.107154,0.082728,2.480368,0.158509,0.085780,0.183206,-0.106583,-0.082634,-0.990864,0.066483,0.003013,0.055592,140.498489,-9.414097,-57.139984,,,,,,,
1537473172.113108,-0.108490,0.084034,2.482784,0.148212,-0.186189,0.238742,-0.107895,-0.083935,-0.990613,0.024139,-0.009769,0.028851,140.498489,-9.414097,-57.139984,,,,,,,
1537473172.123149,-0.112176,0.084687,2.485497,0.072804,-0.378322,0.265830,-0.111540,-0.084586,-0.990153,0.019011,-0.020532,0.025127,140.405334,-9.427044,-57.110382,,,,,,,
1537473172.133189,-0.115655,0.084208,2.488434,-0.049089,-0.285341,0.309708,-0.114989,-0.084109,-0.989800,0.021086,-0.011243,0.050041,140.405334,-9.427044,-57.110382,,,,,,,
1537473172.143229,-0.116990,0.081708,2.492088,-0.265378,-0.025538,0.422966,-0.116334,-0.081617,-0.989851,-0.035033,0.013776,0.040281,140.092255,-9.345226,-57.060699,,,,,,,
1537473172.153239,-0.115564,0.076393,2.496875,-0.542545,0.232226,0.566906,-0.114970,-0.076319,-0.990433,-0.084493,0.040217,0.028275,140.092255,-9.345226,-57.060699,,,,,,,
1537473172.163279,-0.113191,0.068598,2.501704,-0.765430,0.271355,0.549548,-0.112684,-0.068544,-0.991264,-0.083742,0.003221,0.001197,140.186279,-8.701992,-56.991364,,,,,,,
1537473172.173320,-0.110932,0.059682,2.505406,-0.852419,0.231115,0.434894,-0.110508,-0.059647,-0.992084,-0.032604,-0.037506,-0.002179,140.186279,-8.701992,-56.991364,,,,,,,
1537473172.183360,-0.109163,0.051302,2.508119,-0.774174,0.181584,0.338244,-0.108803,-0.051279,-0.992740,-0.019448,-0.024771,-0.005856,140.258575,-7.907230,-57.525177,,,,,,,
1537473172.193400,-0.107585,0.044413,2.510236,-0.623556,0.161106,0.269646,-0.107271,-0.044398,-0.993238,0.002184,0.008433,-0.016512,140.258575,-7.907230,-57.525177,,,,,,,
1537473172.203410,-0.106159,0.038884,2.512163,-0.506158,0.151503,0.247856,-0.105880,-0.038875,-0.993619,0.016219,0.019191,-0.040897,140.506317,-7.259785,-57.542206,,,,,,,
1537473172.213450,-0.104431,0.034073,2.514027,-0.452872,0.196312,0.229789,-0.104181,-0.034066,-0.993975,0.016352,0.032479,-0.050047,140.506317,-7.259785,-57.542206,,,,,,,
1537473172.223490,-0.101445,0.029226,2.515618,-0.476541,0.349861,0.199128,-0.101227,-0.029222,-0.994434,0.021195,0.020082,-0.057171,140.527206,-6.939838,-57.894257,,,,,,,
1537473172.233542,-0.095896,0.024059,2.516832,-0.500487,0.645398,0.165763,-0.095722,-0.024056,-0.995117,0.019901,-0.016532,-0.056427,140.527206,-6.939838,-57.894257,,,,,,,
1537473172.243582,-0.086480,0.019155,2.517848,-0.470284,1.055254,0.136502,-0.086356,-0.019154,-0.996080,0.004066,-0.051647,-0.037657,140.884354,-6.445217,-58.020294,,,,,,,
1537473172.253592,-0.072912,0.014745,2.518738,-0.426258,1.453489,0.124460,-0.072840,-0.014744,-0.997235,-0.002920,-0.060619,-0.036747,140.884354,-6.445217,-58.020294,,,,,,,
1537473172.263632,-0.056172,0.010636,2.519931,-0.390652,1.720647,0.154578,-0.056139,-0.010636,-0.998366,-0.013365,-0.056945,-0.047029,141.871628,-6.010647,-58.674286,,,,,,,
1537473172.273672,-0.038410,0.007125,2.521748,-0.318401,1.757355,0.212525,-0.038400,-0.007125,-0.999237,-0.029807,-0.057969,-0.090485,141.871628,-6.010647,-58.674286,,,,,,,
1537473172.283713,-0.021654,0.004818,2.524839,-0.182138,1.633415,0.361223,-0.021652,-0.004818,-0.999754,-0.121567,-0.080341,-0.129778,143.313339,-5.832706,-59.557526,,,,,,,
1537473172.293753,-0.007148,0.004560,2.528563,0.035934,1.371013,0.358069,-0.007148,-0.004560,-0.999964,-0.063226,-0.074862,-0.121648,143.313339,-5.832706,-59.557526,,,,,,,
1537473172.303763,0.003034,0.006389,2.531317,0.222807,0.897615,0.243370,0.003033,-0.006389,-0.999975,0.063663,-0.031773,-0.132914,145.342255,-5.971119,-60.102997,,,,,,,
1537473172.313803,0.009115,0.009197,2.533436,0.287650,0.523815,0.208860,0.009114,-0.009197,-0.999916,0.011058,-0.038624,-0.145485,145.342255,-5.971119,-60.102997,,,,,,,
1537473172.323843,0.012244,0.012088,2.535172,0.281961,0.249144,0.159691,0.012243,-0.012088,-0.999852,0.010707,-0.050962,-0.113429,145.734161,-6.104107,-60.362823,,,,,,,
1537473172.333884,0.013256,0.014772,2.536200,0.254879,0.058621,0.079081,0.013254,-0.014771,-0.999803,0.042044,-0.044281,-0.070570,145.734161,-6.104107,-60.362823,,,,,,,
1537473172.343924,0.013054,0.016691,2.536009,0.166955,-0.037174,-0.044976,0.013052,-0.016690,-0.999776,0.088587,-0.049304,-0.058177,145.940643,-6.267353,-60.523285,,,,,,,
1537473172.353934,0.012361,0.017966,2.535322,0.118026,-0.074685,-0.060046,0.012359,-0.017965,-0.999762,0.098084,-0.076288,-0.031747,145.940643,-6.267353,-60.523285,,,,,,,
1537473172.363974,0.011250,0.020025,2.535395,0.241482,-0.111370,0.042280,0.011248,-0.020024,-0.999736,0.071043,-0.097896,0.004741,145.934174,-6.303349,-60.513214,,,,,,,
1537473172.374014,0.009974,0.024045,2.536177,0.465231,-0.119298,0.104406,0.009971,-0.024043,-0.999661,0.061623,-0.089940,0.039471,145.934174,-6.303349,-60.513214,,,,,,,
1537473172.384054,0.009437,0.031426,2.538158,0.825046,-0.017803,0.228800,0.009432,-0.031420,-0.999462,0.010908,-0.107526,0.093227,146.027130,-6.160442,-60.373871,,,,,,,
1537473172.394095,0.009906,0.041772,2.540130,1.079855,0.071970,0.188098,0.009897,-0.041760,-0.999079,0.003089,-0.042362,0.083887,146.027130,-6.160442,-60.373871,,,,,,,
1537473172.404105,0.010676,0.052890,2.541276,1.098237,0.079011,0.104803,0.010661,-0.052865,-0.998545,-0.018504,0.015405,0.027964,146.152649,-6.845325,-60.268036,,,,,,,
1537473172.414145,0.010906,0.062629,2.541833,0.909815,-0.004760,0.057121,0.010884,-0.062589,-0.997980,-0.053411,0.025754,-0.028372,146.152649,-6.845325,-60.268036,,,,,,,
1537473172.424185,0.009111,0.069656,2.542471,0.629753,-0.240914,0.083310,0.009089,-0.069600,-0.997534,-0.085246,0.026799,-0.095789,145.792633,-7.338505,-60.054352,,,,,,,
1537473172.434225,0.004610,0.074354,2.543888,0.422078,-0.504435,0.165564,0.004598,-0.074285,-0.997226,-0.086965,0.003012,-0.116741,145.792633,-7.338505,-60.054352,,,,,,,
1537473172.444266,-0.002184,0.077863,2.546166,0.336889,-0.702654,0.248201,-0.002177,-0.077784,-0.996968,-0.077611,0.003229,-0.081905,145.730499,-7.830296,-59.794769,,,,,,,
1537473172.454275,-0.010515,0.081490,2.549388,0.380567,-0.835536,0.344080,-0.010479,-0.081400,-0.996626,-0.057956,-0.006826,-0.019441,145.730499,-7.830296,-59.794769,,,,,,,
1537473172.464316,-0.020118,0.085796,2.553401,0.447796,-0.948326,0.401526,-0.020043,-0.085691,-0.996120,-0.034385,-0.007800,0.005871,145.058502,-8.056507,-59.474152,,,,,,,
1537473172.474356,-0.029915,0.090099,2.558072,0.422866,-0.905112,0.499550,-0.029789,-0.089977,-0.995498,-0.043270,0.008251,-0.003434,145.058502,-8.056507,-59.474152,,,,,,,
1537473172.484396,-0.036149,0.093715,2.562216,0.360656,-0.457671,0.336058,-0.035983,-0.093578,-0.994962,-0.208234,0.100276,0.041440,146.972473,-7.505939,-58.669037,,,,,,,
1537473172.494437,-0.037629,0.096915,2.564871,0.315230,-0.002292,0.250643,-0.037444,-0.096763,-0.994603,-0.204698,0.048591,0.095524,146.972473,-7.505939,-58.669037,,,,,,,
1537473172.504446,-0.034096,0.099584,2.568514,0.269994,0.514159,0.396909,-0.033920,-0.099419,-0.994467,-0.051941,-0.046775,0.127860,177.619339,0.953007,-55.760223,,,,,,,
1537473172.514487,-0.027444,0.102091,2.573252,0.269316,0.750463,0.460091,-0.027298,-0.101914,-0.994419,0.088760,0.012101,0.118122,177.619339,0.953007,-55.760223,,,,,,,
1537473172.524527,-0.020084,0.105000,2.576827,0.309242,0.774186,0.303097,-0.019972,-0.104807,-0.994292,0.126127,0.049372,0.080397,223.588715,10.222790,-51.103485,,,,,,,
1537473172.534567,-0.012169,0.108149,2.578792,0.316036,0.816086,0.154407,-0.012097,-0.107938,-0.994084,0.034207,0.034116,0.040806,262.371094,17.424561,-45.022125,,,,,,,
1537473172.544607,-0.004187,0.111348,2.579215,0.326213,0.774683,0.000722,-0.004161,-0.111118,-0.993798,-0.031698,0.008076,-0.014808,262.371094,17.424561,-45.022125,,,,,,,
1537473172.554617,0.002345,0.114721,2.578310,0.335478,0.605330,-0.121463,0.002330,-0.114469,-0.993424,-0.027309,0.048048,-0.029830,299.854431,22.980816,-35.225189,,,,,,,
1537473172.564657,0.008039,0.117557,2.576178,0.267693,0.548071,-0.233811,0.007983,-0.117286,-0.993066,0.003812,0.095649,-0.002585,299.854431,22.980816,-35.225189,,,,,,,
1537473172.574698,0.013544,0.119963,2.573130,0.254234,0.498426,-0.327736,0.013446,-0.119676,-0.992722,0.018963,0.065873,0.035065,335.885559,28.707016,-22.487701,,,,,,,
1537473172.584738,0.020703,0.121662,2.569229,0.149568,0.718833,-0.408252,0.020548,-0.121363,-0.992396,0.061498,0.053446,0.061182,335.885559,28.707016,-22.487701,,,,,,,
1537473172.594778,0.029597,0.122135,2.564430,0.022670,0.852755,-0.490678,0.029373,-0.121832,-0.992116,0.092805,0.063498,0.051351,354.503052,30.187206,-15.924683,,,,,,,
1537473172.604788,0.039950,0.120942,2.558908,-0.165095,1.019731,-0.570348,0.039648,-0.120647,-0.991903,0.059336,0.023525,0.053015,354.503052,30.187206,-15.924683,,,,,,,
1537473172.614828,0.048628,0.117059,2.552829,-0.427590,0.667825,-0.628039,0.048277,-0.116792,-0.991982,0.023608,-0.054274,-0.048759,356.313049,30.124321,-15.870636,,,,,,,
1537473172.624869,0.051920,0.110854,2.547165,-0.628254,0.138325,-0.572477,0.051578,-0.110627,-0.992523,0.055294,-0.034667,-0.163819,356.313049,30.124321,-15.870636,,,,,,,
1537473172.634909,0.051843,0.104547,2.542455,-0.576940,-0.092731,-0.468686,0.051537,-0.104356,-0.993204,0.139137,-0.018782,-0.040823,352.766907,29.985561,-17.771484,,,,,,,
1537473172.644919,0.050576,0.099217,2.538359,-0.487250,-0.192841,-0.438960,0.050306,-0.099054,-0.993810,0.226107,-0.129568,0.067952,352.766907,29.985561,-17.771484,,,,,,,
1537473172.654959,0.048809,0.094631,2.533707,-0.417704,-0.220818,-0.494060,0.048571,-0.094490,-0.994340,0.173566,-0.021569,0.051637,330.166016,23.146420,-26.666656,,,,,,,
1537473172.664999,0.047733,0.090107,2.529336,-0.447967,-0.119083,-0.433704,0.047521,-0.089985,-0.994809,0.046016,0.035084,0.030713,330.166016,23.146420,-26.666656,,,,,,,
1537473172.675040,0.047260,0.084006,2.526154,-0.654256,-0.073824,-0.312059,0.047076,-0.083907,-0.995361,-0.038211,0.018904,-0.035553,292.827515,13.000927,-38.692535,,,,,,,
1537473172.685080,0.045918,0.074954,2.524561,-0.976555,-0.187628,-0.160464,0.045773,-0.074883,-0.996141,-0.083126,-0.006446,-0.110274,292.827515,13.000927,-38.692535,,,,,,,
1537473172.695090,0.042687,0.063065,2.524321,-1.253761,-0.372123,-0.059652,0.042589,-0.063023,-0.997103,-0.068880,-0.027827,-0.111952,252.299011,0.681576,-49.086029,,,,,,,
1537473172.705130,0.037337,0.049248,2.524458,-1.403773,-0.592082,-0.031775,0.037283,-0.049228,-0.998091,-0.038763,-0.027219,-0.078126,252.299011,0.681576,-49.086029,,,,,,,
1537473172.715170,0.029904,0.035282,2.525280,-1.373814,-0.784811,0.056788,0.029881,-0.035274,-0.998931,-0.024724,-0.056904,-0.047669,221.903336,-9.977673,-55.368439,,,,,,,
1537473172.725210,0.021121,0.022803,2.526439,-1.190269,-0.892283,0.085967,0.021114,-0.022801,-0.999517,0.012501,-0.066630,0.010473,221.903336,-9.977673,-55.368439,,,,,,,
1537473172.735251,0.012018,0.012931,2.527410,-0.908702,-0.902666,0.076799,0.012017,-0.012931,-0.999844,-0.018441,-0.056039,0.054303,210.244385,-17.693546,-59.883698,,,,,,,
1537473172.745261,0.003302,0.006039,2.528240,-0.599737,-0.834786,0.117695,0.003302,-0.006038,-0.999976,-0.075293,-0.037831,0.096168,210.244385,-17.693546,-59.883698,,,,,,,
1537473172.755301,-0.003615,0.003094,2.530413,-0.184652,-0.642475,0.243086,-0.003615,-0.003094,-0.999989,-0.072817,-0.045337,0.113835,210.327179,-20.272846,-60.394379,,,,,,,
1537473172.765341,-0.008771,0.004225,2.533210,0.204112,-0.472050,0.281855,-0.008770,-0.004225,-0.999953,-0.052692,-0.040056,0.103911,210.327179,-20.272846,-60.394379,,,,,,,
1537473172.775381,-0.012272,0.007669,2.535731,0.370323,-0.309874,0.224369,-0.012271,-0.007669,-0.999895,-0.056378,-0.030752,0.075792,210.334213,-20.565792,-60.267853,,,,,,,
1537473172.785422,-0.014763,0.011049,2.536873,0.314148,-0.236036,0.067740,-0.014761,-0.011049,-0.999830,-0.042475,-0.016188,0.023435,210.334213,-20.565792,-60.267853,,,,,,,
1537473172.795431,-0.016994,0.013110,2.536312,0.168522,-0.206141,-0.094527,-0.016991,-0.013110,-0.999770,-0.023490,-0.013212,-0.000291,211.363373,-21.374096,-60.327362,,,,,,,
1537473172.805472,-0.018759,0.013737,2.534799,0.022593,-0.168285,-0.164914,-0.018756,-0.013736,-0.999730,-0.021054,-0.005261,0.017399,211.363373,-21.374096,-60.327362,,,,,,,
1537473172.815512,-0.020402,0.013319,2.533275,-0.058550,-0.160766,-0.138651,-0.020399,-0.013319,-0.999703,-0.032717,-0.005098,0.029137,213.088028,-22.251232,-60.127716,,,,,,,
1537473172.825552,-0.021623,0.012876,2.532607,-0.034470,-0.104650,-0.037215,-0.021619,-0.012875,-0.999683,-0.025057,-0.004672,0.050282,213.088028,-22.251232,-60.127716,,,,,,,
1537473172.835593,-0.021892,0.013041,2.532987,0.037518,-0.000463,0.060006,-0.021888,-0.013041,-0.999675,-0.019188,-0.005392,0.052303,214.372543,-22.883762,-60.064972,,,,,,,
1537473172.845602,-0.020790,0.014157,2.534273,0.143568,0.156009,0.148647,-0.020787,-0.014157,-0.999684,-0.022441,-0.024356,0.059956,214.372543,-22.883762,-60.064972,,,,,,,
1537473172.855643,-0.018436,0.016318,2.536163,0.240293,0.251357,0.186183,-0.018433,-0.016317,-0.999697,-0.016174,-0.034846,0.055254,214.928940,-22.810406,-60.075775,,,,,,,
1537473172.865683,-0.016251,0.019073,2.537757,0.284265,0.197782,0.139601,-0.016247,-0.019072,-0.999686,-0.002826,-0.025285,0.017112,214.928940,-22.810406,-60.075775,,,,,,,
1537473172.875723,-0.015514,0.021975,2.538744,0.292274,0.028749,0.076190,-0.015509,-0.021973,-0.999638,0.008429,-0.019622,-0.017497,215.230499,-23.354725,-60.104095,,,,,,,
1537473172.885763,-0.016052,0.024921,2.539232,0.294747,-0.078230,0.039222,-0.016046,-0.024918,-0.999561,0.011087,-0.023803,-0.004162,215.230499,-23.354725,-60.104095,,,,,,,
1537473172.895773,-0.017799,0.027688,2.539402,0.265274,-0.200221,-0.004267,-0.017791,-0.027684,-0.999458,0.007934,-0.018550,0.002327,215.039352,-23.476284,-60.244110,,,,,,,
1537473172.905814,-0.020319,0.030252,2.539131,0.259059,-0.253739,-0.035080,-0.020308,-0.030248,-0.999336,-0.006700,0.000066,0.009315,215.039352,-23.476284,-60.244110,,,,,,,
1537473172.915854,-0.022804,0.032864,2.538878,0.254765,-0.246247,-0.030858,-0.022790,-0.032859,-0.999200,-0.004554,0.033652,0.022912,214.991104,-23.876949,-60.089447,,,,,,,
1537473172.925894,-0.025193,0.035016,2.538408,0.196159,-0.221920,-0.056913,-0.025175,-0.035009,-0.999070,0.011503,0.018865,0.006455,214.991104,-23.876949,-60.089447,,,,,,,
1537473172.935934,-0.026769,0.036519,2.537795,0.134195,-0.138802,-0.072532,-0.026748,-0.036511,-0.998975,0.014984,-0.010455,0.018400,214.971527,-23.993618,-60.008514,,,,,,,
1537473172.945944,-0.027483,0.037751,2.536773,0.119262,-0.057947,-0.119958,-0.027460,-0.037742,-0.998910,0.029612,0.006324,0.028848,214.971527,-23.993618,-60.008514,,,,,,,
1537473172.955984,-0.027597,0.039109,2.534755,0.135431,-0.005018,-0.206654,-0.027572,-0.039099,-0.998855,0.046233,-0.002023,0.023025,219.293945,-24.894909,-59.606781,,,,,,,
1537473172.966025,-0.027196,0.041023,2.533712,0.208453,0.046024,-0.067534,-0.027170,-0.041012,-0.998789,0.023157,0.015728,0.019221,219.293945,-24.894909,-59.606781,,,,,,,
1537473172.976065,-0.026850,0.043476,2.533719,0.242420,0.021856,-0.004202,-0.026821,-0.043462,-0.998695,0.014019,-0.014811,0.022071,221.325562,-25.235401,-59.343658,,,,,,,
1537473172.986105,-0.026298,0.046064,2.534389,0.265515,0.056552,0.087695,-0.026267,-0.046048,-0.998594,-0.011727,-0.032810,0.019361,221.325562,-25.235401,-59.343658,,,,,,,
1537473172.996115,-0.026256,0.048702,2.536057,0.267478,-0.003810,0.177722,-0.026222,-0.048683,-0.998470,-0.043007,0.000617,0.022289,221.472473,-25.523685,-59.508087,,,,,,,
1537473173.006155,-0.026259,0.050943,2.538158,0.215079,0.025106,0.209395,-0.026221,-0.050921,-0.998358,-0.030602,-0.015211,0.024909,221.472473,-25.523685,-59.508087,,,,,,,
1537473173.016196,-0.025415,0.052456,2.540453,0.136979,0.121210,0.228909,-0.025377,-0.052432,-0.998302,-0.004042,0.002017,0.033077,221.851715,-25.591228,-59.545929,,,,,,,
1537473173.026236,-0.022733,0.053000,2.542800,0.032018,0.346375,0.231737,-0.022699,-0.052975,-0.998338,0.004236,0.012341,0.064546,221.851715,-25.591228,-59.545929,,,,,,,
1537473173.036276,-0.017732,0.052446,2.544942,-0.076023,0.541540,0.215430,-0.017707,-0.052422,-0.998468,0.005836,0.007317,0.079523,222.872086,-25.331890,-59.634430,,,,,,,
1537473173.046286,-0.012041,0.051339,2.546911,-0.111238,0.583041,0.191567,-0.012025,-0.051316,-0.998610,-0.006835,0.009766,0.051726,222.872086,-25.331890,-59.634430,,,,,,,
1537473173.056326,-0.006553,0.050446,2.548600,-0.073738,0.540223,0.163078,-0.006545,-0.050424,-0.998706,-0.011918,0.013696,0.039524,223.516525,-24.864338,-59.701508,,,,,,,
1537473173.066366,-0.002121,0.050351,2.550021,0.014063,0.415225,0.130905,-0.002119,-0.050330,-0.998730,-0.010134,0.007453,0.026974,223.516525,-24.864338,-59.701508,,,,,,,
1537473173.076407,0.000829,0.051265,2.550934,0.114784,0.263432,0.075393,0.000828,-0.051242,-0.998686,-0.003055,0.001453,0.018019,224.034561,-24.985416,-59.793549,,,,,,,
1537473173.086447,0.002266,0.052893,2.551381,0.173872,0.106344,0.037853,0.002263,-0.052868,-0.998599,0.005244,0.004910,0.011126,224.034561,-24.985416,-59.793549,,,,,,,
1537473173.096457,0.002367,0.054833,2.551874,0.195368,-0.009899,0.057666,0.002364,-0.054805,-0.998494,0.005006,0.006542,0.003499,224.067444,-25.125362,-59.909088,,,,,,,
1537473173.106497,0.001648,0.056742,2.552870,0.188913,-0.076845,0.115612,0.001645,-0.056711,-0.998389,0.002597,-0.001638,0.009025,224.067444,-25.125362,-59.909088,,,,,,,
1537473173.116537,0.002051,0.059037,2.552593,0.251112,0.087566,-0.095263,0.002048,-0.059003,-0.998256,-0.122790,0.092297,0.040019,242.201675,-22.407757,-56.881561,,,,,,,
1537473173.126578,0.004634,0.062683,2.551360,0.409668,0.303257,-0.125215,0.004625,-0.062642,-0.998025,-0.171449,0.045217,0.049081,242.201675,-22.407757,-56.881561,,,,,,,
1537473173.136618,0.010146,0.067055,2.551306,0.438282,0.623550,0.060695,0.010123,-0.067005,-0.997701,-0.002265,-0.107403,0.095724,331.326355,-9.072025,-35.431976,,,,,,,
1537473173.146628,0.016868,0.071271,2.553525,0.408627,0.700524,0.278262,0.016825,-0.071211,-0.997319,0.116995,-0.111101,0.059758,331.326355,-9.072025,-35.431976,,,,,,,
1537473173.156668,0.023497,0.075040,2.557334,0.353839,0.678797,0.417000,0.023429,-0.074969,-0.996911,0.107690,-0.026868,0.024376,414.392883,3.734177,-5.114136,,,,,,,
1537473173.166708,0.029895,0.078043,2.561801,0.265228,0.662905,0.460418,0.029799,-0.077964,-0.996511,0.060365,-0.014215,0.022268,414.392883,3.734177,-5.114136,,,,,,,
1537473173.176749,0.035474,0.080054,2.566413,0.159894,0.585767,0.435590,0.035353,-0.079969,-0.996170,0.066759,-0.065524,0.003067,441.404236,11.233444,7.133240,,,,,,,
1537473173.186789,0.040217,0.081261,2.569716,0.095561,0.462112,0.291461,0.040073,-0.081172,-0.995894,-0.012638,0.023768,-0.008149,441.404236,11.233444,7.133240,,,,,,,
1537473173.196799,0.042988,0.081730,2.571444,0.027188,0.244435,0.135928,0.042832,-0.081639,-0.995741,-0.053849,0.072576,-0.039324,456.706116,20.276993,18.032562,,,,,,,
1537473173.206839,0.043962,0.081423,2.571995,-0.047850,0.074019,0.034680,0.043802,-0.081333,-0.995724,-0.032221,-0.011426,-0.051655,456.706116,20.276993,18.032562,,,,,,,
1537473173.216879,0.043364,0.080701,2.572169,-0.085798,-0.103407,0.008467,0.043209,-0.080614,-0.995808,0.001850,-0.038511,-0.036754,476.994690,32.670341,31.973663,,,,,,,
1537473173.226919,0.041065,0.079761,2.571958,-0.105577,-0.275558,-0.037977,0.040923,-0.079676,-0.995980,0.013124,-0.013646,-0.017188,476.994690,32.670341,31.973663,,,,,,,
1537473173.236956,0.037741,0.078381,2.570976,-0.148824,-0.365794,-0.128690,0.037616,-0.078301,-0.996220,-0.010562,0.025704,-0.008083,480.127197,35.157887,34.575714,,,,,,,
1537473173.246966,0.034201,0.076252,2.568838,-0.227318,-0.367658,-0.250934,0.034095,-0.076178,-0.996511,0.002388,0.016974,-0.015665,480.127197,35.157887,34.575714,,,,,,,
1537473173.257006,0.031360,0.073215,2.565501,-0.319854,-0.291559,-0.371425,0.031271,-0.073150,-0.996831,0.018533,0.010131,0.001561,479.363586,35.401070,35.241730,,,,,,,
1537473173.267046,0.029433,0.069027,2.560892,-0.432660,-0.201635,-0.503833,0.029358,-0.068972,-0.997186,0.037536,0.034304,0.019525,479.363586,35.401070,35.241730,,,,,,,
1537473173.277086,0.027860,0.063601,2.555074,-0.544246,-0.206672,-0.618757,0.027800,-0.063558,-0.997591,0.066011,0.045950,0.012163,475.536621,35.864410,35.692871,,,,,,,
1537473173.287127,0.024895,0.057651,2.549090,-0.585575,-0.394435,-0.579751,0.024851,-0.057619,-0.998029,0.091024,-0.043867,-0.011507,475.536621,35.864410,35.692871,,,,,,,
1537473173.297136,0.020126,0.051896,2.545188,-0.550893,-0.527604,-0.339635,0.020098,-0.051873,-0.998451,0.099989,-0.148261,-0.011833,437.259094,24.301144,8.963104,,,,,,,
1537473173.307177,0.014788,0.047173,2.542607,-0.450896,-0.522819,-0.268590,0.014771,-0.047155,-0.998778,-0.032990,-0.064356,0.049346,437.259094,24.301144,8.963104,,,,,,,
1537473173.317217,0.010529,0.044339,2.540104,-0.223006,-0.408165,-0.244337,0.010519,-0.044325,-0.998962,-0.164205,-0.032808,0.076263,385.729492,9.993954,-17.101379,,,,,,,
1537473173.327257,0.007241,0.043574,2.538464,-0.032668,-0.319770,-0.128263,0.007234,-0.043560,-0.999025,-0.093446,-0.089909,0.038682,385.729492,9.993954,-17.101379,,,,,,,
1537473173.337298,0.004624,0.044074,2.538155,0.065954,-0.249557,-0.001911,0.004620,-0.044059,-0.999018,0.005405,-0.077446,0.025858,376.007385,7.231911,-21.187500,,,,,,,
1537473173.347307,0.002582,0.044706,2.538664,0.053890,-0.190482,0.064055,0.002579,-0.044691,-0.998998,0.031860,-0.046435,0.016957,376.007385,7.231911,-21.187500,,,,,,,
1537473173.357348,0.001241,0.044662,2.539386,-0.027315,-0.122206,0.071907,0.001240,-0.044647,-0.999002,0.017040,0.003036,0.014215,364.430969,3.860588,-25.550812,,,,,,,
1537473173.367388,0.000263,0.043480,2.540169,-0.156406,-0.100978,0.079694,0.000263,-0.043466,-0.999055,0.016446,0.005777,-0.007506,364.430969,3.860588,-25.550812,,,,,,,
1537473173.377428,-0.001101,0.040974,2.540892,-0.294865,-0.162078,0.066386,-0.001100,-0.040963,-0.999160,0.021181,0.002861,-0.031098,349.216980,-1.698231,-31.379730,,,,,,,
1537473173.387468,-0.003036,0.037367,2.541265,-0.377854,-0.195481,0.029745,-0.003034,-0.037359,-0.999297,0.014310,0.009313,-0.016999,349.216980,-1.698231,-31.379730,,,,,,,
1537473173.397478,-0.004860,0.033970,2.541330,-0.317045,-0.159274,-0.001074,-0.004857,-0.033964,-0.999411,-0.005259,0.011884,0.020377,333.155212,-7.243320,-36.687531,,,,,,,
1537473173.407518,-0.005885,0.031981,2.541003,-0.164616,-0.073864,-0.040158,-0.005882,-0.031976,-0.999471,-0.018822,0.012734,0.041372,333.155212,-7.243320,-36.687531,,,,,,,
1537473173.417559,-0.006082,0.031397,2.540614,-0.035749,-0.004270,-0.033346,-0.006079,-0.031392,-0.999489,0.001089,-0.014247,0.025566,329.328125,-8.729740,-38.210724,,,,,,,
1537473173.427599,-0.005717,0.031699,2.540501,0.044027,0.044049,-0.002125,-0.005714,-0.031694,-0.999481,0.013252,-0.022200,0.013474,329.328125,-8.729740,-38.210724,,,,,,,
1537473173.437609,-0.005159,0.032379,2.540762,0.072683,0.052825,0.034328,-0.005156,-0.032374,-0.999463,0.009154,-0.009832,0.011685,328.993835,-9.003391,-38.350311,,,,,,,
1537473173.447649,-0.004819,0.033024,2.541324,0.058789,0.026260,0.062149,-0.004817,-0.033018,-0.999443,0.008158,-0.000536,0.011421,328.993835,-9.003391,-38.350311,,,,,,,
1537473173.457689,-0.004816,0.033331,2.542045,0.020427,-0.007883,0.074909,-0.004813,-0.033325,-0.999433,0.005149,0.005340,0.015867,328.830139,-8.857769,-38.352325,,,,,,,
1537473173.467730,-0.005183,0.033101,2.542801,-0.037079,-0.046388,0.073691,-0.005181,-0.033095,-0.999439,0.004769,0.001693,0.019977,328.830139,-8.857769,-38.352325,,,,,,,
1537473173.477770,-0.005966,0.032253,2.543519,-0.098847,-0.082777,0.071374,-0.005963,-0.032248,-0.999462,0.005352,-0.000620,0.025219,328.826233,-8.638721,-38.335907,,,,,,,
