timestamp(unix),attitude_roll(radians),attitude_pitch(radians),attitude_yaw(radians),rotation_rate_x(radians/s),rotation_rate_y(radians/s),rotation_rate_z(radians/s),gravity_x(G),gravity_y(G),gravity_z(G),user_acc_x(G),user_acc_y(G),user_acc_z(G),magnetic_field_x(microteslas),magnetic_field_y(microteslas),magnetic_field_z(microteslas),latitude(degree),longitude(degree),altitude(meter),speed(m/s),course(degree),timestamp(unix),User Mark
1537042389.869747,-0.493410,0.063656,1.940916,-0.024777,-0.012548,-0.224456,-0.472672,-0.063613,-0.878939,-0.001952,0.019775,0.030367,-29.085583,-15.067226,-32.630341,,,,,,,
1537042389.879726,-0.493556,0.064089,1.939199,-0.040481,-0.032583,-0.147664,-0.472788,-0.064045,-0.878846,-0.007666,0.051701,0.065537,-29.085583,-15.067226,-32.630341,,,,,,,
1537042389.889706,-0.493447,0.064594,1.939022,0.067450,0.041849,-0.028661,-0.472676,-0.064549,-0.878869,-0.026927,0.069554,0.072228,-28.899864,-15.018288,-32.482361,,,,,,,
,,,,,,,,,,,,,,,,42.293077,-71.262774,50.469604,0.000000,-1.000000,1537042388.997336,
1537042389.899685,-0.493391,0.066423,1.940257,0.276854,-0.026374,0.035537,-0.472571,-0.066374,-0.878789,-0.028207,0.048079,0.088537,-28.899864,-15.018288,-32.482361,,,,,,,
1537042389.909664,-0.494688,0.069844,1.942649,0.450573,-0.139421,0.022728,-0.473599,-0.069788,-0.877971,0.007062,0.063211,0.082469,-29.152985,-15.091244,-32.325256,,,,,,,
1537042389.919643,-0.496222,0.074669,1.944982,0.567495,-0.128433,-0.041756,-0.474780,-0.074599,-0.876937,0.047916,0.081633,0.072433,-29.152985,-15.091244,-32.325256,,,,,,,
1537042389.929623,-0.497670,0.080510,1.947642,0.655229,-0.116132,-0.064771,-0.475833,-0.080423,-0.875851,0.053439,0.061350,0.030194,-29.287815,-15.504051,-31.894775,,,,,,,
1537042389.939602,-0.498957,0.087032,1.950053,0.699432,-0.085490,-0.105123,-0.476699,-0.086922,-0.874758,0.047561,0.028969,-0.012937,-29.287815,-15.504051,-31.894775,,,,,,,
1537042389.949581,-0.499370,0.093507,1.952496,0.671980,0.001124,-0.110699,-0.476781,-0.093371,-0.874049,0.010274,-0.032392,-0.012105,-29.191250,-15.790318,-31.770599,,,,,,,
1537042389.959560,-0.498689,0.099499,1.954296,0.596899,0.125293,-0.145397,-0.475909,-0.099335,-0.873867,-0.001142,-0.078781,-0.051365,-29.191250,-15.790318,-31.770599,,,,,,,
1537042389.969509,-0.496640,0.104809,1.955039,0.470012,0.245346,-0.233745,-0.473860,-0.104617,-0.874364,0.040159,-0.094540,-0.072505,-29.075756,-16.349682,-31.550812,,,,,,,
1537042389.979488,-0.493502,0.109488,1.953865,0.328480,0.325875,-0.365899,-0.470877,-0.109270,-0.875406,0.072424,-0.094725,-0.064795,-29.075756,-16.349682,-31.550812,,,,,,,
1537042389.989468,-0.489578,0.113892,1.950956,0.229755,0.374098,-0.521270,-0.467207,-0.113646,-0.876813,0.088286,-0.092500,-0.046481,-28.660236,-16.670925,-31.727173,,,,,,,
1537042389.999447,-0.484821,0.118633,1.946140,0.199493,0.433668,-0.693355,-0.462774,-0.118355,-0.878540,0.088735,-0.085335,-0.015717,-28.660236,-16.670925,-31.727173,,,,,,,
1537042390.009426,-0.479484,0.124394,1.940077,0.245925,0.468295,-0.858590,-0.457756,-0.124073,-0.880378,0.076195,-0.068493,0.014670,-27.975397,-17.409477,-31.817169,,,,,,,
1537042390.019405,-0.473434,0.131574,1.932876,0.341282,0.527273,-1.000098,-0.452004,-0.131194,-0.882315,0.062630,-0.047379,0.046576,-27.975397,-17.409477,-31.817169,,,,,,,
1537042390.029385,-0.466872,0.140354,1.925250,0.477732,0.556244,-1.094382,-0.445669,-0.139893,-0.884199,0.058707,-0.010863,0.075987,-27.975397,-17.409477,-31.817169,,,,,,,
1537042390.039364,-0.460420,0.150751,1.917852,0.637112,0.530737,-1.145787,-0.439285,-0.150180,-0.885705,0.058197,0.041385,0.085886,-27.268669,-18.227825,-31.816315,,,,,,,
,,,,,,,,,,,,,,,,42.293077,-71.262774,50.571045,0.000000,-1.000000,1537042389.997298,
1537042390.049343,-0.453823,0.162579,1.910597,0.779322,0.552352,-1.172782,-0.432624,-0.161864,-0.886925,0.069419,0.096983,0.090157,-27.268669,-18.227825,-31.816315,,,,,,,
1537042390.059322,-0.446052,0.173962,1.904494,0.715042,0.741038,-0.973711,-0.424896,-0.173086,-0.888541,0.045440,0.142980,0.070822,-26.422247,-19.160095,-31.762909,,,,,,,
1537042390.069302,-0.440151,0.182397,1.901123,0.591937,0.454337,-0.552453,-0.419008,-0.181387,-0.889680,-0.187972,0.111319,-0.056883,-26.422247,-19.160095,-31.762909,,,,,,,
1537042390.079250,-0.436538,0.187574,1.900751,0.399294,0.307751,-0.184025,-0.415388,-0.186476,-0.890325,-0.172472,0.152037,-0.098017,-25.733040,-19.962986,-31.834381,,,,,,,
1537042390.089229,-0.436605,0.189387,1.902918,0.205592,-0.056527,0.233723,-0.415304,-0.188257,-0.889989,-0.234400,0.228037,-0.072352,-25.733040,-19.962986,-31.834381,,,,,,,
1537042390.099209,-0.439571,0.188002,1.908840,0.099737,-0.207679,0.675220,-0.418053,-0.186897,-0.888989,-0.252510,0.213371,-0.090335,-25.577724,-20.089111,-31.863892,,,,,,,
1537042390.109188,-0.443143,0.185466,1.917651,0.168724,-0.186080,0.952047,-0.421428,-0.184405,-0.887915,-0.190038,0.194262,-0.006296,-25.577724,-20.089111,-31.863892,,,,,,,
1537042390.119167,-0.447454,0.183370,1.928330,0.279786,-0.266556,1.034928,-0.425418,-0.182344,-0.886437,-0.130018,0.138383,0.047356,-25.994068,-19.647663,-31.624664,,,,,,,
1537042390.129146,-0.452709,0.181818,1.938446,0.287986,-0.366132,0.926194,-0.430193,-0.180818,-0.884443,-0.051176,0.067323,0.012296,-25.994068,-19.647663,-31.624664,,,,,,,
1537042390.139126,-0.458600,0.180415,1.946377,0.178973,-0.479275,0.680199,-0.435508,-0.179438,-0.882120,0.021491,-0.003347,-0.009055,-26.617569,-19.520206,-31.496857,,,,,,,
1537042390.149105,-0.462431,0.177792,1.950926,-0.161826,-0.067883,0.503918,-0.439092,-0.176857,-0.880863,0.057226,-0.091743,-0.029461,-26.617569,-19.520206,-31.496857,,,,,,,
1537042390.159084,-0.453064,0.167679,1.952364,-1.068619,1.148702,0.506252,-0.431583,-0.166894,-0.886500,0.007526,-0.388389,0.256892,-26.920742,-19.272171,-31.407898,,,,,,,
1537042390.169063,-0.445246,0.152808,1.950117,-1.514581,0.548734,0.442500,-0.425661,-0.152214,-0.891988,-0.209257,-0.601463,0.324728,-26.920742,-19.272171,-31.407898,,,,,,,
1537042390.179012,-0.441540,0.138545,1.946831,-1.376855,0.290254,0.239636,-0.423238,-0.138102,-0.895431,-0.116664,-0.432241,-0.148956,-27.053509,-18.216618,-32.172607,,,,,,,
1537042390.188991,-0.439492,0.129802,1.941973,-0.849819,0.065575,-0.170349,-0.421901,-0.129438,-0.897355,0.037333,-0.058093,-0.160644,-27.053509,-18.216618,-32.172607,,,,,,,
1537042390.198971,-0.439924,0.128036,1.936707,-0.229816,-0.183939,-0.484799,-0.422385,-0.127686,-0.897378,0.138434,0.125642,-0.034049,-26.888359,-17.832096,-32.583984,,,,,,,
1537042390.208950,-0.444578,0.133629,1.931136,0.443072,-0.687901,-0.827519,-0.426243,-0.133232,-0.894744,0.138081,0.216148,-0.010591,-26.888359,-17.832096,-32.583984,,,,,,,
1537042390.218929,-0.452526,0.145622,1.926897,1.028112,-0.880167,-0.924453,-0.432611,-0.145108,-0.889826,0.157343,0.329907,-0.082387,-27.050846,-18.169765,-32.244934,,,,,,,
1537042390.228908,-0.454357,0.162655,1.924625,1.601952,0.070152,-0.971370,-0.433092,-0.161938,-0.886683,0.179079,0.303235,0.054972,-27.050846,-18.169765,-32.244934,,,,,,,
1537042390.238888,-0.459143,0.184998,1.925373,2.140081,-0.714061,-0.900373,-0.435618,-0.183944,-0.881136,0.173793,0.271026,0.449053,-26.902061,-19.377918,-31.431671,,,,,,,
1537042390.248867,-0.472845,0.205095,1.926837,1.629794,-1.501143,-0.755067,-0.445876,-0.203660,-0.871617,-0.168152,0.200868,0.107640,-26.902061,-19.377918,-31.431671,,,,,,,
1537042390.258846,-0.486723,0.214608,1.923895,0.397092,-1.377044,-0.674427,-0.457002,-0.212964,-0.863594,-0.294615,0.123700,-0.088188,-27.141769,-20.764500,-30.174988,,,,,,,
1537042390.268825,-0.500389,0.213528,1.916532,-0.668288,-1.559084,-0.549859,-0.468871,-0.211909,-0.857469,0.011550,0.015696,-0.139219,-27.141769,-20.764500,-30.174988,,,,,,,
1537042390.278774,-0.512003,0.207202,1.909068,-0.938802,-1.211117,-0.268820,-0.479445,-0.205723,-0.853118,0.112746,-0.100567,-0.161942,-27.888660,-20.968506,-29.859467,,,,,,,
1537042390.288753,-0.518098,0.201166,1.904002,-0.690713,-0.538411,-0.130439,-0.485242,-0.199811,-0.851244,0.059674,-0.119021,0.037096,-27.888660,-20.968506,-29.859467,,,,,,,
1537042390.298733,-0.516730,0.198263,1.899252,-0.439234,0.233895,-0.330521,-0.484361,-0.196967,-0.852407,0.082765,-0.027719,0.207556,-28.041050,-20.609535,-29.976196,,,,,,,
1537042390.308712,-0.511190,0.197507,1.893393,-0.335796,0.429437,-0.497741,-0.479704,-0.196226,-0.855207,0.031599,-0.037203,0.182829,-28.041050,-20.609535,-29.976196,,,,,,,
1537042390.318691,-0.507256,0.196691,1.886712,-0.432976,0.197064,-0.556749,-0.476414,-0.195425,-0.857227,-0.000194,-0.108301,-0.156048,-27.731415,-20.748875,-30.048401,,,,,,,
1537042390.328670,-0.505718,0.194975,1.878790,-0.547281,-0.058711,-0.616894,-0.475257,-0.193742,-0.858251,0.028175,-0.137771,-0.340266,-27.731415,-20.748875,-30.048401,,,,,,,
1537042390.338636,-0.507137,0.193777,1.870512,-0.482558,-0.409391,-0.681299,-0.476587,-0.192567,-0.857778,0.025506,-0.132232,-0.260722,-27.630095,-20.675705,-30.206635,,,,,,,
1537042390.348615,-0.513818,0.193773,1.862707,-0.331797,-0.962102,-0.648956,-0.482307,-0.192563,-0.854576,0.045677,-0.125614,-0.266411,-27.630095,-20.675705,-30.206635,,,,,,,
1537042390.358594,-0.526394,0.194526,1.856636,-0.219045,-1.513387,-0.544236,-0.492943,-0.193302,-0.848317,0.083214,-0.099880,-0.307841,-27.752028,-20.808430,-29.783997,,,,,,,
1537042390.368573,-0.544572,0.194770,1.851486,-0.255981,-2.061672,-0.404048,-0.508257,-0.193541,-0.839176,0.091265,-0.146165,-0.265469,-27.752028,-20.808430,-29.783997,,,,,,,
1537042390.378522,-0.568814,0.192511,1.847632,-0.466229,-2.636456,-0.104666,-0.528683,-0.191324,-0.826976,0.111492,-0.183356,-0.269475,-28.718884,-20.912300,-28.762054,,,,,,,
1537042390.388501,-0.598143,0.185664,1.846142,-0.702455,-3.071874,0.390844,-0.553431,-0.184599,-0.812180,0.291850,-0.276872,-0.288925,-28.718884,-20.912300,-28.762054,,,,,,,
1537042390.398481,-0.630059,0.175486,1.849833,-0.554051,-3.165173,1.045033,-0.580144,-0.174587,-0.795583,0.327718,-0.375904,-0.258692,-30.504654,-20.455170,-27.425690,,,,,,,
1537042390.408460,-0.664771,0.165956,1.862225,0.197156,-3.271252,1.697205,-0.608403,-0.165196,-0.776245,0.315068,-0.311367,-0.156861,-30.504654,-20.455170,-27.425690,,,,,,,
1537042390.418439,-0.699489,0.160362,1.884177,1.155015,-3.038290,2.138813,-0.635567,-0.159675,-0.755354,0.353432,-0.231240,0.019437,-32.846931,-19.838440,-25.649109,,,,,,,
1537042390.428418,-0.736108,0.158160,1.915034,2.072527,-3.239736,2.546480,-0.663029,-0.157501,-0.731837,0.374119,-0.247604,0.175243,-32.846931,-19.838440,-25.649109,,,,,,,
1537042390.438398,-0.777572,0.158593,1.953840,2.842360,-3.672391,2.818005,-0.692747,-0.157929,-0.703676,0.340163,-0.326156,0.214601,-35.471310,-19.064377,-23.130890,,,,,,,
1537042390.448377,-0.824691,0.159783,1.998787,3.404360,-4.115757,3.062781,-0.724984,-0.159104,-0.670137,0.336343,-0.358657,0.185030,-35.471310,-19.064377,-23.130890,,,,,,,
1537042390.458356,-0.875481,0.160395,2.048677,3.857892,-4.337738,3.219207,-0.757996,-0.159708,-0.632404,0.306153,-0.172720,0.139851,-38.301598,-18.173264,-19.218933,,,,,,,
1537042390.468335,-0.930034,0.162914,2.102775,4.545679,-4.662029,3.049314,-0.791025,-0.162194,-0.589891,0.293604,-0.001594,0.131411,-38.301598,-18.173264,-19.218933,,,,,,,
1537042390.478315,-0.984255,0.167847,2.158599,4.767272,-4.431228,2.690566,-0.821156,-0.167060,-0.545705,0.097660,-0.046838,0.075796,-40.941536,-17.426151,-14.850891,,,,,,,
1537042390.488263,-1.038695,0.170035,2.211424,4.494753,-4.636137,2.563319,-0.849316,-0.169217,-0.500029,0.022762,0.037167,-0.061388,-40.941536,-17.426151,-14.850891,,,,,,,
1537042390.498243,-1.094207,0.168609,2.262892,4.337261,-4.718485,2.610572,-0.875964,-0.167811,-0.452246,-0.131207,0.250377,-0.119226,-42.746460,-16.232403,-10.120728,,,,,,,
1537042390.508222,-1.149538,0.160460,2.313962,4.149724,-4.707994,3.049323,-0.900852,-0.159772,-0.403656,-0.236340,0.308957,-0.157913,-42.746460,-16.232403,-10.120728,,,,,,,
1537042390.518201,-1.204072,0.144380,2.364822,3.990498,-4.653728,3.555433,-0.923794,-0.143879,-0.354829,-0.291752,0.235859,-0.081694,-42.746460,-16.232403,-10.120728,,,,,,,
1537042390.528180,-1.256138,0.119083,2.414227,3.698944,-4.546159,4.195262,-0.944168,-0.118802,-0.307300,-0.289459,0.045819,-0.057401,-44.070747,-13.769711,-5.243408,,,,,,,
1537042390.538160,-1.305742,0.084058,2.461249,3.430475,-4.476013,4.865147,-0.961671,-0.083959,-0.261037,-0.258681,0.013600,-0.067012,-44.070747,-13.769711,-5.243408,,,,,,,
1537042390.548139,-1.352914,0.040957,2.505655,3.228566,-4.422592,5.371024,-0.975539,-0.040945,-0.215981,-0.193880,0.047690,-0.070335,-45.027699,-9.962025,-1.009277,,,,,,,
1537042390.558118,-1.396192,-0.008078,2.546267,2.964935,-4.193116,5.678909,-0.984763,0.008078,-0.173713,-0.091927,0.063867,-0.054833,-45.027699,-9.962025,-1.009277,,,,,,,
1537042390.568097,-1.436316,-0.059781,2.581909,2.642316,-4.101833,5.634348,-0.989201,0.059745,-0.133836,0.019124,0.154458,-0.075301,-45.672493,-4.460941,3.309418,,,,,,,
1537042390.578077,-1.473625,-0.110086,2.611350,2.222975,-3.927558,5.228374,-0.989258,0.109864,-0.096431,0.128754,0.266219,-0.119420,-45.672493,-4.460941,3.309418,,,,,,,
1537042390.588025,-1.506652,-0.156281,2.633607,1.702318,-3.513953,4.657214,-0.985782,0.155645,-0.063319,0.178836,0.335031,-0.077840,-45.227425,0.634501,6.579987,,,,,,,
1537042390.598005,-1.535430,-0.197381,2.649504,1.259159,-3.015445,4.038357,-0.979970,0.196102,-0.034673,0.180166,0.348607,-0.041118,-45.227425,0.634501,6.579987,,,,,,,
1537042390.607984,-1.558894,-0.233125,2.660928,0.970468,-2.454661,3.462984,-0.972880,0.231019,-0.011580,0.190272,0.325743,0.015639,-44.119907,5.069977,9.300385,,,,,,,
1537042390.617963,-1.577260,-0.263526,2.669773,0.820129,-1.929777,2.915092,-0.965457,0.260486,0.006240,0.213153,0.258908,0.089738,-44.119907,5.069977,9.300385,,,,,,,
1537042390.627942,-1.590434,-0.289606,2.677168,0.717552,-1.394147,2.512625,-0.958172,0.285575,0.018819,0.215282,0.182000,0.140102,-43.280296,7.860422,11.081299,,,,,,,
1537042390.637922,-1.599842,-0.312446,2.682924,0.562446,-1.040620,2.198653,-0.951183,0.307387,0.027636,0.162685,0.170717,0.143080,-43.280296,7.860422,11.081299,,,,,,,
1537042390.647901,-1.607999,-0.332570,2.686477,0.342177,-0.898016,1.946448,-0.944552,0.326473,0.035156,0.143069,0.173389,0.070419,-42.362762,10.129345,11.886536,,,,,,,
1537042390.657880,-1.615940,-0.350998,2.687333,0.097138,-0.806256,1.819053,-0.938074,0.343835,0.042377,0.108194,0.186103,0.012250,-42.362762,10.129345,11.886536,,,,,,,
1537042390.667859,-1.624385,-0.369097,2.685943,-0.086418,-0.796733,1.826576,-0.931315,0.360773,0.049956,0.047343,0.153250,0.010194,-41.730019,11.789461,12.623505,,,,,,,
1537042390.677839,-1.633297,-0.387702,2.683231,-0.153198,-0.796230,1.895592,-0.923972,0.378062,0.057825,0.012107,0.096028,0.007254,-41.730019,11.789461,12.623505,,,,,,,
1537042390.687787,-1.642663,-0.407352,2.680220,-0.144896,-0.828016,2.026966,-0.915803,0.396180,0.065930,-0.016479,0.049713,0.031498,-40.936333,13.492311,13.309418,,,,,,,
1537042390.697767,-1.652288,-0.428714,2.677125,-0.108118,-0.839573,2.200107,-0.906483,0.415702,0.074035,-0.035351,-0.000678,0.040772,-40.936333,13.492311,13.309418,,,,,,,
1537042390.707746,-1.661690,-0.451726,2.674218,-0.053960,-0.803218,2.354080,-0.895981,0.436519,0.081664,-0.031601,-0.030941,0.038712,-39.716007,15.152487,14.052032,,,,,,,
1537042390.717725,-1.671098,-0.475645,2.671378,-0.020525,-0.827798,2.423672,-0.884529,0.457912,0.089019,-0.015343,-0.021160,0.040055,-39.716007,15.152487,14.052032,,,,,,,
1537042390.727704,-1.680770,-0.499864,2.668402,-0.007886,-0.822483,2.442951,-0.872346,0.479306,0.096323,-0.006423,0.006351,0.005895,-38.522408,17.099983,14.702515,,,,,,,
1537042390.737684,-1.690534,-0.523898,2.665207,-0.004447,-0.820422,2.417349,-0.859676,0.500259,0.103430,-0.019642,0.047135,-0.012457,-38.522408,17.099983,14.702515,,,,,,,
1537042390.747663,-1.700502,-0.547744,2.661292,-0.059807,-0.777425,2.417002,-0.846530,0.520763,0.110420,-0.037472,0.057972,-0.016868,-36.909782,18.825480,15.503601,,,,,,,
1537042390.757642,-1.710023,-0.571477,2.656668,-0.066947,-0.697340,2.404074,-0.832964,0.540875,0.116726,-0.078886,0.049823,-0.028942,-36.909782,18.825480,15.503601,,,,,,,
1537042390.767621,-1.719384,-0.594887,2.652095,-0.038808,-0.677284,2.366847,-0.819086,0.560416,0.122610,-0.092627,0.050226,-0.025930,-35.554390,20.625793,16.011627,,,,,,,
1537042390.777601,-1.728528,-0.617594,2.647963,0.029257,-0.670361,2.278613,-0.805153,0.579075,0.128062,-0.090477,0.024455,-0.017482,-35.554390,20.625793,16.011627,,,,,,,
1537042390.787580,-1.737087,-0.639527,2.644825,0.118656,-0.666759,2.188366,-0.791310,0.596816,0.132814,-0.067623,-0.005111,-0.000520,-33.997692,22.209648,16.463287,,,,,,,
1537042390.797528,-1.744293,-0.660557,2.642413,0.194685,-0.530727,2.082968,-0.777796,0.613557,0.136315,-0.040091,-0.034379,0.011665,-33.997692,22.209648,16.463287,,,,,,,
1537042390.807508,-1.747599,-0.680692,2.641847,0.343835,-0.218933,1.968186,-0.765023,0.629331,0.136686,-0.023902,-0.006406,0.044451,-32.708225,23.600634,16.747986,,,,,,,
1537042390.817487,-1.748196,-0.698773,2.642611,0.374513,-0.087316,1.688550,-0.753616,0.643279,0.135111,0.007965,-0.027587,0.051519,-32.708225,23.600634,16.747986,,,,,,,
1537042390.827466,-1.747333,-0.712141,2.645011,0.444935,-0.030197,1.127399,-0.745200,0.653456,0.132939,0.071112,-0.258528,-0.047139,-31.723513,24.631706,16.709930,,,,,,,
1537042390.837445,-1.741119,-0.719514,2.652623,0.792896,0.140564,0.470516,-0.741243,0.659019,0.127486,0.221040,-0.273598,-0.165205,-31.723513,24.631706,16.709930,,,,,,,
1537042390.847425,-1.730762,-0.722796,2.665932,1.094083,0.161648,0.096404,-0.740384,0.661484,0.119457,0.192838,-0.246903,-0.206676,-31.438007,25.604023,16.347046,,,,,,,
1537042390.857404,-1.720347,-0.726219,2.681113,1.196968,-0.028663,0.222052,-0.739345,0.664047,0.111402,-0.019231,-0.291428,-0.210217,-31.438007,25.604023,16.347046,,,,,,,
1537042390.867383,-1.712221,-0.732900,2.697505,1.348555,-0.361796,0.576548,-0.735817,0.669028,0.104762,-0.171272,-0.277518,-0.214107,-31.185633,26.449678,15.818817,,,,,,,
1537042390.877362,-1.703702,-0.742687,2.716766,1.617010,-0.451282,0.823628,-0.730158,0.676269,0.097617,-0.144293,-0.248581,-0.130088,-31.185633,26.449678,15.818817,,,,,,,
1537042390.887342,-1.691455,-0.751814,2.740800,1.930010,-0.298614,0.595689,-0.725140,0.682965,0.087922,0.042096,-0.135526,-0.033417,-30.737263,27.606936,15.057983,,,,,,,
1537042390.897290,-1.675369,-0.757967,2.763315,1.509525,0.152648,0.395446,-0.722268,0.687446,0.075806,0.234139,0.058297,0.032516,-30.737263,27.606936,15.057983,,,,,,,
1537042390.907270,-1.665244,-0.761936,2.775693,0.861048,0.152547,0.256322,-0.720276,0.690323,0.068232,0.117783,0.129882,-0.213923,-30.464228,28.482246,14.582306,,,,,,,
1537042390.917249,-1.654658,-0.763362,2.788074,0.894547,0.220140,0.000247,-0.719976,0.691354,0.060520,0.118749,0.244208,-0.024021,-30.464228,28.482246,14.582306,,,,,,,
1537042390.927228,-1.644012,-0.762703,2.799193,0.760900,0.343265,-0.163931,-0.721034,0.690878,0.052885,0.142161,0.262247,0.058702,-30.427361,28.807295,13.764740,,,,,,,
1537042390.937207,-1.633189,-0.762109,2.808966,0.673598,0.417650,-0.047065,-0.721973,0.690449,0.045104,0.116535,0.158062,0.000184,-30.427361,28.807295,13.764740,,,,,,,
1537042390.947187,-1.624470,-0.765506,2.817013,0.572721,0.285788,0.439273,-0.719993,0.692902,0.038682,-0.051506,0.013519,-0.029679,-30.455269,29.186806,13.349670,,,,,,,
1537042390.957166,-1.617103,-0.774753,2.825450,0.680835,0.118924,1.044214,-0.713828,0.699539,0.033078,-0.255105,-0.152283,-0.092527,-30.455269,29.186806,13.349670,,,,,,,
1537042390.967145,-1.609607,-0.787396,2.836143,0.863158,-0.017181,1.248168,-0.705161,0.708518,0.027381,-0.328119,-0.280998,-0.087104,-29.845285,30.106644,12.910187,,,,,,,
1537042390.977124,-1.599368,-0.798416,2.850133,1.066324,0.044169,0.986627,-0.697557,0.716251,0.019936,-0.213347,-0.259632,-0.057564,-29.845285,30.106644,12.910187,,,,,,,
1537042390.987104,-1.586629,-0.805234,2.866390,1.166705,0.114186,0.535575,-0.692856,0.720993,0.010971,-0.161591,-0.178085,-0.021011,-29.260384,30.786861,12.197937,,,,,,,
1537042390.997052,-1.572475,-0.807062,2.883932,1.237411,0.158672,0.056631,-0.691622,0.722258,0.001161,-0.168440,-0.081801,-0.018510,-29.260384,30.786861,12.197937,,,,,,,
1537042391.007032,-1.557184,-0.802684,2.901900,1.242162,0.274530,-0.654383,-0.694714,0.719224,-0.009457,-0.145435,0.037536,0.031537,-29.543415,31.341455,11.348389,,,,,,,
1537042391.017011,-1.541948,-0.789200,2.919342,1.270495,0.267117,-1.530596,-0.704120,0.709790,-0.020318,0.090244,0.203113,0.093057,-29.543415,31.341455,11.348389,,,,,,,
1537042391.026990,-1.525684,-0.769478,2.932768,0.944560,0.772772,-2.017519,-0.717543,0.695761,-0.032392,0.150694,0.343866,0.144850,-29.543415,31.341455,11.348389,,,,,,,
1537042391.036969,-1.511599,-0.748765,2.941531,0.719347,0.818855,-1.992118,-0.731247,0.680735,-0.043339,-0.088883,0.143759,0.040455,-30.868711,30.860271,10.310516,,,,,,,
,,,,,,,,,,,,,,,,42.293077,-71.262774,50.225708,0.000000,-1.000000,1537042390.997261,
1537042391.046949,-1.499618,-0.730532,2.949123,0.666101,0.651069,-1.706164,-0.742933,0.667266,-0.052970,-0.270876,0.010850,0.021796,-30.868711,30.860271,10.310516,,,,,,,
1537042391.056928,-1.489955,-0.714582,2.954324,0.423660,0.709276,-1.548500,-0.752900,0.655302,-0.060998,-0.250228,0.005892,0.007836,-32.530853,30.241549,9.525330,,,,,,,
1537042391.066907,-1.481639,-0.700143,2.955761,0.125143,0.716388,-1.455141,-0.761713,0.644327,-0.068093,-0.112143,0.062079,0.027779,-32.530853,30.241549,9.525330,,,,,,,
1537042391.076886,-1.475085,-0.683817,2.954500,0.029046,0.768758,-1.660675,-0.771620,0.631756,-0.074079,0.048704,0.138996,-0.012453,-33.292946,29.235373,9.093536,,,,,,,
1537042391.086866,-1.469612,-0.665068,2.949439,-0.228030,0.897540,-1.974980,-0.782850,0.617113,-0.079484,0.133009,0.171050,0.042695,-33.292946,29.235373,9.093536,,,,,,,
1537042391.096845,-1.463458,-0.643831,2.942445,-0.374558,1.101687,-2.224703,-0.795199,0.600264,-0.085685,0.195544,0.143785,0.021445,-34.848045,27.998919,8.474426,,,,,,,
1537042391.106794,-1.455930,-0.622014,2.933830,-0.468591,1.325251,-2.258536,-0.807351,0.582673,-0.093148,0.195108,0.045302,-0.009376,-34.848045,27.998919,8.474426,,,,,,,
1537042391.116773,-1.446586,-0.601186,2.925455,-0.430275,1.441782,-2.097260,-0.818312,0.565621,-0.102169,0.120589,-0.072457,-0.024067,-36.520279,26.070297,7.826630,,,,,,,
1537042391.126752,-1.437057,-0.583494,2.918158,-0.344288,1.333221,-1.735880,-0.827091,0.550943,-0.111279,0.025546,-0.125406,-0.055347,-36.520279,26.070297,7.826630,,,,,,,
1537042391.136731,-1.428039,-0.569853,2.912933,-0.229166,1.154169,-1.315558,-0.833415,0.539508,-0.119791,-0.050511,-0.143558,-0.048102,-37.696674,24.560497,7.134338,,,,,,,
1537042391.146711,-1.419518,-0.559481,2.909038,-0.159830,1.040254,-1.001232,-0.837851,0.530747,-0.127724,-0.055826,-0.092530,-0.003349,-37.696674,24.560497,7.134338,,,,,,,
1537042391.156690,-1.410777,-0.551272,2.905508,-0.199683,1.092086,-0.830709,-0.840976,0.523771,-0.135733,0.010379,0.014162,0.005468,-38.565430,23.842613,6.460815,,,,,,,
1537042391.166669,-1.401665,-0.543233,2.900751,-0.291599,1.198122,-0.897503,-0.843828,0.516906,-0.144094,0.099321,0.045792,0.017446,-38.565430,23.842613,6.460815,,,,,,,
1537042391.176648,-1.391835,-0.532853,2.894813,-0.347173,1.344049,-1.188306,-0.847605,0.507993,-0.153329,0.202066,0.110553,0.008523,-39.202446,22.943983,5.602386,,,,,,,
1537042391.186628,-1.380532,-0.518771,2.887589,-0.354223,1.553440,-1.633684,-0.852758,0.495813,-0.164236,0.242330,0.162344,0.009802,-39.202446,22.943983,5.602386,,,,,,,
1537042391.196607,-1.366435,-0.497519,2.879487,-0.249354,1.928985,-2.481044,-0.860482,0.477247,-0.178339,0.321893,0.236773,0.053538,-40.196167,21.434052,4.340820,,,,,,,
1537042391.206556,-1.345706,-0.463305,2.870430,0.004105,2.714552,-3.930048,-0.872014,0.446907,-0.199665,0.523503,0.447609,0.242604,-40.196167,21.434052,4.340820,,,,,,,
1537042391.216535,-1.323497,-0.416671,2.853880,-0.610766,2.956522,-5.093987,-0.886621,0.404718,-0.223843,0.608851,0.852453,0.300762,-42.206459,18.787746,2.754211,,,,,,,
1537042391.226514,-1.305018,-0.375719,2.826839,-1.633126,2.913517,-4.272277,-0.897582,0.366941,-0.244339,-0.096651,0.863024,-0.105271,-42.206459,18.787746,2.754211,,,,,,,
1537042391.236493,-1.294532,-0.351800,2.799214,-1.798244,1.596246,-2.611961,-0.903158,0.344588,-0.256058,-1.051722,0.188554,-0.185745,-43.822784,15.024286,0.970825,,,,,,,
1537042391.246473,-1.293765,-0.337178,2.780852,-1.203588,0.726981,-1.754924,-0.907710,0.330826,-0.258101,-0.989049,-0.350235,0.019774,-43.822784,15.024286,0.970825,,,,,,,
1537042391.256452,-1.291641,-0.322271,2.764205,-1.039871,0.627463,-1.951404,-0.911800,0.316722,-0.261358,-0.412617,-0.359584,0.051596,-44.397015,12.829220,0.495911,,,,,,,
1537042391.266431,-1.292926,-0.307650,2.753297,-0.410888,0.191531,-1.564295,-0.916491,0.302820,-0.261429,-0.069593,-0.622431,-0.286560,-44.397015,12.829220,0.495911,,,,,,,
1537042391.276410,-1.290705,-0.294301,2.749571,0.115134,0.384524,-1.395081,-0.919711,0.290071,-0.264558,-0.066724,-1.089601,-0.307158,-44.802708,11.196358,0.444519,,,,,,,
1537042391.286390,-1.284948,-0.277934,2.745708,0.044252,0.788651,-1.802578,-0.922604,0.274370,-0.271151,0.196408,-0.462465,-0.021345,-44.802708,11.196358,0.444519,,,,,,,
1537042391.296369,-1.279051,-0.257685,2.737547,-0.259196,0.851054,-2.311350,-0.926121,0.254843,-0.278127,0.244893,0.007746,-0.113428,-45.172264,9.686527,0.060394,,,,,,,
1537042391.306318,-1.273147,-0.233553,2.726363,-0.392675,0.918075,-2.741266,-0.930073,0.231435,-0.285311,0.200047,0.149531,-0.074918,-45.172264,9.686527,0.060394,,,,,,,
1537042391.316297,-1.268928,-0.208609,2.713522,-0.490897,0.665656,-2.693514,-0.934083,0.207099,-0.290859,0.212800,0.197366,-0.011738,-45.860001,7.000134,-0.713257,,,,,,,
1537042391.326276,-1.265833,-0.190273,2.703507,-0.329136,0.513083,-1.772325,-0.936643,0.189127,-0.294840,0.255216,-0.103494,-0.185873,-45.860001,7.000134,-0.713257,,,,,,,
1537042391.336234,-1.260742,-0.180254,2.695825,-0.481611,0.639313,-1.053825,-0.936888,0.179279,-0.300167,0.121382,-0.303379,-0.084446,-46.075752,5.481873,-1.063263,,,,,,,
1537042391.346214,-1.256559,-0.173645,2.686643,-0.724478,0.528825,-0.898130,-0.936730,0.172773,-0.304443,0.145257,-0.023252,-0.053132,-46.075752,5.481873,-1.063263,,,,,,,
1537042391.356193,-1.255841,-0.167300,2.674846,-0.965734,0.142313,-0.995138,-0.937535,0.166521,-0.305449,0.138417,0.191588,-0.130128,-46.200203,4.463379,-1.321655,,,,,,,
1537042391.366172,-1.259117,-0.160498,2.663291,-0.829092,-0.220348,-0.995089,-0.939587,0.159809,-0.302716,0.058911,0.176037,-0.132083,-46.200203,4.463379,-1.321655,,,,,,,
1537042391.376151,-1.266551,-0.153411,2.653961,-0.625987,-0.734893,-0.960359,-0.942868,0.152810,-0.296055,-0.062945,0.024558,-0.079693,-46.286148,3.660637,-1.096008,,,,,,,
1537042391.386131,-1.279401,-0.144685,2.647038,-0.314005,-1.306895,-1.061611,-0.947836,0.144181,-0.284287,-0.161982,-0.023560,-0.100631,-46.286148,3.660637,-1.096008,,,,,,,
1537042391.396110,-1.293575,-0.133777,2.641662,-0.212948,-1.303588,-1.258539,-0.953225,0.133378,-0.271239,-0.148459,0.015304,0.020644,-46.268806,2.413647,0.114258,,,,,,,
1537042391.406089,-1.306237,-0.121169,2.635259,-0.294317,-1.136935,-1.409665,-0.958130,0.120873,-0.259567,0.001710,0.107765,-0.010758,-46.268806,2.413647,0.114258,,,,,,,
1537042391.416038,-1.317615,-0.108223,2.627293,-0.510963,-1.016379,-1.483562,-0.962456,0.108012,-0.249019,0.032982,0.137898,-0.021717,-46.029129,1.070511,0.897705,,,,,,,
1537042391.426017,-1.328184,-0.095624,2.616148,-0.872331,-0.923744,-1.490975,-0.966278,0.095478,-0.239142,-0.022277,0.182476,-0.017801,-46.029129,1.070511,0.897705,,,,,,,
1537042391.435996,-1.338265,-0.085312,2.602156,-1.193211,-0.886354,-1.277149,-0.969547,0.085208,-0.229603,-0.059201,0.149396,-0.061535,-45.962868,-0.379892,1.691925,,,,,,,
1537042391.445976,-1.346460,-0.078242,2.586885,-1.323761,-0.606223,-0.921621,-0.971959,0.078162,-0.221779,-0.021602,0.069039,-0.045692,-45.962868,-0.379892,1.691925,,,,,,,
1537042391.455955,-1.353433,-0.072710,2.571385,-1.423098,-0.678323,-0.930632,-0.973889,0.072646,-0.215086,0.019208,0.013475,0.053037,-46.041023,-1.508747,2.084015,,,,,,,
1537042391.465934,-1.361125,-0.066182,2.552183,-1.834611,-0.657260,-1.074883,-0.975958,0.066133,-0.207683,0.028845,0.027632,-0.014546,-46.041023,-1.508747,2.084015,,,,,,,
1537042391.475913,-1.364070,-0.058970,2.526563,-2.550861,0.041084,-1.293010,-0.977006,0.058936,-0.204900,0.044725,0.044503,-0.099147,-45.556488,-2.657497,2.151825,,,,,,,
1537042391.485892,-1.362793,-0.051796,2.493569,-3.273517,0.335055,-1.399748,-0.977133,0.051773,-0.206230,0.084356,0.048340,-0.096779,-45.556488,-2.657497,2.151825,,,,,,,
1537042391.495872,-1.357502,-0.047168,2.455748,-3.668116,0.801018,-1.164343,-0.976251,0.047150,-0.211445,0.122461,0.011795,-0.045604,-45.539856,-4.265854,1.645538,,,,,,,
1537042391.505851,-1.351724,-0.046991,2.418611,-3.569180,0.773805,-0.679150,-0.975022,0.046974,-0.217084,0.117600,-0.042137,0.122769,-45.539856,-4.265854,1.645538,,,,,,,
1537042391.515800,-1.348399,-0.051596,2.385717,-3.233662,0.459340,-0.134724,-0.974073,0.051573,-0.220275,0.098692,-0.084608,0.169188,-45.539856,-4.265854,1.645538,,,,,,,
1537042391.525779,-1.347307,-0.060113,2.357170,-2.899045,0.194803,0.292226,-0.973368,0.060077,-0.221233,0.033915,-0.044406,0.182064,-45.676376,-4.992004,0.964050,,,,,,,
1537042391.535758,-1.348749,-0.070843,2.333002,-2.487376,-0.052285,0.584013,-0.973001,0.070784,-0.219675,0.021769,0.037996,0.151377,-45.676376,-4.992004,0.964050,,,,,,,
1537042391.545737,-1.352068,-0.082602,2.312917,-2.128737,-0.211818,0.751597,-0.972845,0.082508,-0.216248,0.061652,0.068066,0.117966,-45.818211,-4.735462,0.513458,,,,,,,
1537042391.555717,-1.354940,-0.094969,2.296537,-1.789388,-0.151394,0.879355,-0.972391,0.094827,-0.213218,0.036768,0.057593,0.050377,-45.818211,-4.735462,0.513458,,,,,,,
1537042391.565696,-1.358039,-0.107167,2.282286,-1.622066,-0.187486,0.888849,-0.971845,0.106962,-0.209944,-0.009341,0.060031,-0.010133,-45.745033,-4.653965,0.638428,,,,,,,
1537042391.575675,-1.364340,-0.118033,2.269137,-1.458460,-0.562366,0.737482,-0.971953,0.117759,-0.203566,-0.022447,0.090737,-0.131395,-45.745033,-4.653965,0.638428,,,,,,,
1537042391.585654,-1.374693,-0.125217,2.257076,-1.272480,-0.928246,0.362063,-0.973153,0.124890,-0.193324,-0.073554,0.167728,-0.246175,-45.793037,-3.859161,0.916138,,,,,,,
1537042391.595634,-1.384900,-0.127630,2.246819,-0.994108,-0.847370,-0.065607,-0.974777,0.127284,-0.183324,-0.121811,0.135350,-0.154276,-45.793037,-3.859161,0.916138,,,,,,,
1537042391.605613,-1.394438,-0.124288,2.238948,-0.648542,-0.805556,-0.617761,-0.976894,0.123968,-0.174092,-0.157047,0.089319,-0.044231,-45.574661,-3.810951,1.336639,,,,,,,
1537042391.615562,-1.403608,-0.114188,2.232332,-0.420658,-0.849837,-1.275085,-0.979635,0.113940,-0.165327,-0.139369,0.091092,0.005369,-45.574661,-3.810951,1.336639,,,,,,,
1537042391.625541,-1.411240,-0.100074,2.225698,-0.413777,-0.777845,-1.536646,-0.982358,0.099907,-0.158085,-0.111865,0.069771,0.059528,-45.341583,-4.811985,1.912933,,,,,,,
1537042391.635520,-1.420929,-0.086388,2.219927,-0.343963,-0.888931,-1.390973,-0.985103,0.086281,-0.148751,-0.059880,-0.065270,0.016442,-45.341583,-4.811985,1.912933,,,,,,,
1537042391.645499,-1.429103,-0.074527,2.214472,-0.409062,-0.709913,-1.220720,-0.987230,0.074458,-0.140828,-0.074812,-0.101542,0.074177,-44.655781,-5.974094,2.462555,,,,,,,
1537042391.655479,-1.436228,-0.063158,2.205399,-0.866972,-0.637195,-1.291625,-0.988983,0.063116,-0.133895,-0.018844,-0.040091,0.079528,-44.655781,-5.974094,2.462555,,,,,,,
1537042391.665458,-1.440551,-0.051070,2.193503,-1.049870,-0.322532,-1.380478,-0.990237,0.051048,-0.129708,0.022769,0.041253,-0.064628,-44.323822,-7.233185,2.764343,,,,,,,
1537042391.675437,-1.444792,-0.038200,2.181419,-1.024839,-0.349491,-1.442225,-0.991348,0.038190,-0.125580,-0.035965,-0.029951,0.007339,-44.323822,-7.233185,2.764343,,,,,,,
1537042391.685416,-1.447277,-0.025281,2.171266,-0.763487,-0.214103,-1.397163,-0.992064,0.025278,-0.123166,-0.061800,-0.115931,-0.048053,-44.020584,-8.660088,2.761444,,,,,,,
1537042391.695396,-1.449705,-0.012196,2.163680,-0.560706,-0.199160,-1.400334,-0.992603,0.012195,-0.120786,-0.024532,-0.212681,-0.037127,-44.020584,-8.660088,2.761444,,,,,,,
1537042391.705375,-1.449386,0.000957,2.157511,-0.425662,0.111950,-1.374290,-0.992638,-0.000957,-0.121112,0.062996,-0.097080,-0.068677,-43.535950,-10.055206,2.895142,,,,,,,
1537042391.715354,-1.447453,0.013194,2.151212,-0.493590,0.212907,-1.265887,-0.992316,-0.013194,-0.123020,0.114814,-0.006322,0.004917,-43.535950,-10.055206,2.895142,,,,,,,
1537042391.725303,-1.441835,0.024573,2.144732,-0.534420,0.708662,-1.203633,-0.991396,-0.024570,-0.128565,0.172900,0.122043,-0.007955,-43.335415,-11.300610,2.397522,,,,,,,
1537042391.735282,-1.430610,0.034570,2.134797,-0.970337,1.189475,-1.111508,-0.989598,-0.034563,-0.139644,0.139622,0.302828,0.174007,-43.335415,-11.300610,2.397522,,,,,,,
1537042391.745261,-1.416050,0.043258,2.121488,-1.249936,1.445233,-1.028972,-0.987126,-0.043245,-0.153985,0.158818,0.284944,-0.023825,-43.120232,-12.463940,1.321136,,,,,,,
1537042391.755241,-1.399350,0.049605,2.106888,-1.362614,1.603283,-0.797045,-0.984127,-0.049585,-0.170398,0.097149,0.181863,0.008975,-43.120232,-12.463940,1.321136,,,,,,,
1537042391.765220,-1.382810,0.053740,2.091536,-1.465283,1.623365,-0.649253,-0.980964,-0.053714,-0.186612,0.005393,0.127429,0.020916,-42.957527,-13.152603,-0.188354,,,,,,,
1537042391.775199,-1.365111,0.055571,2.074681,-1.676926,1.703883,-0.467961,-0.977410,-0.055542,-0.203922,-0.046363,0.122223,0.051457,-42.957527,-13.152603,-0.188354,,,,,,,
1537042391.785178,-1.345246,0.055255,2.054102,-2.168942,1.909499,-0.389742,-0.973184,-0.055226,-0.223302,-0.008475,0.146627,0.067479,-42.761337,-13.557201,-1.975891,,,,,,,
1537042391.795158,-1.323235,0.051598,2.029397,-2.570679,2.118200,-0.149847,-0.968223,-0.051575,-0.244714,0.069480,0.209351,0.006463,-42.761337,-13.557201,-1.975891,,,,,,,
1537042391.805137,-1.323099,0.044713,2.010651,-1.775693,-0.619321,0.297077,-0.968511,-0.044698,-0.244928,0.025868,-0.005610,-0.248908,-42.868671,-13.633049,-3.452850,,,,,,,
1537042391.815116,-1.330850,0.038780,1.994443,-1.766398,-0.980662,0.107488,-0.970621,-0.038770,-0.237472,0.044351,-0.360628,-0.438859,-42.868671,-13.633049,-3.452850,,,,,,,
1537042391.825065,-1.342089,0.035540,1.975144,-2.032958,-1.147545,-0.191624,-0.973345,-0.035533,-0.226576,0.071383,-0.011678,-0.187898,-42.770096,-13.547630,-3.571716,,,,,,,
1537042391.835044,-1.350046,0.033129,1.953816,-2.153203,-0.864123,-0.257686,-0.975198,-0.033122,-0.218842,-0.044089,0.208782,-0.136657,-42.770096,-13.547630,-3.571716,,,,,,,
1537042391.845023,-1.359549,0.031685,1.933461,-1.970876,-1.065908,-0.304516,-0.977280,-0.031680,-0.209574,-0.031815,-0.035642,-0.006643,-42.845894,-13.847996,-3.040131,,,,,,,
1537042391.855003,-1.368848,0.030825,1.918728,-1.314005,-0.942135,-0.227386,-0.979212,-0.030820,-0.200483,-0.035726,-0.167026,-0.032457,-42.845894,-13.847996,-3.040131,,,,,,,
1537042391.864982,-1.372326,0.030701,1.907848,-0.985979,-0.222007,-0.181483,-0.979907,-0.030696,-0.197077,-0.018918,-0.103063,-0.038549,-42.752438,-14.216831,-3.084839,,,,,,,
1537042391.874961,-1.373880,0.031477,1.898070,-0.956931,-0.197903,-0.317978,-0.980189,-0.031472,-0.195549,-0.073293,-0.190376,0.095863,-42.752438,-14.216831,-3.084839,,,,,,,
1537042391.884940,-1.374642,0.032374,1.886003,-1.275820,-0.111855,-0.305938,-0.980309,-0.032369,-0.194797,-0.014945,0.150685,-0.089352,-42.484451,-14.322960,-3.203979,,,,,,,
1537042391.894920,-1.380324,0.031676,1.868872,-1.868382,-0.896590,-0.261428,-0.981422,-0.031671,-0.189228,0.099876,0.402017,-0.186993,-42.484451,-14.322960,-3.203979,,,,,,,
1537042391.904899,-1.397849,0.029184,1.843741,-2.655879,-2.258929,-0.191782,-0.984662,-0.029179,-0.172014,0.237943,0.481541,-0.436278,-42.294014,-14.600716,-2.810059,,,,,,,
1537042391.914878,-1.428766,0.024274,1.814272,-2.990423,-3.219437,0.163887,-0.989639,-0.024272,-0.141512,0.367416,0.569926,-0.536619,-42.294014,-14.600716,-2.810059,,,,,,,
1537042391.924827,-1.454215,0.014425,1.785485,-2.994338,-2.475150,0.692567,-0.993109,-0.014425,-0.116305,0.288626,0.087835,-0.119489,-42.209274,-14.234783,-1.587677,,,,,,,
1537042391.934806,-1.483365,0.005768,1.755371,-3.068339,-3.162950,0.417452,-0.996164,-0.005768,-0.087319,-0.078162,-0.098694,0.117852,-42.209274,-14.234783,-1.587677,,,,,,,
1537042391.944785,-1.514914,-0.001373,1.729174,-2.437670,-3.414462,0.677355,-0.998438,0.001373,-0.055853,-0.440298,0.629867,0.147162,-42.048615,-14.001507,0.045105,,,,,,,
1537042391.954765,-1.550418,-0.013928,1.711088,-1.654781,-3.297596,1.314532,-0.999695,0.013927,-0.020375,-0.222473,-0.451107,0.151860,-42.048615,-14.001507,0.045105,,,,,,,
1537042391.964744,-1.565990,-0.025860,1.702338,-0.617578,-0.945077,1.071258,-0.999654,0.025857,-0.004805,0.046804,-1.187997,0.249861,-42.295868,-13.119396,1.371857,,,,,,,
1537042391.974723,-1.560774,-0.031998,1.700805,-0.036315,0.885913,0.481225,-0.999438,0.031993,-0.010017,0.123889,-0.607005,0.340370,-42.295868,-13.119396,1.371857,,,,,,,
1537042391.984702,-1.545906,-0.035571,1.702871,0.273903,1.658153,0.391412,-0.999058,0.035563,-0.024872,-0.004391,-0.441645,0.181442,-42.346992,-12.747910,0.669800,,,,,,,
1537042391.994682,-1.528560,-0.038587,1.708164,0.609196,1.658207,0.245943,-0.998364,0.038578,-0.042192,-0.181842,-0.480014,0.201250,-42.346992,-12.747910,0.669800,,,,,,,
1537042392.004661,-1.512963,-0.039773,1.715370,0.722840,1.515385,0.144236,-0.997539,0.039763,-0.057756,-0.100514,-0.169096,0.078264,-42.346992,-12.747910,0.669800,,,,,,,
1537042392.014640,-1.498717,-0.040653,1.722224,0.644689,1.328892,0.117310,-0.996579,0.040641,-0.071958,-0.024661,0.003701,-0.014758,-42.489582,-12.478493,-0.357208,,,,,,,
1537042392.024589,-1.489310,-0.040986,1.727765,0.522178,0.800901,0.056328,-0.995845,0.040975,-0.081328,0.020305,0.018046,-0.079454,-42.489582,-12.478493,-0.357208,,,,,,,
1537042392.034568,-1.481625,-0.041584,1.731755,0.344361,0.634269,0.083275,-0.995166,0.041572,-0.088976,0.002902,0.090615,-0.087233,-42.608971,-12.064426,-1.110809,,,,,,,
1537042392.044547,-1.483958,-0.039522,1.733492,0.130665,-0.671409,-0.385186,-0.995454,0.039512,-0.086662,-0.003356,0.044915,-0.088280,-42.608971,-12.064426,-1.110809,,,,,,,
,,,,,,,,,,,,,,,,42.293077,-71.262774,49.923889,0.000000,-1.000000,1537042391.997224,
1537042392.054527,-1.498472,-0.034163,1.732199,-0.179948,-1.561581,-0.518353,-0.996804,0.034157,-0.072219,0.120293,0.258202,-0.259873,-42.472733,-12.353119,-1.051819,,,,,,,
1537042392.064506,-1.512372,-0.032444,1.728592,-0.382816,-1.248820,-0.062913,-0.997768,0.032438,-0.058361,0.130794,0.050677,-0.072163,-42.472733,-12.353119,-1.051819,,,,,,,
1537042392.074485,-1.528377,-0.032017,1.724598,-0.415616,-1.760208,-0.127691,-0.998588,0.032012,-0.042385,0.094856,-0.056456,0.022167,-42.430561,-12.600521,-0.068878,,,,,,,
1537042392.084464,-1.547212,-0.030099,1.719714,-0.491193,-1.805792,-0.160083,-0.999269,0.030094,-0.023571,0.038743,-0.040882,-0.030445,-42.430561,-12.600521,-0.068878,,,,,,,
1537042392.094444,-1.563294,-0.029233,1.714599,-0.509138,-1.608094,-0.121954,-0.999544,0.029229,-0.007499,-0.068601,0.139686,0.087821,-42.280861,-12.607750,1.205658,,,,,,,
1537042392.104423,-1.577005,-0.027308,1.708689,-0.628963,-1.264945,-0.215828,-0.999608,0.027305,0.006206,-0.062221,0.278192,0.051655,-42.280861,-12.607750,1.205658,,,,,,,
1537042392.114402,-1.588997,-0.023142,1.698251,-1.301279,-1.075176,-0.491906,-0.999566,0.023140,0.018195,0.024377,0.656563,-0.006400,-42.007828,-12.786263,2.088013,,,,,,,
1537042392.124381,-1.577684,-0.013053,1.666109,-4.161261,2.482129,-1.105770,-0.999891,0.013052,0.006887,0.177885,1.017755,0.175822,-42.007828,-12.786263,2.088013,,,,,,,
1537042392.134330,-1.522599,-0.000479,1.608747,-5.908871,6.150403,-1.521507,-0.998838,0.000479,-0.048179,0.289854,1.295038,1.255714,-41.703041,-14.243965,-0.206573,,,,,,,
1537042392.144309,-1.463361,0.031186,1.552042,-4.884223,5.107033,-4.529311,-0.993751,-0.031181,-0.107176,0.434715,1.154930,1.024077,-41.703041,-14.243965,-0.206573,,,,,,,
1537042392.154288,-1.453076,0.077523,1.525695,-1.164640,-0.490218,-4.598237,-0.990096,-0.077445,-0.117096,0.615707,0.430473,-0.772064,-40.797920,-17.127090,-4.636200,,,,,,,
1537042392.164268,-1.481497,0.105037,1.526000,0.586989,-3.287118,-2.162679,-0.990526,-0.104844,-0.088689,0.518602,-0.982040,-1.568522,-40.797920,-17.127090,-4.636200,,,,,,,
1537042392.174247,-1.509959,0.119514,1.529332,0.296823,-2.414680,-1.332541,-0.991030,-0.119230,-0.060366,0.152056,-1.144915,-0.953534,-39.520638,-19.094288,-3.325256,,,,,,,
1537042392.184226,-1.514763,0.134589,1.527744,-0.170326,0.174121,-1.623802,-0.989401,-0.134183,-0.055497,-0.279154,-0.516238,-0.176909,-39.520638,-19.094288,-3.325256,,,,,,,
1537042392.194205,-1.501183,0.148657,1.506698,-2.482909,0.940680,-1.338380,-0.986575,-0.148110,-0.068790,-0.521420,1.056038,0.297504,-38.926987,-20.050003,-3.434448,,,,,,,
1537042392.204185,-1.498243,0.146267,1.482447,-2.173146,-0.474501,0.629931,-0.986719,-0.145747,-0.071716,-0.257528,1.675272,0.197021,-38.926987,-20.050003,-3.434448,,,,,,,
1537042392.214164,-1.504862,0.130014,1.478254,0.078017,-0.601302,1.754694,-0.989406,-0.129648,-0.065330,0.446406,-0.009619,0.056602,-39.377407,-19.888100,-3.907288,,,,,,,
1537042392.224143,-1.501800,0.117592,1.495209,2.004427,0.952378,1.110409,-0.990731,-0.117321,-0.068465,0.684823,-0.620930,0.218199,-39.377407,-19.888100,-3.907288,,,,,,,
1537042392.234092,-1.483472,0.117656,1.518046,2.217451,2.411209,-0.150560,-0.989303,-0.117385,-0.086610,0.543609,-0.494065,0.257784,-40.072567,-19.025059,-3.845978,,,,,,,
1537042392.244071,-1.459393,0.124778,1.532690,1.264179,2.519771,-0.641591,-0.986075,-0.124454,-0.110309,0.029211,-0.549847,0.040439,-40.072567,-19.025059,-3.845978,,,,,,,
1537042392.254050,-1.444734,0.132929,1.541366,0.922485,1.197610,-0.657070,-0.983313,-0.132537,-0.124619,-0.937677,-0.742630,-0.245055,-40.037655,-19.152534,-4.846191,,,,,,,
1537042392.264030,-1.443543,0.136458,1.550569,0.958624,-0.010983,-0.076022,-0.982693,-0.136035,-0.125731,-0.964908,-0.542935,-0.264742,-40.037655,-19.152534,-4.846191,,,,,,,
1537042392.274009,-1.447966,0.135350,1.559642,0.840233,-0.359782,0.278077,-0.983389,-0.134938,-0.121401,-0.426706,-0.285320,-0.115324,-39.666988,-19.224380,-4.797516,,,,,,,
1537042392.283988,-1.451860,0.133737,1.567183,0.692698,-0.251284,0.226987,-0.984069,-0.133339,-0.117596,0.033156,-0.219414,0.038037,-39.666988,-19.224380,-4.797516,,,,,,,
1537042392.293967,-1.453835,0.132329,1.573703,0.604651,-0.072520,0.226321,-0.984485,-0.131943,-0.115674,0.231433,-0.292587,0.143308,-39.820572,-18.901653,-4.346436,,,,,,,
1537042392.303947,-1.454506,0.129755,1.579292,0.485304,0.011659,0.350473,-0.984896,-0.129391,-0.115053,0.210680,-0.378375,0.131335,-39.820572,-18.901653,-4.346436,,,,,,,
1537042392.313926,-1.455267,0.126124,1.583186,0.282866,-0.028760,0.421992,-0.985443,-0.125789,-0.114357,0.121506,-0.341664,0.046516,-40.108784,-18.791088,-4.354828,,,,,,,
1537042392.323905,-1.455593,0.121037,1.584131,-0.023385,-0.000177,0.550512,-0.986103,-0.120742,-0.114108,0.063862,-0.217866,0.013797,-40.108784,-18.791088,-4.354828,,,,,,,
1537042392.333854,-1.454403,0.114703,1.584408,-0.038874,0.166709,0.662337,-0.986707,-0.114451,-0.115367,0.037274,-0.147710,0.095088,-40.484604,-18.468414,-4.084625,,,,,,,
1537042392.343811,-1.452002,0.107581,1.585417,0.035417,0.272182,0.736291,-0.987211,-0.107373,-0.117830,-0.001345,-0.083957,0.103456,-40.484604,-18.468414,-4.084625,,,,,,,
1537042392.353790,-1.449778,0.100330,1.587480,0.151533,0.229948,0.743376,-0.987694,-0.100162,-0.120116,-0.039986,-0.037564,0.027480,-40.791321,-17.675373,-4.438751,,,,,,,
1537042392.363770,-1.448860,0.093824,1.590598,0.239456,0.070194,0.649017,-0.988209,-0.093687,-0.121100,-0.058483,0.015150,-0.042566,-40.791321,-17.675373,-4.438751,,,,,,,
1537042392.373749,-1.449778,0.088774,1.593296,0.179556,-0.111338,0.494095,-0.988777,-0.088657,-0.120248,-0.080147,0.048694,-0.087867,-40.854271,-17.213505,-4.341217,,,,,,,
1537042392.383728,-1.449524,0.085761,1.593025,-0.186650,0.120654,0.243134,-0.989007,-0.085656,-0.120531,-0.135291,0.122827,-0.056334,-40.854271,-17.213505,-4.341217,,,,,,,
1537042392.393707,-1.448633,0.085736,1.589177,-0.466389,-0.045504,-0.243926,-0.988901,-0.085631,-0.121412,-0.183432,0.327666,-0.003833,-40.844177,-17.038216,-4.347351,,,,,,,
1537042392.403687,-1.449132,0.089177,1.583425,-0.480199,-0.005101,-0.353990,-0.988663,-0.089059,-0.120883,-0.249527,0.247476,0.051470,-40.844177,-17.038216,-4.347351,,,,,,,
1537042392.413666,-1.445838,0.091117,1.583119,0.176018,0.388049,-0.130888,-0.988086,-0.090991,-0.124116,-0.184048,-0.185026,0.153154,-40.920055,-17.352959,-4.534454,,,,,,,
1537042392.423645,-1.444369,0.091176,1.586556,0.289549,0.097512,0.082452,-0.987898,-0.091050,-0.125566,-0.034090,-0.124603,-0.008589,-40.920055,-17.352959,-4.534454,,,,,,,
1537042392.433594,-1.444503,0.089538,1.587810,0.053346,-0.004523,0.213621,-0.988061,-0.089418,-0.125453,0.095254,-0.092726,-0.109883,-40.788483,-17.163837,-4.586121,,,,,,,
1537042392.443573,-1.445690,0.086992,1.589595,0.205914,-0.147164,0.287189,-0.988432,-0.086882,-0.124308,0.124907,-0.101060,0.020823,-40.788483,-17.163837,-4.586121,,,,,,,
1537042392.453552,-1.448678,0.084184,1.591902,0.148669,-0.309090,0.314793,-0.989037,-0.084085,-0.121384,0.115502,-0.059424,-0.069748,-40.922958,-17.088032,-4.252502,,,,,,,
1537042392.463532,-1.452275,0.080848,1.592887,0.063846,-0.369414,0.354952,-0.989740,-0.080760,-0.117858,0.094294,-0.034917,-0.069947,-40.922958,-17.088032,-4.252502,,,,,,,
1537042392.473511,-1.456783,0.077478,1.594960,0.186283,-0.457603,0.356780,-0.990527,-0.077400,-0.113425,0.078707,-0.025886,-0.031686,-41.064316,-16.691593,-3.915619,,,,,,,
1537042392.483490,-1.462037,0.074135,1.596754,0.124216,-0.529882,0.355446,-0.991360,-0.074067,-0.108247,0.064618,0.006578,-0.079299,-41.064316,-16.691593,-3.915619,,,,,,,
1537042392.493469,-1.467657,0.070643,1.598476,0.141159,-0.545961,0.366227,-0.992204,-0.070584,-0.102699,0.036257,0.016507,-0.049766,-41.064316,-16.691593,-3.915619,,,,,,,
1537042392.503449,-1.472752,0.067316,1.600215,0.137258,-0.484063,0.344794,-0.992943,-0.067265,-0.097666,0.013558,0.026631,-0.031103,-41.114090,-16.338810,-3.464081,,,,,,,
1537042392.513428,-1.477562,0.064102,1.601851,0.128872,-0.465897,0.331923,-0.993612,-0.064058,-0.092908,-0.014323,0.035188,-0.030414,-41.114090,-16.338810,-3.464081,,,,,,,
1537042392.523407,-1.481754,0.061057,1.603475,0.137769,-0.391244,0.314817,-0.994182,-0.061019,-0.088759,-0.030156,0.035765,-0.033921,-41.286430,-16.012253,-2.965363,,,,,,,
1537042392.533386,-1.485463,0.058107,1.605272,0.155014,-0.348644,0.307398,-0.994679,-0.058075,-0.085086,-0.035762,0.038421,-0.031918,-41.286430,-16.012253,-2.965363,,,,,,,
1537042392.543335,-1.488687,0.055288,1.607052,0.155241,-0.301691,0.296678,-0.995108,-0.055260,-0.081891,-0.034509,0.041039,-0.044390,-41.468704,-15.848484,-2.617401,,,,,,,
1537042392.553314,-1.491500,0.052454,1.608796,0.147900,-0.262151,0.295528,-0.995486,-0.052430,-0.079105,-0.034756,0.041230,-0.047757,-41.468704,-15.848484,-2.617401,,,,,,,
1537042392.563294,-1.493766,0.049733,1.610377,0.130000,-0.222583,0.281513,-0.995802,-0.049712,-0.076859,-0.031725,0.038177,-0.059463,-41.659813,-15.421978,-2.393921,,,,,,,
1537042392.573273,-1.495787,0.047019,1.611717,0.106597,-0.202177,0.280296,-0.996086,-0.047002,-0.074857,-0.025734,0.030980,-0.066730,-41.659813,-15.421978,-2.393921,,,,,,,
1537042392.583252,-1.497704,0.044385,1.612829,0.084331,-0.191409,0.268421,-0.996348,-0.044370,-0.072956,-0.014028,0.021360,-0.075085,-41.636894,-15.242508,-2.206146,,,,,,,
1537042392.593231,-1.499690,0.041764,1.613662,0.058705,-0.206230,0.265095,-0.996603,-0.041752,-0.070985,0.000082,0.010197,-0.082686,-41.636894,-15.242508,-2.206146,,,,,,,
1537042392.603211,-1.501840,0.039214,1.614197,0.025659,-0.228499,0.255329,-0.996856,-0.039204,-0.068849,0.013260,-0.000683,-0.092253,-42.026016,-14.821960,-2.033936,,,,,,,
1537042392.613190,-1.504298,0.036691,1.614365,-0.007431,-0.260369,0.248773,-0.997118,-0.036683,-0.066405,0.019335,-0.005752,-0.095842,-42.026016,-14.821960,-2.033936,,,,,,,
1537042392.623169,-1.507016,0.034205,1.614233,-0.036253,-0.287992,0.242238,-0.997383,-0.034198,-0.063700,0.017616,-0.005566,-0.094518,-42.034538,-14.665089,-2.141479,,,,,,,
1537042392.633148,-1.510008,0.031774,1.613857,-0.057606,-0.314586,0.235744,-0.997649,-0.031769,-0.060720,0.007567,-0.005554,-0.087657,-42.034538,-14.665089,-2.141479,,,,,,,
1537042392.643097,-1.513173,0.029445,1.613256,-0.079970,-0.335846,0.224968,-0.997907,-0.029441,-0.057566,-0.003558,-0.004083,-0.077047,-41.943115,-14.522976,-1.873383,,,,,,,
1537042392.653076,-1.516459,0.027212,1.612504,-0.089488,-0.339023,0.214245,-0.998154,-0.027209,-0.054290,-0.011764,0.003985,-0.056961,-41.943115,-14.522976,-1.873383,,,,,,,
1537042392.663056,-1.519551,0.025098,1.611690,-0.095739,-0.316590,0.204581,-0.998373,-0.025096,-0.051206,-0.015070,0.019648,-0.036730,-41.981499,-14.320435,-1.604767,,,,,,,
1537042392.673035,-1.522318,0.023088,1.610784,-0.101933,-0.281347,0.193835,-0.998559,-0.023086,-0.048447,-0.015968,0.035843,-0.026230,-41.981499,-14.320435,-1.604767,,,,,,,
1537042392.683014,-1.524689,0.021251,1.609787,-0.109126,-0.241845,0.175609,-0.998711,-0.021249,-0.046080,-0.012290,0.056558,-0.026841,-42.168701,-14.166306,-1.474365,,,,,,,
1537042392.692993,-1.526588,0.019655,1.608780,-0.107712,-0.194932,0.149954,-0.998830,-0.019653,-0.044186,-0.005412,0.077133,-0.030582,-42.168701,-14.166306,-1.474365,,,,,,,
1537042392.702973,-1.528043,0.018336,1.607740,-0.108393,-0.151217,0.121084,-0.998918,-0.018335,-0.042733,0.004838,0.092417,-0.038215,-42.199249,-13.954807,-1.500427,,,,,,,
1537042392.712952,-1.529112,0.017397,1.606677,-0.110014,-0.113930,0.079403,-0.998980,-0.017396,-0.041666,0.018465,0.102250,-0.045538,-42.199249,-13.954807,-1.500427,,,,,,,
1537042392.722931,-1.529844,0.016946,1.605576,-0.112662,-0.077723,0.030249,-0.999018,-0.016945,-0.040935,0.035471,0.106972,-0.049352,-42.362705,-13.937511,-1.540802,,,,,,,
1537042392.732910,-1.530179,0.017027,1.604381,-0.120553,-0.035101,-0.027479,-0.999030,-0.017027,-0.040600,0.052313,0.109098,-0.052662,-42.362705,-13.937511,-1.540802,,,,,,,
1537042392.742859,-1.530407,0.017650,1.603325,-0.091236,-0.032172,-0.081761,-0.999028,-0.017650,-0.040372,0.067219,0.109706,-0.055240,-42.368271,-13.813110,-1.757599,,,,,,,
1537042392.752838,-1.530879,0.018787,1.602613,-0.059936,-0.060201,-0.129595,-0.999026,-0.018786,-0.039899,0.071551,0.097293,-0.047381,-42.368271,-13.813110,-1.757599,,,,,,,
1537042392.762818,-1.531766,0.020223,1.601957,-0.059815,-0.106170,-0.156234,-0.999033,-0.020222,-0.039012,0.062952,0.073872,-0.032429,-42.368595,-13.902809,-1.622498,,,,,,,
1537042392.772797,-1.533081,0.021715,1.601272,-0.060974,-0.145673,-0.158335,-0.999052,-0.021713,-0.037698,0.046186,0.065750,-0.008460,-42.368595,-13.902809,-1.622498,,,,,,,
1537042392.782776,-1.534524,0.023184,1.600771,-0.033277,-0.150082,-0.154976,-0.999072,-0.023182,-0.036255,0.024249,0.070728,0.019638,-42.245934,-14.032883,-1.528564,,,,,,,
1537042392.792755,-1.535932,0.024459,1.600770,0.017712,-0.147087,-0.128016,-0.999092,-0.024457,-0.034847,-0.003273,0.070675,0.041515,-42.245934,-14.032883,-1.528564,,,,,,,
1537042392.802735,-1.537455,0.025342,1.601236,0.063150,-0.166452,-0.086117,-0.999122,-0.025339,-0.033324,-0.037804,0.062220,0.050368,-42.212723,-14.388046,-1.524078,,,,,,,
1537042392.812714,-1.539172,0.025729,1.602169,0.105295,-0.180441,-0.034631,-0.999168,-0.025727,-0.031608,-0.077325,0.055664,0.060127,-42.212723,-14.388046,-1.524078,,,,,,,
1537042392.822693,-1.540720,0.025576,1.603522,0.147537,-0.151713,0.021079,-0.999220,-0.025573,-0.030061,-0.113436,0.050598,0.085161,-42.202637,-14.118469,-1.291107,,,,,,,
1537042392.832672,-1.541762,0.024914,1.605305,0.186699,-0.089881,0.072471,-0.999267,-0.024911,-0.029021,-0.145386,0.039758,0.114821,-42.202637,-14.118469,-1.291107,,,,,,,
1537042392.842621,-1.542009,0.023831,1.607354,0.209989,-0.001285,0.118409,-0.999300,-0.023828,-0.028775,-0.169233,0.025049,0.137219,-42.148109,-14.188744,-1.250397,,,,,,,
1537042392.852600,-1.541088,0.022419,1.609597,0.223949,0.127900,0.149308,-0.999306,-0.022417,-0.029697,-0.178566,0.014696,0.149616,-42.148109,-14.188744,-1.250397,,,,,,,
1537042392.862579,-1.538817,0.020958,1.611940,0.234994,0.268777,0.150293,-0.999268,-0.020957,-0.031966,-0.169845,0.007453,0.153609,-42.365993,-13.811047,-1.381409,,,,,,,
1537042392.872559,-1.535269,0.019563,1.614379,0.239671,0.389382,0.141657,-0.999177,-0.019562,-0.035513,-0.139831,0.005478,0.142126,-42.365993,-13.811047,-1.381409,,,,,,,
1537042392.882538,-1.530775,0.018402,1.616804,0.239081,0.476878,0.115946,-0.999029,-0.018401,-0.040004,-0.091624,0.009490,0.115138,-42.399136,-13.504395,-1.565765,,,,,,,
1537042392.892517,-1.525723,0.017569,1.619167,0.230966,0.521690,0.082767,-0.998829,-0.017568,-0.045052,-0.034069,0.016729,0.085320,-42.399136,-13.504395,-1.565765,,,,,,,
1537042392.902496,-1.520459,0.017041,1.621393,0.219528,0.536636,0.054935,-0.998587,-0.017040,-0.050309,0.017462,0.020214,0.063111,-42.470963,-13.532211,-2.063568,,,,,,,
1537042392.912476,-1.515207,0.016839,1.623552,0.212354,0.532333,0.022875,-0.998312,-0.016838,-0.055553,0.064001,0.019188,0.047497,-42.470963,-13.532211,-2.063568,,,,,,,
1537042392.922455,-1.510094,0.016967,1.625581,0.203000,0.518434,-0.008118,-0.998013,-0.016966,-0.060656,0.100857,0.015166,0.036318,-42.216579,-13.434418,-2.463043,,,,,,,
1537042392.932434,-1.505222,0.017366,1.627471,0.187153,0.491769,-0.033796,-0.997699,-0.017365,-0.065517,0.125140,0.005966,0.028789,-42.216579,-13.434418,-2.463043,,,,,,,
1537042392.942413,-1.500684,0.017945,1.629107,0.164786,0.448074,-0.050954,-0.997381,-0.017944,-0.070044,0.132253,-0.003998,0.022818,-42.311325,-13.425663,-2.878357,,,,,,,
1537042392.952362,-1.496484,0.018734,1.630487,0.138245,0.416131,-0.074551,-0.997064,-0.018733,-0.074231,0.120049,-0.011250,0.028104,-42.311325,-13.425663,-2.878357,,,,,,,
1537042392.962341,-1.492475,0.019739,1.631617,0.118153,0.402305,-0.098131,-0.996739,-0.019738,-0.078226,0.087712,-0.016624,0.044321,-42.288132,-13.340591,-3.002869,,,,,,,
1537042392.972321,-1.488463,0.020979,1.632552,0.101326,0.406610,-0.122780,-0.996392,-0.020977,-0.082222,0.039879,-0.019214,0.065758,-42.288132,-13.340591,-3.002869,,,,,,,
1537042392.982300,-1.484401,0.022421,1.633356,0.090845,0.406621,-0.143119,-0.996019,-0.022419,-0.086266,-0.015502,-0.026119,0.085243,-42.288132,-13.340591,-3.002869,,,,,,,
1537042392.992279,-1.480491,0.024003,1.633972,0.072744,0.389612,-0.152807,-0.995637,-0.024000,-0.090157,-0.058867,-0.036913,0.104652,-42.294262,-13.508884,-3.535339,,,,,,,
1537042393.002258,-1.476840,0.025502,1.634364,0.045893,0.356675,-0.143314,-0.995264,-0.025499,-0.093787,-0.080541,-0.049788,0.121299,-42.294262,-13.508884,-3.535339,,,,,,,
1537042393.012238,-1.473628,0.026731,1.634392,0.006019,0.313175,-0.113600,-0.994926,-0.026728,-0.096981,-0.073784,-0.062109,0.131985,-42.187485,-13.629116,-3.755737,,,,,,,
1537042393.022217,-1.470920,0.027529,1.634055,-0.035055,0.259030,-0.072140,-0.994638,-0.027526,-0.099673,-0.047064,-0.068956,0.127169,-42.187485,-13.629116,-3.755737,,,,,,,
1537042393.032196,-1.468822,0.027880,1.633440,-0.062271,0.197337,-0.031663,-0.994417,-0.027876,-0.101758,-0.008695,-0.066591,0.105511,-42.148483,-13.546654,-4.071594,,,,,,,
1537042393.042175,-1.467562,0.027914,1.632719,-0.072394,0.104566,-0.002804,-0.994287,-0.027910,-0.103011,0.032556,-0.051725,0.065138,-42.148483,-13.546654,-4.071594,,,,,,,
1537042393.052124,-1.467425,0.027727,1.632021,-0.068639,-0.012854,0.017618,-0.994278,-0.027723,-0.103148,0.064179,-0.029848,0.016844,-42.145359,-13.585583,-4.197052,,,,,,,
,,,,,,,,,,,,,,,,42.293077,-71.262774,50.116394,0.000000,-1.000000,1537042392.997189,
1537042393.062103,-1.468547,0.027347,1.631482,-0.053173,-0.136739,0.039177,-0.994404,-0.027343,-0.102033,0.084599,-0.013443,-0.020404,-42.145359,-13.585583,-4.197052,,,,,,,
1537042393.072083,-1.470805,0.026801,1.631160,-0.030180,-0.244655,0.057562,-0.994646,-0.026798,-0.099789,0.093905,-0.002102,-0.035785,-42.145115,-13.535164,-4.168335,,,,,,,
1537042393.082062,-1.473915,0.026159,1.631132,-0.002754,-0.322716,0.068466,-0.994969,-0.026156,-0.096697,0.090596,0.006427,-0.035719,-42.145115,-13.535164,-4.168335,,,,,,,
1537042393.092041,-1.477564,0.025448,1.631347,0.021613,-0.363393,0.078243,-0.995333,-0.025446,-0.093067,0.075625,0.012201,-0.025814,-42.144997,-13.409103,-3.866089,,,,,,,
1537042393.102020,-1.481412,0.024710,1.631717,0.032204,-0.377319,0.082585,-0.995702,-0.024707,-0.089238,0.054144,0.017535,-0.008464,-42.144997,-13.409103,-3.866089,,,,,,,
1537042393.112000,-1.485292,0.023998,1.632076,0.031161,-0.379459,0.078313,-0.996058,-0.023996,-0.085376,0.030849,0.019845,0.006320,-42.144836,-13.537106,-3.659210,,,,,,,
1537042393.121979,-1.489109,0.023366,1.632457,0.032338,-0.375218,0.067641,-0.996392,-0.023364,-0.081574,0.011803,0.020099,0.018250,-42.144836,-13.537106,-3.659210,,,,,,,
1537042393.131958,-1.492715,0.022824,1.632806,0.033548,-0.354959,0.058020,-0.996692,-0.022822,-0.077982,-0.003156,0.018198,0.030436,-42.037514,-13.218853,-3.302368,,,,,,,
1537042393.141937,-1.495990,0.022388,1.633188,0.034818,-0.324032,0.045187,-0.996952,-0.022386,-0.074717,-0.015942,0.017458,0.041057,-42.037514,-13.218853,-3.302368,,,,,,,
1537042393.151886,-1.498896,0.022103,1.633569,0.039344,-0.288859,0.028096,-0.997171,-0.022101,-0.071821,-0.024283,0.020255,0.046476,-42.043884,-13.339260,-3.022217,,,,,,,
1537042393.161865,-1.501417,0.022001,1.633965,0.037503,-0.250458,0.007765,-0.997351,-0.021999,-0.069307,-0.025827,0.018993,0.043352,-42.043884,-13.339260,-3.022217,,,,,,,
1537042393.171845,-1.503617,0.022068,1.634271,0.032424,-0.218438,-0.009376,-0.997500,-0.022066,-0.067112,-0.023115,0.015642,0.033985,-41.944946,-13.303299,-2.976013,,,,,,,
1537042393.181824,-1.505611,0.022245,1.634472,0.017638,-0.195961,-0.019087,-0.997628,-0.022243,-0.065123,-0.019340,0.013393,0.022276,-41.944946,-13.303299,-2.976013,,,,,,,
1537042393.191803,-1.507410,0.022532,1.634548,0.011396,-0.176741,-0.033014,-0.997737,-0.022530,-0.063327,-0.016576,0.013085,0.008930,-41.936817,-13.269962,-2.704132,,,,,,,
1537042393.201782,-1.509066,0.022923,1.634542,-0.002336,-0.162813,-0.043778,-0.997831,-0.022921,-0.061675,-0.016008,0.010028,-0.001328,-41.936817,-13.269962,-2.704132,,,,,,,
1537042393.211762,-1.510764,0.023446,1.634373,-0.012885,-0.171329,-0.057707,-0.997922,-0.023444,-0.059979,-0.013751,0.001319,-0.010684,-41.905529,-13.305908,-2.559906,,,,,,,
1537042393.221741,-1.512551,0.024055,1.634092,-0.028826,-0.177670,-0.066327,-0.998013,-0.024053,-0.058195,-0.010013,-0.005106,-0.013323,-41.905529,-13.305908,-2.559906,,,,,,,
1537042393.231720,-1.514363,0.024703,1.633559,-0.053338,-0.180754,-0.070728,-0.998101,-0.024700,-0.056386,-0.003775,-0.008457,-0.012874,-41.887749,-13.209461,-2.493683,,,,,,,
1537042393.241699,-1.516217,0.025386,1.632785,-0.079972,-0.184897,-0.076207,-0.998187,-0.025383,-0.054534,0.001483,-0.015083,-0.013260,-41.887749,-13.209461,-2.493683,,,,,,,
1537042393.251648,-1.517999,0.026080,1.631727,-0.103411,-0.175167,-0.077412,-0.998265,-0.026077,-0.052755,0.002431,-0.020875,-0.010813,-41.809517,-13.308865,-2.558228,,,,,,,
1537042393.261627,-1.519587,0.026777,1.630455,-0.128953,-0.155818,-0.078639,-0.998329,-0.026774,-0.051169,-0.002815,-0.024526,-0.011270,-41.809517,-13.308865,-2.558228,,,,,,,
1537042393.271607,-1.520971,0.027426,1.628995,-0.143910,-0.140778,-0.072331,-0.998382,-0.027423,-0.049786,-0.005937,-0.024228,-0.017612,-41.810760,-13.363701,-2.073547,,,,,,,
1537042393.281586,-1.522242,0.028001,1.627485,-0.149287,-0.131124,-0.064899,-0.998428,-0.027998,-0.048516,-0.006042,-0.016833,-0.022285,-41.810760,-13.363701,-2.073547,,,,,,,
1537042393.291565,-1.523419,0.028523,1.625970,-0.145047,-0.123661,-0.059546,-0.998470,-0.028520,-0.047341,-0.001393,-0.007094,-0.026451,-41.810997,-13.359798,-2.287231,,,,,,,
